"ID","Name","Is_Closed","URL","Review_Count","Categories","Rating","Latitude","Longitude","Price","Address"
"nqhDhcARuKUeiqPRm5N6jA","Dirty Oar","FALSE","https://www.yelp.com/biz/dirty-oar-nekoosa?adjust_creative=QNZpjiWMh-xtTiixb79gYw&utm_campaign=yelp_api_v3&utm_medium=api_v3_business_search&utm_source=QNZpjiWMh-xtTiixb79gYw","19","Steakhouses","4","44.1880283","-89.8935312","$$","1682 Apache Ln"
"F0byYs6-1K2PopdXxw7ZzQ","Lure Bar & Grill","FALSE","https://www.yelp.com/biz/lure-bar-and-grill-nekoosa?adjust_creative=QNZpjiWMh-xtTiixb79gYw&utm_campaign=yelp_api_v3&utm_medium=api_v3_business_search&utm_source=QNZpjiWMh-xtTiixb79gYw","20","Bars | American (Traditional)","3.5","44.1745871","-89.9017151","$$","1735 Archer Ln"
"FlXv_363nL0cmyM0mol_nA","Petenwell Pub","FALSE","https://www.yelp.com/biz/petenwell-pub-arkdale?adjust_creative=QNZpjiWMh-xtTiixb79gYw&utm_campaign=yelp_api_v3&utm_medium=api_v3_business_search&utm_source=QNZpjiWMh-xtTiixb79gYw","9","Pizza","4","44.1181102","-89.9476456","$","1951 Bighorn Dr"
"8t9g4qYU9GjtyGQfDCPRmw","Greenside Grille at Lake Arrowhead","FALSE","https://www.yelp.com/biz/greenside-grille-at-lake-arrowhead-nekoosa?adjust_creative=QNZpjiWMh-xtTiixb79gYw&utm_campaign=yelp_api_v3&utm_medium=api_v3_business_search&utm_source=QNZpjiWMh-xtTiixb79gYw","4","American (Traditional) | Music Venues | Lounges","5","44.19133","-89.8161316","","1195 Apache Ln"
"IL-fjc83ycdXBWu99Debvg","Trail's End Bar and Grill","FALSE","https://www.yelp.com/biz/trails-end-bar-and-grill-nekoosa?adjust_creative=QNZpjiWMh-xtTiixb79gYw&utm_campaign=yelp_api_v3&utm_medium=api_v3_business_search&utm_source=QNZpjiWMh-xtTiixb79gYw","20","Bars | American (Traditional)","3","44.22013","-89.85652","$$","1497 Alpine Dr"
"O-j8kZyUZfVDT-hjFsUllQ","Lake Sherwood Lodge","FALSE","https://www.yelp.com/biz/lake-sherwood-lodge-nekoosa-3?adjust_creative=QNZpjiWMh-xtTiixb79gYw&utm_campaign=yelp_api_v3&utm_medium=api_v3_business_search&utm_source=QNZpjiWMh-xtTiixb79gYw","4","Burgers | American (Traditional) | Sandwiches","4","44.2014370631089","-89.8066746521707","","1146 W Queens Way"
"A1LoacG-zk-2YdKCItS_fQ","Mo's Bar & Grill","FALSE","https://www.yelp.com/biz/mos-bar-and-grill-friendship-2?adjust_creative=QNZpjiWMh-xtTiixb79gYw&utm_campaign=yelp_api_v3&utm_medium=api_v3_business_search&utm_source=QNZpjiWMh-xtTiixb79gYw","7","Bars | Seafood","4.5","44.0615952000421","-89.8041363805532","$$","1348 State Hwy 13"
"JsO8spwEkYh77-K3yz2Q5A","3 Lakes Bistro","FALSE","https://www.yelp.com/biz/3-lakes-bistro-nekoosa-2?adjust_creative=QNZpjiWMh-xtTiixb79gYw&utm_campaign=yelp_api_v3&utm_medium=api_v3_business_search&utm_source=QNZpjiWMh-xtTiixb79gYw","6","American (Traditional)","4","44.2535798579812","-89.8103041672939","","386 State Highway 13"
"cHzruDW14e0U-uHqvgZmVQ","Moose Morgans North","FALSE","https://www.yelp.com/biz/moose-morgans-north-arkdale?adjust_creative=QNZpjiWMh-xtTiixb79gYw&utm_campaign=yelp_api_v3&utm_medium=api_v3_business_search&utm_source=QNZpjiWMh-xtTiixb79gYw","2","American (Traditional)","2.5","44.1266737","-89.8077833","$$","899 State Rd 13"
"0bQNKFJyUehzvQ6wHNvHbA","Friar Tuck's Pub & Grille","FALSE","https://www.yelp.com/biz/friar-tucks-pub-and-grille-nekoosa?adjust_creative=QNZpjiWMh-xtTiixb79gYw&utm_campaign=yelp_api_v3&utm_medium=api_v3_business_search&utm_source=QNZpjiWMh-xtTiixb79gYw","6","Restaurants","3","44.2017303407192","-89.8081167787313","$","382 State Highway 13"
"mAW26U1Vak8gGQ-eWWprMg","Romano's Pizzeria","FALSE","https://www.yelp.com/biz/romanos-pizzeria-nekoosa?adjust_creative=QNZpjiWMh-xtTiixb79gYw&utm_campaign=yelp_api_v3&utm_medium=api_v3_business_search&utm_source=QNZpjiWMh-xtTiixb79gYw","17","Pizza","3","44.247428894043","-89.8658981323242","$$","108 County Rd Z"
"cg49PsXSv3j9AzID8w9dOA","JB Country Restaurant","FALSE","https://www.yelp.com/biz/jb-country-restaurant-arkdale?adjust_creative=QNZpjiWMh-xtTiixb79gYw&utm_campaign=yelp_api_v3&utm_medium=api_v3_business_search&utm_source=QNZpjiWMh-xtTiixb79gYw","10","American (Traditional) | Breakfast & Brunch | Polish","5","44.04018","-89.93728","$","1898 State Rd 21"
"zJfEH4yKFRhJzAUgH1rY7Q","Shipwreck Bay","FALSE","https://www.yelp.com/biz/shipwreck-bay-mauston?adjust_creative=QNZpjiWMh-xtTiixb79gYw&utm_campaign=yelp_api_v3&utm_medium=api_v3_business_search&utm_source=QNZpjiWMh-xtTiixb79gYw","23","American (Traditional)","4","43.9008864015341","-90.0227297097445","$$","N7265 Shacks Rd"
"E7npbuytsIrcKxnxwBXlpQ","Spot In the Woods","FALSE","https://www.yelp.com/biz/spot-in-the-woods-friendship?adjust_creative=QNZpjiWMh-xtTiixb79gYw&utm_campaign=yelp_api_v3&utm_medium=api_v3_business_search&utm_source=QNZpjiWMh-xtTiixb79gYw","5","Bars | American (Traditional)","4","43.9753182203658","-89.8973647271133","$$","1940 17th Ct"
"DyDoxILuhava8f-pXJAIpg","Carlson's Rustic Ridge","FALSE","https://www.yelp.com/biz/carlsons-rustic-ridge-friendship?adjust_creative=QNZpjiWMh-xtTiixb79gYw&utm_campaign=yelp_api_v3&utm_medium=api_v3_business_search&utm_source=QNZpjiWMh-xtTiixb79gYw","21","American (Traditional) | Seafood | Hot Dogs","4","43.93257","-89.94571","$$","2230 Town Rd"
"hUKHJMxW4jCxEvnpOVBiZQ","Buckhorn Grill and Bar","FALSE","https://www.yelp.com/biz/buckhorn-grill-and-bar-necedah-2?adjust_creative=QNZpjiWMh-xtTiixb79gYw&utm_campaign=yelp_api_v3&utm_medium=api_v3_business_search&utm_source=QNZpjiWMh-xtTiixb79gYw","3","Bars | American (Traditional)","3.5","43.9484630963408","-90.0156288805101","","N8404 19th Ave"
"4SK34WGpc0uze7FLSrBsng","Splash Waterfront Bar & Grill","FALSE","https://www.yelp.com/biz/splash-waterfront-bar-and-grill-friendship?adjust_creative=QNZpjiWMh-xtTiixb79gYw&utm_campaign=yelp_api_v3&utm_medium=api_v3_business_search&utm_source=QNZpjiWMh-xtTiixb79gYw","19","American (Traditional) | Desserts | Bars","2.5","43.969184","-89.94691","$$","1947 Dakota Ln"
"TfgJ5gM1j-NSB6IBDVT0AA","Dellwood Pavillion","FALSE","https://www.yelp.com/biz/dellwood-pavillion-friendship?adjust_creative=QNZpjiWMh-xtTiixb79gYw&utm_campaign=yelp_api_v3&utm_medium=api_v3_business_search&utm_source=QNZpjiWMh-xtTiixb79gYw","5","Steakhouses | Fast Food | Sandwiches","4.5","43.9552732630977","-89.9391362644738","$","1907 Deerborn Ln"
"-_h8-R_6BtRR7UDUl3vN-g","J B Sales","FALSE","https://www.yelp.com/biz/j-b-sales-arkdale?adjust_creative=QNZpjiWMh-xtTiixb79gYw&utm_campaign=yelp_api_v3&utm_medium=api_v3_business_search&utm_source=QNZpjiWMh-xtTiixb79gYw","7","Polish | Gas Stations | Convenience Stores","3.5","44.04018","-89.93728","$","1898 State Rd 21"
"v2JY46P8lUGFCiXS8fpeYw","Moonshiners Old Mill Bar & Grill","FALSE","https://www.yelp.com/biz/moonshiners-old-mill-bar-and-grill-arkdale?adjust_creative=QNZpjiWMh-xtTiixb79gYw&utm_campaign=yelp_api_v3&utm_medium=api_v3_business_search&utm_source=QNZpjiWMh-xtTiixb79gYw","5","Bars | American (Traditional)","3","44.0297117","-89.8878177","$","1562 State Rd 21"
"Zo5x2U2Tq0OZ_qdVia2bVA","Dirty Turtle","FALSE","https://www.yelp.com/biz/dirty-turtle-new-lisbon-2?adjust_creative=QNZpjiWMh-xtTiixb79gYw&utm_campaign=yelp_api_v3&utm_medium=api_v3_business_search&utm_source=QNZpjiWMh-xtTiixb79gYw","20","American (New)","3.5","43.913237","-90.031817","$","W5250 N Osprey Dr"
"my72umq8FTm4vcMMX0k6aQ","Kubon's Dellwood Pavilion","FALSE","https://www.yelp.com/biz/kubons-dellwood-pavilion-friendship?adjust_creative=QNZpjiWMh-xtTiixb79gYw&utm_campaign=yelp_api_v3&utm_medium=api_v3_business_search&utm_source=QNZpjiWMh-xtTiixb79gYw","3","Restaurants","3.5","43.9549599","-89.9393234","","1907 Deerborn Ln"
"iHzEDNVyvGnOC8UVGPVoaQ","Country Skillet","FALSE","https://www.yelp.com/biz/country-skillet-adams?adjust_creative=QNZpjiWMh-xtTiixb79gYw&utm_campaign=yelp_api_v3&utm_medium=api_v3_business_search&utm_source=QNZpjiWMh-xtTiixb79gYw","12","American (New)","4.5","43.956446050445","-89.8198116627031","$$","320 S Main St"
"RI9DpMzdOJB-_7UCmAOVNQ","Inn of the Pines","FALSE","https://www.yelp.com/biz/inn-of-the-pines-friendship?adjust_creative=QNZpjiWMh-xtTiixb79gYw&utm_campaign=yelp_api_v3&utm_medium=api_v3_business_search&utm_source=QNZpjiWMh-xtTiixb79gYw","5","Hotels | American (Traditional)","3.5","44.0221913158894","-89.8122151941061","$$","1617 State Highway 13"
"duQGa9MTsd5h24lb27wIvA","Bucky's Brick Oven Eatery","FALSE","https://www.yelp.com/biz/buckys-brick-oven-eatery-adams?adjust_creative=QNZpjiWMh-xtTiixb79gYw&utm_campaign=yelp_api_v3&utm_medium=api_v3_business_search&utm_source=QNZpjiWMh-xtTiixb79gYw","16","Pizza | Italian","4","43.95646","-89.81724","$","166 S Main St"
"0orgP89JQBVuaIAoeTGfWQ","Jose's Authentic Mexican Restaurant","FALSE","https://www.yelp.com/biz/joses-authentic-mexican-restaurant-adams?adjust_creative=QNZpjiWMh-xtTiixb79gYw&utm_campaign=yelp_api_v3&utm_medium=api_v3_business_search&utm_source=QNZpjiWMh-xtTiixb79gYw","19","Mexican","4","43.9554482","-89.8172226","$$","218 S Main St"
"T3bKo0YKbMYbSnl71Hv7-Q","Family Affair Restaurant","FALSE","https://www.yelp.com/biz/family-affair-restaurant-friendship?adjust_creative=QNZpjiWMh-xtTiixb79gYw&utm_campaign=yelp_api_v3&utm_medium=api_v3_business_search&utm_source=QNZpjiWMh-xtTiixb79gYw","9","Breakfast & Brunch | Diners | American (Traditional)","3","43.9770355224609","-89.8153915405273","$$","208 N Main St"
"mMDIWgBW8T4TQXm7GTA7Og","2113 Cafe","FALSE","https://www.yelp.com/biz/2113-cafe-friendship?adjust_creative=QNZpjiWMh-xtTiixb79gYw&utm_campaign=yelp_api_v3&utm_medium=api_v3_business_search&utm_source=QNZpjiWMh-xtTiixb79gYw","5","American (New) | Breakfast & Brunch | Greek","3.5","44.02568","-89.80658","$","1150 State Rd 21"
"D6mUtp_IeUIJS9ABkn0EsA","Friendship Cafe","FALSE","https://www.yelp.com/biz/friendship-cafe-friendship?adjust_creative=QNZpjiWMh-xtTiixb79gYw&utm_campaign=yelp_api_v3&utm_medium=api_v3_business_search&utm_source=QNZpjiWMh-xtTiixb79gYw","5","Restaurants","3.5","43.9718627929688","-89.8165283203125","$","303 Main St"
"xbWxTosFFPPlcTcRaZ2Sbw","Becky's Sugar Shack Bakery and Cafe","FALSE","https://www.yelp.com/biz/beckys-sugar-shack-bakery-and-cafe-adams?adjust_creative=QNZpjiWMh-xtTiixb79gYw&utm_campaign=yelp_api_v3&utm_medium=api_v3_business_search&utm_source=QNZpjiWMh-xtTiixb79gYw","4","Cafes | Bakeries | Ice Cream & Frozen Yogurt","4.5","43.9565658569336","-89.8172454833984","$","158 South Main St"
"5IBBZS7EvG4yZBrxvqsH3A","Golden City","FALSE","https://www.yelp.com/biz/golden-city-adams?adjust_creative=QNZpjiWMh-xtTiixb79gYw&utm_campaign=yelp_api_v3&utm_medium=api_v3_business_search&utm_source=QNZpjiWMh-xtTiixb79gYw","3","Chinese","3","43.95303","-89.81716","$","400 S Main St"
"UjuFvImqnGNzGj0ZLc_5RA","A-F County Market","FALSE","https://www.yelp.com/biz/a-f-county-market-adams?adjust_creative=QNZpjiWMh-xtTiixb79gYw&utm_campaign=yelp_api_v3&utm_medium=api_v3_business_search&utm_source=QNZpjiWMh-xtTiixb79gYw","3","Grocery | Beer, Wine & Spirits | Delis","4.5","43.96641","-89.82001","$","215 W North St"
"z0Ui5qWor5ohrt01cSASTQ","Papa's Pizza","FALSE","https://www.yelp.com/biz/papas-pizza-adams?adjust_creative=QNZpjiWMh-xtTiixb79gYw&utm_campaign=yelp_api_v3&utm_medium=api_v3_business_search&utm_source=QNZpjiWMh-xtTiixb79gYw","4","Pizza","3.5","43.958927154541","-89.8172988891602","$$","166 N Main St"
"aVJQkR-eJzPdofLP6o3nwA","McDonald's","FALSE","https://www.yelp.com/biz/mcdonalds-adams?adjust_creative=QNZpjiWMh-xtTiixb79gYw&utm_campaign=yelp_api_v3&utm_medium=api_v3_business_search&utm_source=QNZpjiWMh-xtTiixb79gYw","2","Burgers | Fast Food | Coffee & Tea","2.5","43.9526332130016","-89.8183193884324","","453 S Main St"
"xn_77XBptynEelcSktJYTg","Subway","FALSE","https://www.yelp.com/biz/subway-adams-5?adjust_creative=QNZpjiWMh-xtTiixb79gYw&utm_campaign=yelp_api_v3&utm_medium=api_v3_business_search&utm_source=QNZpjiWMh-xtTiixb79gYw","1","Fast Food | Sandwiches","1","43.9656600952148","-89.8183441162109","","515 N Main St"
"fqieekCXz0CtUvx8bzO-hg","Misty's Menu","FALSE","https://www.yelp.com/biz/mistys-menu-wisconsin-rapids?adjust_creative=QNZpjiWMh-xtTiixb79gYw&utm_campaign=yelp_api_v3&utm_medium=api_v3_business_search&utm_source=QNZpjiWMh-xtTiixb79gYw","20","Breakfast & Brunch | American (Traditional)","5","44.311633","-89.809639","$","9041 State Hwy 13 S"
"RmtX2aduv-rTg6Ic4ny6Uw","The Haystack Supper Club","FALSE","https://www.yelp.com/biz/the-haystack-supper-club-westfield?adjust_creative=QNZpjiWMh-xtTiixb79gYw&utm_campaign=yelp_api_v3&utm_medium=api_v3_business_search&utm_source=QNZpjiWMh-xtTiixb79gYw","10","Diners | Breakfast & Brunch","2.5","43.8830378","-89.5306454","$$","W7457 County Rd E"
"E1G3wfKRNHaIvgq1Wv_H0Q","Branding Iron Supper Club","FALSE","https://www.yelp.com/biz/branding-iron-supper-club-wisconsin-rapids?adjust_creative=QNZpjiWMh-xtTiixb79gYw&utm_campaign=yelp_api_v3&utm_medium=api_v3_business_search&utm_source=QNZpjiWMh-xtTiixb79gYw","18","Seafood | Steakhouses | Supper Clubs","3.5","44.3056408796","-89.8098035456","$$","9721 State Hwy 13 S"
"lLptGOYUfQ-Ir47UYJv0dw","AA Roadhouse Bar & Grill","FALSE","https://www.yelp.com/biz/aa-roadhouse-bar-and-grill-wisconsin-rapids?adjust_creative=QNZpjiWMh-xtTiixb79gYw&utm_campaign=yelp_api_v3&utm_medium=api_v3_business_search&utm_source=QNZpjiWMh-xtTiixb79gYw","3","Burgers | Fast Food","4","44.2481384","-89.7266312","","784 State Hwy 73 S"
"aKpWeIH5JNa1MssbEFW3qQ","Haystack Lounge and Dining","FALSE","https://www.yelp.com/biz/haystack-lounge-and-dining-westfield?adjust_creative=QNZpjiWMh-xtTiixb79gYw&utm_campaign=yelp_api_v3&utm_medium=api_v3_business_search&utm_source=QNZpjiWMh-xtTiixb79gYw","2","American (Traditional) | Pizza | Barbeque","3","43.88227","-89.530291","","W7457 Cty Rd E"
"GlPWlGGRKBj1gIJXzi0kOg","Boone's Saloon","FALSE","https://www.yelp.com/biz/boones-saloon-wisconsin-rapids?adjust_creative=QNZpjiWMh-xtTiixb79gYw&utm_campaign=yelp_api_v3&utm_medium=api_v3_business_search&utm_source=QNZpjiWMh-xtTiixb79gYw","2","Nightlife | Restaurants","4","44.321434","-89.8105011","","8010 State Highway 13 S"
"RHFqsWhCjMgyn9kj0HBKLA","Octane Bar & Grill","FALSE","https://www.yelp.com/biz/octane-bar-and-grill-wisconsin-rapids-2?adjust_creative=QNZpjiWMh-xtTiixb79gYw&utm_campaign=yelp_api_v3&utm_medium=api_v3_business_search&utm_source=QNZpjiWMh-xtTiixb79gYw","2","Bars | Music Venues | American (Traditional)","3.5","44.3132363099859","-89.8102360591292","$","9047 State Hwy 13 S"
"kNhNwqpO62PEjA5g-c82Sw","Portofino Bay","FALSE","https://www.yelp.com/biz/portofino-bay-mauston-2?adjust_creative=QNZpjiWMh-xtTiixb79gYw&utm_campaign=yelp_api_v3&utm_medium=api_v3_business_search&utm_source=QNZpjiWMh-xtTiixb79gYw","23","Italian | American (Traditional)","2.5","43.894428","-89.977049","$$","N6895 Ridgewater Dr"
"f1hFtdy4ajxerJB0HpooIw","Kozy's Pizza","FALSE","https://www.yelp.com/biz/kozys-pizza-mauston?adjust_creative=QNZpjiWMh-xtTiixb79gYw&utm_campaign=yelp_api_v3&utm_medium=api_v3_business_search&utm_source=QNZpjiWMh-xtTiixb79gYw","10","Pizza","3.5","43.8932412","-89.9905632","$$","North 6897 County Road G"
"Rn-K77NFvSOAQP0r0sHeUg","The Way Station","FALSE","https://www.yelp.com/biz/the-way-station-mauston-2?adjust_creative=QNZpjiWMh-xtTiixb79gYw&utm_campaign=yelp_api_v3&utm_medium=api_v3_business_search&utm_source=QNZpjiWMh-xtTiixb79gYw","4","Pubs | American (Traditional)","3","43.8183791945071","-89.9379016289917","$","N4902 County Rd Hh"
"6Z1rEAYDwR21zTM6DCewag","Joe's Horseshoe Diner","FALSE","https://www.yelp.com/biz/joes-horseshoe-diner-lyndon-station-3?adjust_creative=QNZpjiWMh-xtTiixb79gYw&utm_campaign=yelp_api_v3&utm_medium=api_v3_business_search&utm_source=QNZpjiWMh-xtTiixb79gYw","8","Diners | American (Traditional) | Breakfast & Brunch","4","43.7110859","-89.9009071","$","111 E Flint St"
"rTZF-V2wIVenC8hg5UYSkw","Swagger Inn","FALSE","https://www.yelp.com/biz/swagger-inn-lyndon-station?adjust_creative=QNZpjiWMh-xtTiixb79gYw&utm_campaign=yelp_api_v3&utm_medium=api_v3_business_search&utm_source=QNZpjiWMh-xtTiixb79gYw","8","Restaurants","4","43.71059","-89.90185","$$","156 S Wisconsin St"
"ipt5vSQnR9xwX1rrPs0TNQ","Norm's Eatery and Tap","FALSE","https://www.yelp.com/biz/norms-eatery-and-tap-lyndon-station?adjust_creative=QNZpjiWMh-xtTiixb79gYw&utm_campaign=yelp_api_v3&utm_medium=api_v3_business_search&utm_source=QNZpjiWMh-xtTiixb79gYw","3","Sports Bars | American (Traditional)","3.5","43.7113285971182","-89.9010830502227","","106 N Wisconsin St"
"5XXg3gm8HGq7g7ZNe8X_kw","Subway","FALSE","https://www.yelp.com/biz/subway-lyndon-station?adjust_creative=QNZpjiWMh-xtTiixb79gYw&utm_campaign=yelp_api_v3&utm_medium=api_v3_business_search&utm_source=QNZpjiWMh-xtTiixb79gYw","1","Fast Food | Sandwiches","1","43.7157318","-89.8951018","$","N-470 County Rd Hh"
"ABvjMpHwEw0ftBP6BF4oNQ","MACS- Macaroni and Cheese Shop","FALSE","https://www.yelp.com/biz/macs-macaroni-and-cheese-shop-wisconsin-dells-2?adjust_creative=QNZpjiWMh-xtTiixb79gYw&utm_campaign=yelp_api_v3&utm_medium=api_v3_business_search&utm_source=QNZpjiWMh-xtTiixb79gYw","432","American (Traditional)","4.5","43.6276652","-89.7748249","$","208 Broadway"
"2wswUITudWKkDb2djf1wFw","High Rock Cafe","FALSE","https://www.yelp.com/biz/high-rock-cafe-wisconsin-dells?adjust_creative=QNZpjiWMh-xtTiixb79gYw&utm_campaign=yelp_api_v3&utm_medium=api_v3_business_search&utm_source=QNZpjiWMh-xtTiixb79gYw","483","Coffee & Tea | American (New)","4","43.62747","-89.77391","$$","232 Broadway"
"clqx-OJj9umryyCTweXomw","RuBBs Steakhouse","FALSE","https://www.yelp.com/biz/rubbs-steakhouse-wisconsin-dells-2?adjust_creative=QNZpjiWMh-xtTiixb79gYw&utm_campaign=yelp_api_v3&utm_medium=api_v3_business_search&utm_source=QNZpjiWMh-xtTiixb79gYw","43","Bars | Steakhouses | Salad","3.5","43.6509741613096","-89.7750847870049","$$","4124 River Rd"
"UCeWk7h56fmohI1Ld_7fRQ","Paul Bunyan's Cook Shanty","FALSE","https://www.yelp.com/biz/paul-bunyans-cook-shanty-wisconsin-dells-3?adjust_creative=QNZpjiWMh-xtTiixb79gYw&utm_campaign=yelp_api_v3&utm_medium=api_v3_business_search&utm_source=QNZpjiWMh-xtTiixb79gYw","323","Breakfast & Brunch | American (Traditional) | Donuts","3.5","43.6251132391985","-89.7893253564835","$$","411 State Hwy 13 S"
"-_CUQkJD7emNuoqEkkHRpg","B-Lux Grill & Bar","FALSE","https://www.yelp.com/biz/b-lux-grill-and-bar-wisconsin-dells?adjust_creative=QNZpjiWMh-xtTiixb79gYw&utm_campaign=yelp_api_v3&utm_medium=api_v3_business_search&utm_source=QNZpjiWMh-xtTiixb79gYw","208","Sports Bars | American (Traditional)","4","43.60606","-89.792002","$$","1481 Wisconsin Dells Pkwy N"
"jVvIDPjClpJVgE7Vx6cdZQ","Kaminski's Chop House","FALSE","https://www.yelp.com/biz/kaminskis-chop-house-wisconsin-dells-3?adjust_creative=QNZpjiWMh-xtTiixb79gYw&utm_campaign=yelp_api_v3&utm_medium=api_v3_business_search&utm_source=QNZpjiWMh-xtTiixb79gYw","53","Steakhouses | Venues & Event Spaces","4","43.664424","-89.784484","$$$","2501 River Rd Hwy 13 N"
"oCrcJbG9achydZh5BBkAFA","Belgiis Waffle Bar","FALSE","https://www.yelp.com/biz/belgiis-waffle-bar-wisconsin-dells?adjust_creative=QNZpjiWMh-xtTiixb79gYw&utm_campaign=yelp_api_v3&utm_medium=api_v3_business_search&utm_source=QNZpjiWMh-xtTiixb79gYw","56","Breakfast & Brunch | Waffles | Juice Bars & Smoothies","4","43.6275","-89.77566","$","126 Broadway"
"JmjJTvLguY86TA3E-nbuww","Monk's Bar & Grill - Wisconsin Dells","FALSE","https://www.yelp.com/biz/monks-bar-and-grill-wisconsin-dells-wisconsin-dells?adjust_creative=QNZpjiWMh-xtTiixb79gYw&utm_campaign=yelp_api_v3&utm_medium=api_v3_business_search&utm_source=QNZpjiWMh-xtTiixb79gYw","257","American (Traditional) | Burgers | Sports Bars","4","43.62758","-89.774381","$$","220 Broadway"
"4qZ79Pk4irpdvDhoN_V2zw","The Keg & Patio Bar","FALSE","https://www.yelp.com/biz/the-keg-and-patio-bar-wisconsin-dells?adjust_creative=QNZpjiWMh-xtTiixb79gYw&utm_campaign=yelp_api_v3&utm_medium=api_v3_business_search&utm_source=QNZpjiWMh-xtTiixb79gYw","106","American (Traditional) | Breakfast & Brunch | Sports Bars","4","43.6270721","-89.773372","$$","732 Oak St"
"rK9Sgxg48eVbryn-QBrCmw","Dells Pizza Lab","FALSE","https://www.yelp.com/biz/dells-pizza-lab-wisconsin-dells?adjust_creative=QNZpjiWMh-xtTiixb79gYw&utm_campaign=yelp_api_v3&utm_medium=api_v3_business_search&utm_source=QNZpjiWMh-xtTiixb79gYw","82","Salad | Pizza","4.5","43.6246741","-89.7874256","$","332 Wi-13"
"IVcO-G5OyG8e7KIaB5QG5w","Great Harvest Bread Company","FALSE","https://www.yelp.com/biz/great-harvest-bread-company-wisconsin-dells?adjust_creative=QNZpjiWMh-xtTiixb79gYw&utm_campaign=yelp_api_v3&utm_medium=api_v3_business_search&utm_source=QNZpjiWMh-xtTiixb79gYw","34","Bakeries | Cafes","4.5","43.62789","-89.7724","$","329 Broadway"
"dj82A4zO7Wk4sSXvgVLH2g","Edge-O-Dells Bar and Restaurant","FALSE","https://www.yelp.com/biz/edge-o-dells-bar-and-restaurant-wisconsin-dells-2?adjust_creative=QNZpjiWMh-xtTiixb79gYw&utm_campaign=yelp_api_v3&utm_medium=api_v3_business_search&utm_source=QNZpjiWMh-xtTiixb79gYw","3","Bars | American (Traditional)","4","43.6583821","-89.8265371","$","N555 US Hiwy 12 And 16"
"TARmQOVir9jV-FAEImjCcw","Dockside Grill & Rum Bar","FALSE","https://www.yelp.com/biz/dockside-grill-and-rum-bar-wisconsin-dells?adjust_creative=QNZpjiWMh-xtTiixb79gYw&utm_campaign=yelp_api_v3&utm_medium=api_v3_business_search&utm_source=QNZpjiWMh-xtTiixb79gYw","15","Cocktail Bars | Burgers | American (Traditional)","4","43.625318","-89.785117","$$","2370 Wisconsin Dells Pkwy"
"Ib1IU8Uu3AIlGm1enLxMjg","Crabby's Hot Rocks - Steaks, Seafood & More","FALSE","https://www.yelp.com/biz/crabbys-hot-rocks-steaks-seafood-and-more-wisconsin-dells?adjust_creative=QNZpjiWMh-xtTiixb79gYw&utm_campaign=yelp_api_v3&utm_medium=api_v3_business_search&utm_source=QNZpjiWMh-xtTiixb79gYw","41","Seafood | American (New)","2.5","43.6053367059959","-89.7700520842595","$$$","385 County Rd A"
"n4j1X30eesx3uKhQFYt_VQ","Mamas Garage","FALSE","https://www.yelp.com/biz/mamas-garage-wisconsin-dells?adjust_creative=QNZpjiWMh-xtTiixb79gYw&utm_campaign=yelp_api_v3&utm_medium=api_v3_business_search&utm_source=QNZpjiWMh-xtTiixb79gYw","8","Sports Bars | American (Traditional)","5","43.6273735","-89.7767781","$","731 Eddy St"
"Dp-2EU9MrpvJ0l91QJRZEg","Cheese Cake Heaven - Wisconsin Dells","FALSE","https://www.yelp.com/biz/cheese-cake-heaven-wisconsin-dells-wisconsin-dells?adjust_creative=QNZpjiWMh-xtTiixb79gYw&utm_campaign=yelp_api_v3&utm_medium=api_v3_business_search&utm_source=QNZpjiWMh-xtTiixb79gYw","36","Coffee & Tea | Delis","3","43.6279724","-89.7739707","$$","231 Broadway St"
"g1dXpL0Q5Nw6yZyOld8UtA","Mr. Pancake","FALSE","https://www.yelp.com/biz/mr-pancake-wisconsin-dells?adjust_creative=QNZpjiWMh-xtTiixb79gYw&utm_campaign=yelp_api_v3&utm_medium=api_v3_business_search&utm_source=QNZpjiWMh-xtTiixb79gYw","154","American (Traditional) | Breakfast & Brunch","3.5","43.60449","-89.79203","$$","1405 Wisconsin Dells Pkwy"
"nYEyIhcHuXK1me8WZrmyjA","Sarento's Italian Restaurant At The Wilderness","FALSE","https://www.yelp.com/biz/sarentos-italian-restaurant-at-the-wilderness-wisconsin-dells-4?adjust_creative=QNZpjiWMh-xtTiixb79gYw&utm_campaign=yelp_api_v3&utm_medium=api_v3_business_search&utm_source=QNZpjiWMh-xtTiixb79gYw","144","Italian | Pizza","3","43.6300091","-89.7875266","$$","441 Wisconsin Dells Pkwy"
"VRUnfbYzRJ4hGcIMk7FEyQ","Kyoto Hibachi-Sushi","FALSE","https://www.yelp.com/biz/kyoto-hibachi-sushi-wisconsin-dells?adjust_creative=QNZpjiWMh-xtTiixb79gYw&utm_campaign=yelp_api_v3&utm_medium=api_v3_business_search&utm_source=QNZpjiWMh-xtTiixb79gYw","45","Japanese | Sushi Bars","4","43.6048379","-89.7921695","$$","1425 Wisconsin Dells Pkwy"
"HF7HhbPnqC3lJS2WLhuAUQ","Bj's Restaurant","FALSE","https://www.yelp.com/biz/bjs-restaurant-wisconsin-dells?adjust_creative=QNZpjiWMh-xtTiixb79gYw&utm_campaign=yelp_api_v3&utm_medium=api_v3_business_search&utm_source=QNZpjiWMh-xtTiixb79gYw","101","Breakfast & Brunch","3.5","43.60275","-89.79289","$","1201 Wisconsin Dells Pkwy"
"3ubCjF7alhMD_ZBJbt5wtw","Kilbourn City Grill","FALSE","https://www.yelp.com/biz/kilbourn-city-grill-wisconsin-dells?adjust_creative=QNZpjiWMh-xtTiixb79gYw&utm_campaign=yelp_api_v3&utm_medium=api_v3_business_search&utm_source=QNZpjiWMh-xtTiixb79gYw","12","American (Traditional)","2","43.6662653097718","-89.7859273924486","$$","2501 River Rd"
"rtSv8mMmvCfK0YTzurcoFg","The Sand Trap Bar & Grill","FALSE","https://www.yelp.com/biz/the-sand-trap-bar-and-grill-wisconsin-dells?adjust_creative=QNZpjiWMh-xtTiixb79gYw&utm_campaign=yelp_api_v3&utm_medium=api_v3_business_search&utm_source=QNZpjiWMh-xtTiixb79gYw","3","American (Traditional) | Bars","4.5","43.61654","-89.86321","","S797 Christmas Mountain Rd"
"Wt0kigq9SuXNif3VyoX3ow","Edytka's Polish Restaurant","FALSE","https://www.yelp.com/biz/edytkas-polish-restaurant-wisconsin-dells?adjust_creative=QNZpjiWMh-xtTiixb79gYw&utm_campaign=yelp_api_v3&utm_medium=api_v3_business_search&utm_source=QNZpjiWMh-xtTiixb79gYw","33","Polish","4","43.6278494212442","-89.7744976356626","$","221 Broadway"
"lwWjN5nXumOtEZjvZiLp8Q","The Tavern Restaurant","FALSE","https://www.yelp.com/biz/the-tavern-restaurant-wisconsin-dells?adjust_creative=QNZpjiWMh-xtTiixb79gYw&utm_campaign=yelp_api_v3&utm_medium=api_v3_business_search&utm_source=QNZpjiWMh-xtTiixb79gYw","4","American (Traditional) | Seafood","2.5","43.663479","-89.778809","","1000 Chula Vista Pwky"
"Q8t-mZxSOh7L07v2_9tH3g","Hot Dog Avenue","FALSE","https://www.yelp.com/biz/hot-dog-avenue-wisconsin-dells?adjust_creative=QNZpjiWMh-xtTiixb79gYw&utm_campaign=yelp_api_v3&utm_medium=api_v3_business_search&utm_source=QNZpjiWMh-xtTiixb79gYw","65","Hot Dogs | Fast Food | Cheesesteaks","4.5","43.6040831920305","-89.7922403950132","$","1321 Wisconsin Dells Pkwy"
"npZLRMQDQMB3zRmMAWJLXA","Showboat Saloon","FALSE","https://www.yelp.com/biz/showboat-saloon-wisconsin-dells?adjust_creative=QNZpjiWMh-xtTiixb79gYw&utm_campaign=yelp_api_v3&utm_medium=api_v3_business_search&utm_source=QNZpjiWMh-xtTiixb79gYw","44","Bars | Sandwiches","4","43.6275199","-89.77749","$","24 Broadway"
"k74iH-973ZEHRHuK2dhYJg","Dells Distillery","FALSE","https://www.yelp.com/biz/dells-distillery-wisconsin-dells?adjust_creative=QNZpjiWMh-xtTiixb79gYw&utm_campaign=yelp_api_v3&utm_medium=api_v3_business_search&utm_source=QNZpjiWMh-xtTiixb79gYw","50","American (New)","3","43.6273759407027","-89.7749070078135","$$","206 Broadway Rd"
"9iZ8HwVxJW438frdfSKgig","Colotlan Mexican Restaurants","FALSE","https://www.yelp.com/biz/colotlan-mexican-restaurants-wisconsin-dells?adjust_creative=QNZpjiWMh-xtTiixb79gYw&utm_campaign=yelp_api_v3&utm_medium=api_v3_business_search&utm_source=QNZpjiWMh-xtTiixb79gYw","36","Mexican","3.5","43.6274464","-89.7749101","$$","324 Broadway St"
"A1BGKvxTMetw3AJMAh-rmA","Pizza Villa","FALSE","https://www.yelp.com/biz/pizza-villa-wisconsin-dells?adjust_creative=QNZpjiWMh-xtTiixb79gYw&utm_campaign=yelp_api_v3&utm_medium=api_v3_business_search&utm_source=QNZpjiWMh-xtTiixb79gYw","40","Pizza | Italian","4","43.62728","-89.77544","$$","737 Superior St"
"HDELWuzxzbIM407y-Lo3-w","Mulligan's  BAr and Grill","FALSE","https://www.yelp.com/biz/mulligans-bar-and-grill-wisconsin-dells?adjust_creative=QNZpjiWMh-xtTiixb79gYw&utm_campaign=yelp_api_v3&utm_medium=api_v3_business_search&utm_source=QNZpjiWMh-xtTiixb79gYw","8","American (Traditional) | Bars","3","43.6090920317685","-89.860142916441","$$","Christmas Mountain Village"
"2-5NlLK9s1cZy1twNTHK_Q","The Sand Bar","FALSE","https://www.yelp.com/biz/the-sand-bar-wisconsin-dells?adjust_creative=QNZpjiWMh-xtTiixb79gYw&utm_campaign=yelp_api_v3&utm_medium=api_v3_business_search&utm_source=QNZpjiWMh-xtTiixb79gYw","26","Sports Bars | American (Traditional)","4","43.6259299","-89.77553","$","130 Washington Ave"
"X7ySTgSKEjobIhewtxqv5Q","Mexicali Rose Restaurant","FALSE","https://www.yelp.com/biz/mexicali-rose-restaurant-wisconsin-dells?adjust_creative=QNZpjiWMh-xtTiixb79gYw&utm_campaign=yelp_api_v3&utm_medium=api_v3_business_search&utm_source=QNZpjiWMh-xtTiixb79gYw","135","Mexican | Bars | New Mexican Cuisine","2.5","43.6257","-89.78528","$$","195 State Highway 13"
"on-wgZsUSiwfz-NBrdt8LQ","Wei's Chinese Restaurant","FALSE","https://www.yelp.com/biz/weis-chinese-restaurant-wisconsin-dells?adjust_creative=QNZpjiWMh-xtTiixb79gYw&utm_campaign=yelp_api_v3&utm_medium=api_v3_business_search&utm_source=QNZpjiWMh-xtTiixb79gYw","31","Chinese","2.5","43.623003198673","-89.7956085423279","$$","630 S Frontage Rd"
"mTR0jjUft16Tzixs0mcWOg","Chalet Lanes & Lounge","FALSE","https://www.yelp.com/biz/chalet-lanes-and-lounge-wisconsin-dells?adjust_creative=QNZpjiWMh-xtTiixb79gYw&utm_campaign=yelp_api_v3&utm_medium=api_v3_business_search&utm_source=QNZpjiWMh-xtTiixb79gYw","18","Bowling | American (New)","4","43.6269203","-89.7722335","$","740 Elm St"
"SOSi0Ckr5GqSD0Cg02m_Fw","Perkins Restaurant & Bakery","FALSE","https://www.yelp.com/biz/perkins-restaurant-and-bakery-wisconsin-dells?adjust_creative=QNZpjiWMh-xtTiixb79gYw&utm_campaign=yelp_api_v3&utm_medium=api_v3_business_search&utm_source=QNZpjiWMh-xtTiixb79gYw","25","Bakeries | Breakfast & Brunch | American (Traditional)","2.5","43.6251101718371","-89.7993855178356","$","811 Frontage Rd"
"oM2FXhtLnYxIiAtZQlLLWg","San Antonio Mexican Restaurant","FALSE","https://www.yelp.com/biz/san-antonio-mexican-restaurant-wisconsin-dells?adjust_creative=QNZpjiWMh-xtTiixb79gYw&utm_campaign=yelp_api_v3&utm_medium=api_v3_business_search&utm_source=QNZpjiWMh-xtTiixb79gYw","40","Mexican","3","43.6273713","-89.7767236","$$","742 Eddy St"
"NydsmIl7lKgZi0pctDrW_g","IHOP","FALSE","https://www.yelp.com/biz/ihop-wisconsin-dells?adjust_creative=QNZpjiWMh-xtTiixb79gYw&utm_campaign=yelp_api_v3&utm_medium=api_v3_business_search&utm_source=QNZpjiWMh-xtTiixb79gYw","50","Breakfast & Brunch | American (Traditional) | Burgers","3","43.6245","-89.78841","$$","346 Hwy 13"
"oOj3Y2-_VsidLWT53mbyFg","Howler's Sports Bar & Grill","FALSE","https://www.yelp.com/biz/howlers-sports-bar-and-grill-wisconsin-dells?adjust_creative=QNZpjiWMh-xtTiixb79gYw&utm_campaign=yelp_api_v3&utm_medium=api_v3_business_search&utm_source=QNZpjiWMh-xtTiixb79gYw","7","Sports Bars | Buffets","2.5","43.66671","-89.7858483","$$","2501 River Rd"
"-a6Ok77OnyTv_FadPA_S5A","Denny's","FALSE","https://www.yelp.com/biz/dennys-wisconsin-dells?adjust_creative=QNZpjiWMh-xtTiixb79gYw&utm_campaign=yelp_api_v3&utm_medium=api_v3_business_search&utm_source=QNZpjiWMh-xtTiixb79gYw","28","American (Traditional) | Breakfast & Brunch | Diners","2.5","43.6228861977334","-89.7942575441266","$","600 S Frontage Rd"
"Br9bijGzbpIEhQn2DcZYtQ","Pizza Pub","FALSE","https://www.yelp.com/biz/pizza-pub-wisconsin-dells?adjust_creative=QNZpjiWMh-xtTiixb79gYw&utm_campaign=yelp_api_v3&utm_medium=api_v3_business_search&utm_source=QNZpjiWMh-xtTiixb79gYw","201","Pizza","3.5","43.6054725646973","-89.7920150756836","$$","1455 Wisconsin Dells Pkwy"
"wjAeS9ZZht4MsjGlQ7vEfg","Kickers","FALSE","https://www.yelp.com/biz/kickers-wisconsin-dells?adjust_creative=QNZpjiWMh-xtTiixb79gYw&utm_campaign=yelp_api_v3&utm_medium=api_v3_business_search&utm_source=QNZpjiWMh-xtTiixb79gYw","47","Pizza | Burgers | Buffets","2.5","43.6285108273205","-89.7828816473602","$$","951 Stand Rock Rd"
"QxEAjAqRkL5ZPNIkVIY1xA","Spring Brook Sports Bar & Grill","FALSE","https://www.yelp.com/biz/spring-brook-sports-bar-and-grill-wisconsin-dells-2?adjust_creative=QNZpjiWMh-xtTiixb79gYw&utm_campaign=yelp_api_v3&utm_medium=api_v3_business_search&utm_source=QNZpjiWMh-xtTiixb79gYw","29","Sports Bars | American (Traditional)","3.5","43.605914208382","-89.8153604194522","$$","242 Lake Shore Dr"
"cFwa62m3h8jBU7mBWKlZ0A","Applebee's Grill + Bar","FALSE","https://www.yelp.com/biz/applebees-grill-bar-wisconsin-dells?adjust_creative=QNZpjiWMh-xtTiixb79gYw&utm_campaign=yelp_api_v3&utm_medium=api_v3_business_search&utm_source=QNZpjiWMh-xtTiixb79gYw","45","American (Traditional) | Sports Bars | Burgers","2","43.62456","-89.787848","$$","340 Hwy 13"
"f1td4yBoNmq8guZqrULNBQ","The Cheesey Tomato","FALSE","https://www.yelp.com/biz/the-cheesey-tomato-wisconsin-dells-2?adjust_creative=QNZpjiWMh-xtTiixb79gYw&utm_campaign=yelp_api_v3&utm_medium=api_v3_business_search&utm_source=QNZpjiWMh-xtTiixb79gYw","8","Sandwiches | Burgers | Pizza","3","43.6278147250414","-89.7782537341118","$$","27 Broadway"
"kdHkQfgqCWSJLCtePIgfSQ","Rocky Rococo Pan Style Pizza","FALSE","https://www.yelp.com/biz/rocky-rococo-pan-style-pizza-wisconsin-dells?adjust_creative=QNZpjiWMh-xtTiixb79gYw&utm_campaign=yelp_api_v3&utm_medium=api_v3_business_search&utm_source=QNZpjiWMh-xtTiixb79gYw","27","Pizza | Italian","2.5","43.6289950323094","-89.78216436636","$","1012 Stand Rock Rd"
"3v2XfGNah8VIJvLdxKHcZg","Culver's","FALSE","https://www.yelp.com/biz/culvers-wisconsin-dells?adjust_creative=QNZpjiWMh-xtTiixb79gYw&utm_campaign=yelp_api_v3&utm_medium=api_v3_business_search&utm_source=QNZpjiWMh-xtTiixb79gYw","7","Burgers | Fast Food | Ice Cream & Frozen Yogurt","3.5","43.6251444925213","-89.789604380332","$","351 Hwy 13"
"jmn8hz8zDsVMtlrI4t17yQ","Burger King","FALSE","https://www.yelp.com/biz/burger-king-wisc-dells?adjust_creative=QNZpjiWMh-xtTiixb79gYw&utm_campaign=yelp_api_v3&utm_medium=api_v3_business_search&utm_source=QNZpjiWMh-xtTiixb79gYw","4","Burgers","2","43.62501","-89.79505","","611 N Frontage Rd"
"QRo3GNrhaQ1DzUNYdlZrvA","Redneck Saloon","FALSE","https://www.yelp.com/biz/redneck-saloon-oxford?adjust_creative=QNZpjiWMh-xtTiixb79gYw&utm_campaign=yelp_api_v3&utm_medium=api_v3_business_search&utm_source=QNZpjiWMh-xtTiixb79gYw","4","Restaurants","5","43.8250699","-89.64651","$$","345 County Road A"
"ziBKfwkcsAZUe47fVJ7Fjw","Bad Brad's 2","FALSE","https://www.yelp.com/biz/bad-brads-2-oxford?adjust_creative=QNZpjiWMh-xtTiixb79gYw&utm_campaign=yelp_api_v3&utm_medium=api_v3_business_search&utm_source=QNZpjiWMh-xtTiixb79gYw","3","Italian","3.5","43.7813969622886","-89.5727485790849","","107 W Ormsby St"
"nW_4kij6v313UAp20QIX3g","Frannie May's Cafe","FALSE","https://www.yelp.com/biz/frannie-mays-cafe-oxford-3?adjust_creative=QNZpjiWMh-xtTiixb79gYw&utm_campaign=yelp_api_v3&utm_medium=api_v3_business_search&utm_source=QNZpjiWMh-xtTiixb79gYw","3","Cafes | Breakfast & Brunch | Laundromat","2.5","43.7817562","-89.5778773","","544 W Ormsby St"
"hmTMUi4Z_jZaC40zeZSSxQ","The Cafe","FALSE","https://www.yelp.com/biz/the-cafe-oxford?adjust_creative=QNZpjiWMh-xtTiixb79gYw&utm_campaign=yelp_api_v3&utm_medium=api_v3_business_search&utm_source=QNZpjiWMh-xtTiixb79gYw","2","Cafes","3","43.7815285","-89.5713489","","116 W Ormsby St"
"nau06uoDlCZoip12_a6zwQ","Stuff's Restaurant & Catering","FALSE","https://www.yelp.com/biz/stuffs-restaurant-and-catering-wisconsin-dells-2?adjust_creative=QNZpjiWMh-xtTiixb79gYw&utm_campaign=yelp_api_v3&utm_medium=api_v3_business_search&utm_source=QNZpjiWMh-xtTiixb79gYw","46","American (Traditional) | Breakfast & Brunch","4","43.6504852","-89.7669098","$","4144 Hwy 13 N"
"8uay-kCxj65tJXnoy-sLhg","Myrt and Lucy's Chat & Chew","FALSE","https://www.yelp.com/biz/myrt-and-lucys-chat-and-chew-wisconsin-dells-2?adjust_creative=QNZpjiWMh-xtTiixb79gYw&utm_campaign=yelp_api_v3&utm_medium=api_v3_business_search&utm_source=QNZpjiWMh-xtTiixb79gYw","87","Breakfast & Brunch | American (Traditional)","4","43.6275822243289","-89.7714539989829","$$","414 Broadway"
"27LedOveQ7B721t3KB_vBw","Club 23","FALSE","https://www.yelp.com/biz/club-23-wisconsin-dells?adjust_creative=QNZpjiWMh-xtTiixb79gYw&utm_campaign=yelp_api_v3&utm_medium=api_v3_business_search&utm_source=QNZpjiWMh-xtTiixb79gYw","14","American (Traditional) | Seafood | Sandwiches","4","43.650206","-89.667152","$$","465 State Rd 23"
"HQI8QYQJqOeuA2fVrJlaGw","Fur Fin & Feather","FALSE","https://www.yelp.com/biz/fur-fin-and-feather-wisconsin-dells-2?adjust_creative=QNZpjiWMh-xtTiixb79gYw&utm_campaign=yelp_api_v3&utm_medium=api_v3_business_search&utm_source=QNZpjiWMh-xtTiixb79gYw","3","Bars | American (Traditional)","3.5","43.7306682739582","-89.7173834251312","","3602 County Rd B"
"CE5KeNwmbPkVkskupXHvUg","Yolo Cafe & Hookah Lounge","FALSE","https://www.yelp.com/biz/yolo-cafe-and-hookah-lounge-wisconsin-dells-2?adjust_creative=QNZpjiWMh-xtTiixb79gYw&utm_campaign=yelp_api_v3&utm_medium=api_v3_business_search&utm_source=QNZpjiWMh-xtTiixb79gYw","9","Hookah Bars | Cafes | Sandwiches","4.5","43.6274652494654","-89.7717577591538","$$","404 Broadway"
"hJ3FHpB-73BxsGRspTgE8A","Famous Dave's Bar-B-Que","FALSE","https://www.yelp.com/biz/famous-daves-bar-b-que-wisconsin-dells?adjust_creative=QNZpjiWMh-xtTiixb79gYw&utm_campaign=yelp_api_v3&utm_medium=api_v3_business_search&utm_source=QNZpjiWMh-xtTiixb79gYw","69","Barbeque | American (Traditional)","3.5","43.6278099","-89.77095","$$","435 Broadway"
"NgGDYa2uOpm8KJObt2GfJA","Market Fresh Buffet","FALSE","https://www.yelp.com/biz/market-fresh-buffet-wisconsin-dells?adjust_creative=QNZpjiWMh-xtTiixb79gYw&utm_campaign=yelp_api_v3&utm_medium=api_v3_business_search&utm_source=QNZpjiWMh-xtTiixb79gYw","22","Buffets","1.5","43.6738319396973","-89.7560272216797","$$","Hwy 13 N"
"R9Z85bTCgYnDbFcQKO_YFg","River Dawg","FALSE","https://www.yelp.com/biz/river-dawg-wisconsin-dells?adjust_creative=QNZpjiWMh-xtTiixb79gYw&utm_campaign=yelp_api_v3&utm_medium=api_v3_business_search&utm_source=QNZpjiWMh-xtTiixb79gYw","7","Hot Dogs | Pizza | Sandwiches","4","43.6279004083363","-89.7751894420649","$","808 River Rd"
"9dg0g6likPPMdJxl-SXo-w","Alabama's Dixieland Bbq & Suds","FALSE","https://www.yelp.com/biz/alabamas-dixieland-bbq-and-suds-wisconsin-dells?adjust_creative=QNZpjiWMh-xtTiixb79gYw&utm_campaign=yelp_api_v3&utm_medium=api_v3_business_search&utm_source=QNZpjiWMh-xtTiixb79gYw","17","Barbeque","2","43.6276264","-89.7719859","$$","414 Broadway"
"V9-P8na41f2unMZ7bPkv1Q","Gino's Pizzeria And Bar","FALSE","https://www.yelp.com/biz/ginos-pizzeria-and-bar-wisconsin-dells?adjust_creative=QNZpjiWMh-xtTiixb79gYw&utm_campaign=yelp_api_v3&utm_medium=api_v3_business_search&utm_source=QNZpjiWMh-xtTiixb79gYw","1","Bars | Pizza","5","43.627693","-89.767791","","701 Broadway St"
"zem-hJIVbOzfHX-0g-X07A","El Asador Wisconsin Dells","FALSE","https://www.yelp.com/biz/el-asador-wisconsin-dells-wisconsin-dells?adjust_creative=QNZpjiWMh-xtTiixb79gYw&utm_campaign=yelp_api_v3&utm_medium=api_v3_business_search&utm_source=QNZpjiWMh-xtTiixb79gYw","24","Mexican","2","43.6276204747665","-89.7710585188669","$","452 Broadway"
"yohiVCivZ7gfMfMUSdqe_A","Mama Z's Country Grill","FALSE","https://www.yelp.com/biz/mama-zs-country-grill-wisconsin-dells?adjust_creative=QNZpjiWMh-xtTiixb79gYw&utm_campaign=yelp_api_v3&utm_medium=api_v3_business_search&utm_source=QNZpjiWMh-xtTiixb79gYw","10","Pizza | American (New) | Chicken Wings","3","43.62781","-89.76119","$$","1101 Broadway"
"z_Shth276_z0k59VoH3Brg","Luigis Pizza","FALSE","https://www.yelp.com/biz/luigis-pizza-wisconsin-dells?adjust_creative=QNZpjiWMh-xtTiixb79gYw&utm_campaign=yelp_api_v3&utm_medium=api_v3_business_search&utm_source=QNZpjiWMh-xtTiixb79gYw","7","Pizza","1.5","43.6640962958336","-89.7825559973717","$$","4031 River Rd"
"-9i9-EqWksiZjWNG_Kd9aw","McDonald's","FALSE","https://www.yelp.com/biz/mcdonalds-wisconsin-dells-3?adjust_creative=QNZpjiWMh-xtTiixb79gYw&utm_campaign=yelp_api_v3&utm_medium=api_v3_business_search&utm_source=QNZpjiWMh-xtTiixb79gYw","23","Fast Food | Burgers | Coffee & Tea","3","43.6243607213514","-89.7861662507057","$","2325 Wisconsin Dells Pkwy"
"AYDyUSGCbts_c1OSGyJ9tg","Jimmy John's","FALSE","https://www.yelp.com/biz/jimmy-johns-wisconsin-dells?adjust_creative=QNZpjiWMh-xtTiixb79gYw&utm_campaign=yelp_api_v3&utm_medium=api_v3_business_search&utm_source=QNZpjiWMh-xtTiixb79gYw","10","Sandwiches | Delis | Fast Food","3.5","43.6248422346519","-89.7874617576599","$","322 Hwy 13"
"VoZRPpjg7UXXPZvibMSV4A","Taco Bell","FALSE","https://www.yelp.com/biz/taco-bell-wisconsin-dells?adjust_creative=QNZpjiWMh-xtTiixb79gYw&utm_campaign=yelp_api_v3&utm_medium=api_v3_business_search&utm_source=QNZpjiWMh-xtTiixb79gYw","12","Mexican | Fast Food","2","43.6257168597009","-89.7875713447609","$","321 Highway 13"
"vjw6-kl0TgEbrg5qUUKyew","Tipper's Bar & Grill","FALSE","https://www.yelp.com/biz/tippers-bar-and-grill-wisconsin-dells?adjust_creative=QNZpjiWMh-xtTiixb79gYw&utm_campaign=yelp_api_v3&utm_medium=api_v3_business_search&utm_source=QNZpjiWMh-xtTiixb79gYw","2","Restaurants | Bars","3.5","43.62748","-89.77491","","206 Broadway"
"ZBGiK5VMgfQbjTQBu71jWg","Subway","FALSE","https://www.yelp.com/biz/subway-wisconsin-dells?adjust_creative=QNZpjiWMh-xtTiixb79gYw&utm_campaign=yelp_api_v3&utm_medium=api_v3_business_search&utm_source=QNZpjiWMh-xtTiixb79gYw","1","Fast Food | Sandwiches","1","43.62785","-89.77273","","321 Broadway"
"SOhN1dHsGQaXRHD6xRPcRw","Cimaroli's Supper Club","FALSE","https://www.yelp.com/biz/cimarolis-supper-club-portage?adjust_creative=QNZpjiWMh-xtTiixb79gYw&utm_campaign=yelp_api_v3&utm_medium=api_v3_business_search&utm_source=QNZpjiWMh-xtTiixb79gYw","59","American (Traditional) | Music Venues | Italian","4","43.611549","-89.587466","$$","W 11793 State Rd 127"
"WokJ5bdbZyATFPVXm-qBdA","The Cove Supper Club","FALSE","https://www.yelp.com/biz/the-cove-supper-club-briggsville?adjust_creative=QNZpjiWMh-xtTiixb79gYw&utm_campaign=yelp_api_v3&utm_medium=api_v3_business_search&utm_source=QNZpjiWMh-xtTiixb79gYw","8","Pizza | Seafood | Steakhouses","3.5","43.6596348113655","-89.5855992","$$","156 State Rd 23"
"zeqmAObfdtD5Nst3Cxy_EA","Pheasant Inn","FALSE","https://www.yelp.com/biz/pheasant-inn-briggsville?adjust_creative=QNZpjiWMh-xtTiixb79gYw&utm_campaign=yelp_api_v3&utm_medium=api_v3_business_search&utm_source=QNZpjiWMh-xtTiixb79gYw","3","American (New)","2.5","43.6662125587463","-89.5876157283783","$$","N415 County Rd A"
"Z252yJVx1F2oAY__DVErNw","Foxy's","FALSE","https://www.yelp.com/biz/foxys-briggsville?adjust_creative=QNZpjiWMh-xtTiixb79gYw&utm_campaign=yelp_api_v3&utm_medium=api_v3_business_search&utm_source=QNZpjiWMh-xtTiixb79gYw","2","Restaurants","4.5","43.6542587","-89.5860291","","W8554 Park St"
"kMA9Ep0l73BV0Hj3dSAkoA","Newport Steak House","FALSE","https://www.yelp.com/biz/newport-steak-house-wisconsin-dells?adjust_creative=QNZpjiWMh-xtTiixb79gYw&utm_campaign=yelp_api_v3&utm_medium=api_v3_business_search&utm_source=QNZpjiWMh-xtTiixb79gYw","2","Restaurants","3","43.60398","-89.7184599","","W14494 State Road 16"
"ybxwha103iqavgVy6iygHw","Sprecher's Restaurant & Pub","FALSE","https://www.yelp.com/biz/sprechers-restaurant-and-pub-wisconsin-dells?adjust_creative=QNZpjiWMh-xtTiixb79gYw&utm_campaign=yelp_api_v3&utm_medium=api_v3_business_search&utm_source=QNZpjiWMh-xtTiixb79gYw","372","Pubs | American (Traditional)","4","43.59838","-89.793251","$$","644 Wisconsin Dells Pkwy"
"_dIq33L21d0tUTJ00zcW3Q","The Del-bar","FALSE","https://www.yelp.com/biz/the-del-bar-lake-delton-3?adjust_creative=QNZpjiWMh-xtTiixb79gYw&utm_campaign=yelp_api_v3&utm_medium=api_v3_business_search&utm_source=QNZpjiWMh-xtTiixb79gYw","180","Steakhouses | Seafood | Wine Bars","4","43.5990027682038","-89.7934557163253","$$$","800 Wisconsin Dells Pkwy"
"OdO5GCPZL8BDpqcq3m_4Kw","MACS - Macaroni and Cheese Shop","FALSE","https://www.yelp.com/biz/macs-macaroni-and-cheese-shop-lake-delton?adjust_creative=QNZpjiWMh-xtTiixb79gYw&utm_campaign=yelp_api_v3&utm_medium=api_v3_business_search&utm_source=QNZpjiWMh-xtTiixb79gYw","106","American (New) | Comfort Food","4.5","43.5742031","-89.7764513","$","1241 Kalahari Dr"
"JsYLvgKiFgvG_ey_xI9v5Q","Oxford Pub & Grub","FALSE","https://www.yelp.com/biz/oxford-pub-and-grub-oxford?adjust_creative=QNZpjiWMh-xtTiixb79gYw&utm_campaign=yelp_api_v3&utm_medium=api_v3_business_search&utm_source=QNZpjiWMh-xtTiixb79gYw","2","Pubs | American (Traditional)","4.5","43.7817525887223","-89.5581826708557","","848 E Ormsby St"
"WJpkV-eJLvF6n4WuBrhjRw","Ishnala","FALSE","https://www.yelp.com/biz/ishnala-wisconsin-dells?adjust_creative=QNZpjiWMh-xtTiixb79gYw&utm_campaign=yelp_api_v3&utm_medium=api_v3_business_search&utm_source=QNZpjiWMh-xtTiixb79gYw","197","Steakhouses | Bars | Seafood","4","43.5756542316549","-89.8090065700408","$$$","S 2011 Ishnala Rd"
"OpQ9e26m56oBsqcodTjJdw","The Green Owl","FALSE","https://www.yelp.com/biz/the-green-owl-baraboo-2?adjust_creative=QNZpjiWMh-xtTiixb79gYw&utm_campaign=yelp_api_v3&utm_medium=api_v3_business_search&utm_source=QNZpjiWMh-xtTiixb79gYw","178","American (Traditional) | Pizza | Sports Bars","4","43.5807637","-89.778795","$$","841 Wisconsin Dells Pkwy S"
"GxeoThP-YKbAJKcq2Z7mzg","Kimberly Mexican Restaurant","FALSE","https://www.yelp.com/biz/kimberly-mexican-restaurant-wisconsin-dells?adjust_creative=QNZpjiWMh-xtTiixb79gYw&utm_campaign=yelp_api_v3&utm_medium=api_v3_business_search&utm_source=QNZpjiWMh-xtTiixb79gYw","59","Mexican","4","43.58887","-89.79529","$","40 W Munroe Ave"
"5myM44mi1jiS8enWIpBOfA","Field's at the Wilderness","FALSE","https://www.yelp.com/biz/fields-at-the-wilderness-wisconsin-dells?adjust_creative=QNZpjiWMh-xtTiixb79gYw&utm_campaign=yelp_api_v3&utm_medium=api_v3_business_search&utm_source=QNZpjiWMh-xtTiixb79gYw","100","Steakhouses","3.5","43.58781","-89.78374","$$$","511 E Adams St"
"d4GQDHE4yhJfM9Bcme-rGA","Double Cut","FALSE","https://www.yelp.com/biz/double-cut-wisconsin-dells-2?adjust_creative=QNZpjiWMh-xtTiixb79gYw&utm_campaign=yelp_api_v3&utm_medium=api_v3_business_search&utm_source=QNZpjiWMh-xtTiixb79gYw","78","Steakhouses | Bars","4","43.5717762438847","-89.7694922401868","$$$","1305 Kalahari Dr"
"EKF0Pj6AKo0BLP1U1_xyQg","Monk's Bar & Grill - Lake Delton","FALSE","https://www.yelp.com/biz/monks-bar-and-grill-lake-delton-lake-delton?adjust_creative=QNZpjiWMh-xtTiixb79gYw&utm_campaign=yelp_api_v3&utm_medium=api_v3_business_search&utm_source=QNZpjiWMh-xtTiixb79gYw","159","Burgers | Sports Bars | American (Traditional)","4","43.5835915101742","-89.7798878707386","$$","33 Hillman Rd"
"hd3komA9_VVMsQuIFyad4w","Moosejaw Pizza & Dells Brewing","FALSE","https://www.yelp.com/biz/moosejaw-pizza-and-dells-brewing-wisconsin-dells-2?adjust_creative=QNZpjiWMh-xtTiixb79gYw&utm_campaign=yelp_api_v3&utm_medium=api_v3_business_search&utm_source=QNZpjiWMh-xtTiixb79gYw","555","Pizza | Breweries | Italian","3.5","43.58879","-89.79176","$$","110 Wisconsin Dells Pkwy S"
"X6Ih4qAL1L_ZMUU4snFc_g","Brat House Grill","FALSE","https://www.yelp.com/biz/brat-house-grill-wisconsin-dells?adjust_creative=QNZpjiWMh-xtTiixb79gYw&utm_campaign=yelp_api_v3&utm_medium=api_v3_business_search&utm_source=QNZpjiWMh-xtTiixb79gYw","117","Sandwiches | German | Burgers","4","43.589411","-89.792498","$$","49 Wisconsin Dells Pkwy S"
"JZfJOL4ob4o_h5siPlMdVw","Ravina Bay Bar & Grill","FALSE","https://www.yelp.com/biz/ravina-bay-bar-and-grill-lake-delton?adjust_creative=QNZpjiWMh-xtTiixb79gYw&utm_campaign=yelp_api_v3&utm_medium=api_v3_business_search&utm_source=QNZpjiWMh-xtTiixb79gYw","75","Bars | American (Traditional)","4","43.592758","-89.789295","$$","231 E Durkee St"
"dqwpdHbjNqcfOr5BPsiWiw","River's Edge Pub & Grub","FALSE","https://www.yelp.com/biz/rivers-edge-pub-and-grub-wisconsin-dells?adjust_creative=QNZpjiWMh-xtTiixb79gYw&utm_campaign=yelp_api_v3&utm_medium=api_v3_business_search&utm_source=QNZpjiWMh-xtTiixb79gYw","107","American (Traditional) | Pubs | Breakfast & Brunch","3.5","43.6014533321898","-89.7632085523842","$$","30 County Rd A"
"HDt-3oKErKaGO7Ji0lFSGw","Boomtown Saloon","FALSE","https://www.yelp.com/biz/boomtown-saloon-lake-delton?adjust_creative=QNZpjiWMh-xtTiixb79gYw&utm_campaign=yelp_api_v3&utm_medium=api_v3_business_search&utm_source=QNZpjiWMh-xtTiixb79gYw","22","American (New) | Cocktail Bars | Music Venues","4","43.58939","-89.796","$$","103 W Munroe Ave"
