"ID","Name","Is_Closed","URL","Review_Count","Categories","Rating","Latitude","Longitude","Price","Address"
"GhB6dXjNosqXl1viXUmgkQ","Sprouts On 5th","FALSE","https://www.yelp.com/biz/sprouts-on-5th-sandstone-2?adjust_creative=QNZpjiWMh-xtTiixb79gYw&utm_campaign=yelp_api_v3&utm_medium=api_v3_business_search&utm_source=QNZpjiWMh-xtTiixb79gYw","11","Sandwiches | Breakfast & Brunch | American (New)","5","46.1319196","-92.8655909","$","421 Commercial Ave N"
"kcP_xi0FSMgYDvG9X3dDoA","Amy's Country Cafe","FALSE","https://www.yelp.com/biz/amys-country-cafe-sandstone?adjust_creative=QNZpjiWMh-xtTiixb79gYw&utm_campaign=yelp_api_v3&utm_medium=api_v3_business_search&utm_source=QNZpjiWMh-xtTiixb79gYw","15","Sandwiches | Diners | Breakfast & Brunch","4","46.13259","-92.86609","$","420 Main St"
"lmgMLN-HLoquqRPSyIueZg","Banning Junction Supper Club","FALSE","https://www.yelp.com/biz/banning-junction-supper-club-finlayson?adjust_creative=QNZpjiWMh-xtTiixb79gYw&utm_campaign=yelp_api_v3&utm_medium=api_v3_business_search&utm_source=QNZpjiWMh-xtTiixb79gYw","7","Bars | American (Traditional)","2.5","46.1798","-92.85652","$$","Highway 35 & 23"
"ho8zyw_Pothgq56pySnXVQ","Country Cafe On Main","FALSE","https://www.yelp.com/biz/country-cafe-on-main-grantsburg?adjust_creative=QNZpjiWMh-xtTiixb79gYw&utm_campaign=yelp_api_v3&utm_medium=api_v3_business_search&utm_source=QNZpjiWMh-xtTiixb79gYw","13","American (Traditional)","4.5","45.778702","-92.683248","$","125 W Madison Ave"
"BUeL38WlwEqiYnNBrDA8pA","T-Dawgs Sports Bar & Grill","FALSE","https://www.yelp.com/biz/t-dawgs-sports-bar-and-grill-grantsburg?adjust_creative=QNZpjiWMh-xtTiixb79gYw&utm_campaign=yelp_api_v3&utm_medium=api_v3_business_search&utm_source=QNZpjiWMh-xtTiixb79gYw","16","American (New) | Diners","3.5","45.7728641985695","-92.6754022190319","$$","429 E State Rd 70"
"Iyc65MLcBQv8CzXjRxL2zg","Kozy Kitchen","FALSE","https://www.yelp.com/biz/kozy-kitchen-grantsburg?adjust_creative=QNZpjiWMh-xtTiixb79gYw&utm_campaign=yelp_api_v3&utm_medium=api_v3_business_search&utm_source=QNZpjiWMh-xtTiixb79gYw","6","American (Traditional) | Burgers","4","45.7719499","-92.68227","$","827 S Pine St"
"TGYvQOPDn0NNNukcsU3OSw","Dreamer's Bar & Grille","FALSE","https://www.yelp.com/biz/dreamers-bar-and-grille-grantsburg?adjust_creative=QNZpjiWMh-xtTiixb79gYw&utm_campaign=yelp_api_v3&utm_medium=api_v3_business_search&utm_source=QNZpjiWMh-xtTiixb79gYw","5","American (New) | Bars","1.5","45.7722702026367","-92.6969223022461","","710 HW-70"
"IxQS5Ib7bAQkQXsbZ7q7YQ","The Drive In","FALSE","https://www.yelp.com/biz/the-drive-in-grantsburg-2?adjust_creative=QNZpjiWMh-xtTiixb79gYw&utm_campaign=yelp_api_v3&utm_medium=api_v3_business_search&utm_source=QNZpjiWMh-xtTiixb79gYw","11","Burgers | Mini Golf | Beer Bar","4","45.77258","-92.68396","$","133 W State Rd 70"
"AfBo128caqJM2Sb660lbrA","Subway","FALSE","https://www.yelp.com/biz/subway-grantsburg?adjust_creative=QNZpjiWMh-xtTiixb79gYw&utm_campaign=yelp_api_v3&utm_medium=api_v3_business_search&utm_source=QNZpjiWMh-xtTiixb79gYw","4","Fast Food | Sandwiches","2","45.7730865","-92.6825027","$","108 State Road 70"
"E3vtx1j5QBFTXEbj9UEw8g","Rendezvous","FALSE","https://www.yelp.com/biz/rendezvous-grantsburg?adjust_creative=QNZpjiWMh-xtTiixb79gYw&utm_campaign=yelp_api_v3&utm_medium=api_v3_business_search&utm_source=QNZpjiWMh-xtTiixb79gYw","1","Restaurants","1","45.7786713","-92.6812363","","115 E Madison Ave"
"9RKgyNVMNI1PpW5aMsOmNw","Amelia's Homestead Cafe & Bakery","FALSE","https://www.yelp.com/biz/amelias-homestead-cafe-and-bakery-danbury?adjust_creative=QNZpjiWMh-xtTiixb79gYw&utm_campaign=yelp_api_v3&utm_medium=api_v3_business_search&utm_source=QNZpjiWMh-xtTiixb79gYw","13","Breakfast & Brunch | Bakeries | Mexican","4.5","46.006955","-92.370261","$","7523 Main St"
"7xacwVIumpMWzQkXBAX1-w","Log Cabin Store & Eatery","FALSE","https://www.yelp.com/biz/log-cabin-store-and-eatery-danbury?adjust_creative=QNZpjiWMh-xtTiixb79gYw&utm_campaign=yelp_api_v3&utm_medium=api_v3_business_search&utm_source=QNZpjiWMh-xtTiixb79gYw","8","Sporting Goods | Pizza","4","46.00742","-92.36335","$","30217 Hwy 35 & 77"
"4izwl3ZK288uWoZ0eF_RSA","Wild Waters Sports Bar & Restaurant","FALSE","https://www.yelp.com/biz/wild-waters-sports-bar-and-restaurant-danbury?adjust_creative=QNZpjiWMh-xtTiixb79gYw&utm_campaign=yelp_api_v3&utm_medium=api_v3_business_search&utm_source=QNZpjiWMh-xtTiixb79gYw","9","American (Traditional)","3","46.00728","-92.36947","$$","7516 Main St"
"uRNLIiIYMwdxQOWF-j_QaA","Oak Ridge Inn","FALSE","https://www.yelp.com/biz/oak-ridge-inn-webb-lake?adjust_creative=QNZpjiWMh-xtTiixb79gYw&utm_campaign=yelp_api_v3&utm_medium=api_v3_business_search&utm_source=QNZpjiWMh-xtTiixb79gYw","6","American (Traditional) | Bars","4","46.0514412","-92.1305923","$$","31453 N Webb Lake Dr"
"Z1cAlosNQghvDMW3Fayr6w","Glider's","FALSE","https://www.yelp.com/biz/gliders-webb-lake?adjust_creative=QNZpjiWMh-xtTiixb79gYw&utm_campaign=yelp_api_v3&utm_medium=api_v3_business_search&utm_source=QNZpjiWMh-xtTiixb79gYw","9","Diners | Bars","4.5","45.9909789820526","-92.1432420112667","$$","29770 Long Lake Rd"
"5VpyZSS4VFs2b8f8mGGYOw","Lumberjack Saloon & Eatery","FALSE","https://www.yelp.com/biz/lumberjack-saloon-and-eatery-webb-lake?adjust_creative=QNZpjiWMh-xtTiixb79gYw&utm_campaign=yelp_api_v3&utm_medium=api_v3_business_search&utm_source=QNZpjiWMh-xtTiixb79gYw","4","American (New) | Sports Bars","3.5","46.0170032","-92.1481258","$$","30575 County Rd H"
"-U49bMq3UUtibuhVYBKa_Q","Cabaret Webb Lake","FALSE","https://www.yelp.com/biz/cabaret-webb-lake-danbury?adjust_creative=QNZpjiWMh-xtTiixb79gYw&utm_campaign=yelp_api_v3&utm_medium=api_v3_business_search&utm_source=QNZpjiWMh-xtTiixb79gYw","9","Seafood | Music Venues | Bars","3.5","46.00895","-92.13203","$","30331 County Rd H"
"EQMENxmgVR6cd7yOlfyk0Q","Voyager Village Grill","FALSE","https://www.yelp.com/biz/voyager-village-grill-danbury?adjust_creative=QNZpjiWMh-xtTiixb79gYw&utm_campaign=yelp_api_v3&utm_medium=api_v3_business_search&utm_source=QNZpjiWMh-xtTiixb79gYw","5","Seafood | American (Traditional)","5","45.9615819154769","-92.1517049521208","$$","28851 Kilkare Rd"
"yZ3vT5NqRws1JRxaWB6Uyw","The 10th Hole","FALSE","https://www.yelp.com/biz/the-10th-hole-danbury?adjust_creative=QNZpjiWMh-xtTiixb79gYw&utm_campaign=yelp_api_v3&utm_medium=api_v3_business_search&utm_source=QNZpjiWMh-xtTiixb79gYw","1","American (New) | Beer Bar | Breakfast & Brunch","4","45.936414376012","-92.3827179148793","","7768 Co Rd U"
"qygs9pJJwXLxrPfAl6yMVg","Yellow Lake Lodge","FALSE","https://www.yelp.com/biz/yellow-lake-lodge-webster?adjust_creative=QNZpjiWMh-xtTiixb79gYw&utm_campaign=yelp_api_v3&utm_medium=api_v3_business_search&utm_source=QNZpjiWMh-xtTiixb79gYw","7","American (Traditional)","3.5","45.9280636158876","-92.420615825166","$","27924 Yellow Lake Rd"
"Uz2n1mcsSEbFtmt4MDhwfA","Cafe Moonglow","FALSE","https://www.yelp.com/biz/cafe-moonglow-webster?adjust_creative=QNZpjiWMh-xtTiixb79gYw&utm_campaign=yelp_api_v3&utm_medium=api_v3_business_search&utm_source=QNZpjiWMh-xtTiixb79gYw","7","Breakfast & Brunch","3.5","45.87724","-92.36758","$","7457 Main St W"
"xj2aciWDJCJLrhg5Rlyu0Q","Yellow River Saloon","FALSE","https://www.yelp.com/biz/yellow-river-saloon-webster?adjust_creative=QNZpjiWMh-xtTiixb79gYw&utm_campaign=yelp_api_v3&utm_medium=api_v3_business_search&utm_source=QNZpjiWMh-xtTiixb79gYw","9","American (Traditional) | Sports Bars","4","45.8968887","-92.365448","$$","27043 State Rd 35"
"Tw9EKreEBLGwGSw6q4D0Nw","The Tap Bar & Grill","FALSE","https://www.yelp.com/biz/the-tap-bar-and-grill-webster-2?adjust_creative=QNZpjiWMh-xtTiixb79gYw&utm_campaign=yelp_api_v3&utm_medium=api_v3_business_search&utm_source=QNZpjiWMh-xtTiixb79gYw","9","Pubs | American (Traditional)","4","45.8775711","-92.3654404","$$","7408 W Main"
"oCkTZUVvsygANQWG2Zjpbg","Northview Drive In","FALSE","https://www.yelp.com/biz/northview-drive-in-webster?adjust_creative=QNZpjiWMh-xtTiixb79gYw&utm_campaign=yelp_api_v3&utm_medium=api_v3_business_search&utm_source=QNZpjiWMh-xtTiixb79gYw","17","Burgers | Hot Dogs | Sandwiches","4","45.88107","-92.3651","$","26595 Lakeland Ave N"
"exak1xWulisK7EMMzT5tjw","White-Tail Wilderness","FALSE","https://www.yelp.com/biz/white-tail-wilderness-webster?adjust_creative=QNZpjiWMh-xtTiixb79gYw&utm_campaign=yelp_api_v3&utm_medium=api_v3_business_search&utm_source=QNZpjiWMh-xtTiixb79gYw","1","Restaurants | Golf","4","45.9036483764648","-92.3681335449219","","27225 State Road 35"
"po95CLvwAke_VfSSiQ9AKA","Zia's","FALSE","https://www.yelp.com/biz/zias-webster?adjust_creative=QNZpjiWMh-xtTiixb79gYw&utm_campaign=yelp_api_v3&utm_medium=api_v3_business_search&utm_source=QNZpjiWMh-xtTiixb79gYw","1","Italian","3","45.88523","-92.36425","","26708 Lakeland Ave N"
"D0a6Fc51QEjTDtNdvJuEJQ","The Shop Bar & Grill","FALSE","https://www.yelp.com/biz/the-shop-bar-and-grill-webster?adjust_creative=QNZpjiWMh-xtTiixb79gYw&utm_campaign=yelp_api_v3&utm_medium=api_v3_business_search&utm_source=QNZpjiWMh-xtTiixb79gYw","10","American (New)","3.5","45.9447387936996","-92.1041821490738","$","28422 County Rd H"
"_3IlhfdaJfueSh-g63-_7g","McKenzie Landing","FALSE","https://www.yelp.com/biz/mckenzie-landing-spooner?adjust_creative=QNZpjiWMh-xtTiixb79gYw&utm_campaign=yelp_api_v3&utm_medium=api_v3_business_search&utm_source=QNZpjiWMh-xtTiixb79gYw","10","Seafood | American (Traditional) | Steakhouses","4.5","45.9272753415262","-92.0560117730858","$$","1350 County Rd E"
"9JfIbmIyGibHnzDbkrzfCw","Jo Mama's A & H Corner Cafe","FALSE","https://www.yelp.com/biz/jo-mamas-a-and-h-corner-cafe-webster?adjust_creative=QNZpjiWMh-xtTiixb79gYw&utm_campaign=yelp_api_v3&utm_medium=api_v3_business_search&utm_source=QNZpjiWMh-xtTiixb79gYw","8","Breakfast & Brunch | American (Traditional)","4","45.94407","-92.10512","$$","28407 County Road H"
"Ok76SMIJlRMga4AnEDsjoQ","What the Heck","FALSE","https://www.yelp.com/biz/what-the-heck-spooner?adjust_creative=QNZpjiWMh-xtTiixb79gYw&utm_campaign=yelp_api_v3&utm_medium=api_v3_business_search&utm_source=QNZpjiWMh-xtTiixb79gYw","10","Restaurants","2.5","45.92116","-92.06346","$$","27790 County Road A"
"LCTDApU7DFrdPIHpexxrnA","Gary's Rude Cafe","FALSE","https://www.yelp.com/biz/garys-rude-cafe-siren?adjust_creative=QNZpjiWMh-xtTiixb79gYw&utm_campaign=yelp_api_v3&utm_medium=api_v3_business_search&utm_source=QNZpjiWMh-xtTiixb79gYw","16","Cafes","5","45.7872854249443","-92.3829272839839","$","7719 W Main"
"J-61estAg75MBx8M9bry_A","Tesora","FALSE","https://www.yelp.com/biz/tesora-siren?adjust_creative=QNZpjiWMh-xtTiixb79gYw&utm_campaign=yelp_api_v3&utm_medium=api_v3_business_search&utm_source=QNZpjiWMh-xtTiixb79gYw","41","American (Traditional) | Seafood | Pizza","4.5","45.783988","-92.381704","$$","23985 State Rd 35 S"
"7xhKP7WmN1A08tlJnkgF4g","Jed's Laker Lounge","FALSE","https://www.yelp.com/biz/jeds-laker-lounge-siren?adjust_creative=QNZpjiWMh-xtTiixb79gYw&utm_campaign=yelp_api_v3&utm_medium=api_v3_business_search&utm_source=QNZpjiWMh-xtTiixb79gYw","9","Lounges | Burgers | American (Traditional)","4.5","45.815964","-92.32169","$","24787 Clam Lake Dr"
"PLJSSQH8SJq5oz48NgpmOQ","Pour House","FALSE","https://www.yelp.com/biz/pour-house-siren?adjust_creative=QNZpjiWMh-xtTiixb79gYw&utm_campaign=yelp_api_v3&utm_medium=api_v3_business_search&utm_source=QNZpjiWMh-xtTiixb79gYw","15","American (Traditional) | Diners | Bars","2.5","45.78944","-92.38038","$$","24136 State Road 35"
"ikUtg0MZyrXc2zzv_fp88Q","Main Street Cafe","FALSE","https://www.yelp.com/biz/main-street-cafe-siren?adjust_creative=QNZpjiWMh-xtTiixb79gYw&utm_campaign=yelp_api_v3&utm_medium=api_v3_business_search&utm_source=QNZpjiWMh-xtTiixb79gYw","8","Restaurants","4.5","45.7871819","-92.3828125","$","7719 W Main St"
"145NHb_WcINL-ijGB9f_FQ","Adventures Restaurant & Pub","FALSE","https://www.yelp.com/biz/adventures-restaurant-and-pub-siren?adjust_creative=QNZpjiWMh-xtTiixb79gYw&utm_campaign=yelp_api_v3&utm_medium=api_v3_business_search&utm_source=QNZpjiWMh-xtTiixb79gYw","30","American (Traditional) | Pubs","3","45.7939262390137","-92.3819580078125","$$","7710 Park Rd W"
"xtT2Xe3cA1C_QKlDbvVXHg","Little Mexico","FALSE","https://www.yelp.com/biz/little-mexico-siren?adjust_creative=QNZpjiWMh-xtTiixb79gYw&utm_campaign=yelp_api_v3&utm_medium=api_v3_business_search&utm_source=QNZpjiWMh-xtTiixb79gYw","11","Mexican","2","45.7665405","-92.3812408","$$","23487 State Rd 35"
"K7Itlfdw5x7tjA3GuLVUfA","The Narrows Waterfront Pub & Eatery","FALSE","https://www.yelp.com/biz/the-narrows-waterfront-pub-and-eatery-siren?adjust_creative=QNZpjiWMh-xtTiixb79gYw&utm_campaign=yelp_api_v3&utm_medium=api_v3_business_search&utm_source=QNZpjiWMh-xtTiixb79gYw","2","Bars | American (Traditional)","4.5","45.81852","-92.32896","$","6699 State Rd 70"
"Pxk0vdHJ5rBsnY_Bylf2jA","Kris'pheasant Inn & Sports Bar","FALSE","https://www.yelp.com/biz/krispheasant-inn-and-sports-bar-siren?adjust_creative=QNZpjiWMh-xtTiixb79gYw&utm_campaign=yelp_api_v3&utm_medium=api_v3_business_search&utm_source=QNZpjiWMh-xtTiixb79gYw","6","Pizza | Sports Bars","3.5","45.7875175","-92.3820114","","7694 W Main St"
"pDnWGpiwdYDxo5PjrmXSEg","Panda Inn","FALSE","https://www.yelp.com/biz/panda-inn-siren?adjust_creative=QNZpjiWMh-xtTiixb79gYw&utm_campaign=yelp_api_v3&utm_medium=api_v3_business_search&utm_source=QNZpjiWMh-xtTiixb79gYw","3","Chinese","2","45.8115267","-92.3696471","","24670 State Rd 35 70"
"qeURfCEqomgHixEo7yGyQg","Pizza Place","FALSE","https://www.yelp.com/biz/pizza-place-siren?adjust_creative=QNZpjiWMh-xtTiixb79gYw&utm_campaign=yelp_api_v3&utm_medium=api_v3_business_search&utm_source=QNZpjiWMh-xtTiixb79gYw","3","Pizza","2","45.80442","-92.3758495","","24520 Hy 35 70"
"LbOl-oDJWofPmJFdk4g5QA","R & M Foods","FALSE","https://www.yelp.com/biz/r-and-m-foods-siren?adjust_creative=QNZpjiWMh-xtTiixb79gYw&utm_campaign=yelp_api_v3&utm_medium=api_v3_business_search&utm_source=QNZpjiWMh-xtTiixb79gYw","1","Pizza","4","45.7798843","-92.3790054","","23871 3rd Ave"
"2AU_nmLLcBOY0r2ZsRo-dg","Dairy Queen","FALSE","https://www.yelp.com/biz/dairy-queen-siren?adjust_creative=QNZpjiWMh-xtTiixb79gYw&utm_campaign=yelp_api_v3&utm_medium=api_v3_business_search&utm_source=QNZpjiWMh-xtTiixb79gYw","2","Fast Food | Ice Cream & Frozen Yogurt","1","45.790573","-92.381744","$","24165 Highway 35 N"
"hVNKU64EddWIGBT4uA48oQ","Subway","FALSE","https://www.yelp.com/biz/subway-siren-2?adjust_creative=QNZpjiWMh-xtTiixb79gYw&utm_campaign=yelp_api_v3&utm_medium=api_v3_business_search&utm_source=QNZpjiWMh-xtTiixb79gYw","1","Fast Food | Sandwiches","1","45.793033","-92.381813","","24230 1st Ave N"
"gm0E6jGyihJnQnt-orCwLg","Skol Haus","FALSE","https://www.yelp.com/biz/skol-haus-frederic?adjust_creative=QNZpjiWMh-xtTiixb79gYw&utm_campaign=yelp_api_v3&utm_medium=api_v3_business_search&utm_source=QNZpjiWMh-xtTiixb79gYw","2","Salad | American (New) | Breakfast & Brunch","2.5","45.702733","-92.499578","$$","3415 County Rd W"
"c83PEK07jNl0XIJUObQ1VA","Love Tree Farms","FALSE","https://www.yelp.com/biz/love-tree-farms-grantsburg?adjust_creative=QNZpjiWMh-xtTiixb79gYw&utm_campaign=yelp_api_v3&utm_medium=api_v3_business_search&utm_source=QNZpjiWMh-xtTiixb79gYw","6","Cheese Shops | Pizza","3","45.6596298","-92.6209869","$$","12413 County Rd Z"
"nkzVbr0UG-aZpUX7eb2_VQ","Bon Ton Saloon","FALSE","https://www.yelp.com/biz/bon-ton-saloon-luck-2?adjust_creative=QNZpjiWMh-xtTiixb79gYw&utm_campaign=yelp_api_v3&utm_medium=api_v3_business_search&utm_source=QNZpjiWMh-xtTiixb79gYw","6","American (New) | Bars","4","45.57448","-92.48209","$$","212 S Main St"
"z5emqvwXF8ozwQgCHILBaw","Jenells Cafe On Main","FALSE","https://www.yelp.com/biz/jenells-cafe-on-main-luck?adjust_creative=QNZpjiWMh-xtTiixb79gYw&utm_campaign=yelp_api_v3&utm_medium=api_v3_business_search&utm_source=QNZpjiWMh-xtTiixb79gYw","2","Cafes","2.5","45.5746307","-92.4825821","","201-215 S Main St"
"NGXoc3lAspFBzUsvEtu2Jg","Oakwood Inn","FALSE","https://www.yelp.com/biz/oakwood-inn-luck?adjust_creative=QNZpjiWMh-xtTiixb79gYw&utm_campaign=yelp_api_v3&utm_medium=api_v3_business_search&utm_source=QNZpjiWMh-xtTiixb79gYw","1","Restaurants","4","45.57625","-92.47957","","Jct Hy 48 & 35"
"DD6B48Zxai0zwcaZaAPwNA","Northern Bar","FALSE","https://www.yelp.com/biz/northern-bar-luck?adjust_creative=QNZpjiWMh-xtTiixb79gYw&utm_campaign=yelp_api_v3&utm_medium=api_v3_business_search&utm_source=QNZpjiWMh-xtTiixb79gYw","1","Bars | Pizza | Sandwiches","5","45.5754852294922","-92.4828491210938","","105 S Main St"
"m7Kq516mrN1d9nPRdMMRfw","Luck-E Tavern & Supper Club","FALSE","https://www.yelp.com/biz/luck-e-tavern-and-supper-club-luck?adjust_creative=QNZpjiWMh-xtTiixb79gYw&utm_campaign=yelp_api_v3&utm_medium=api_v3_business_search&utm_source=QNZpjiWMh-xtTiixb79gYw","1","Nightlife | Restaurants","1","45.5780725","-92.4826077","","211 N Main St"
"osYdHsXkRQ4FcPvNlIq_aw","Flying Pie Pizza","FALSE","https://www.yelp.com/biz/flying-pie-pizza-luck?adjust_creative=QNZpjiWMh-xtTiixb79gYw&utm_campaign=yelp_api_v3&utm_medium=api_v3_business_search&utm_source=QNZpjiWMh-xtTiixb79gYw","1","Pizza","1","45.5757958441973","-92.4817165732384","","49 E 1st Ave"
"63kFtw0uhqcsJNMl0vg8oQ","Hilltop Retreat","FALSE","https://www.yelp.com/biz/hilltop-retreat-cumberland?adjust_creative=QNZpjiWMh-xtTiixb79gYw&utm_campaign=yelp_api_v3&utm_medium=api_v3_business_search&utm_source=QNZpjiWMh-xtTiixb79gYw","2","Restaurants","3","45.62437","-92.12703","","2896 1 1/2 St"
"dqbBjQ8vgWYdeie1zRjQIg","County Line","FALSE","https://www.yelp.com/biz/county-line-comstock?adjust_creative=QNZpjiWMh-xtTiixb79gYw&utm_campaign=yelp_api_v3&utm_medium=api_v3_business_search&utm_source=QNZpjiWMh-xtTiixb79gYw","10","Bars | Barbeque","4.5","45.5253181","-92.156311","$","3 220th Ave"
"wjHtuscmPfpNL_xMlUg0xg","Wilkins Bone Lake Bar & Resort","FALSE","https://www.yelp.com/biz/wilkins-bone-lake-bar-and-resort-luck?adjust_creative=QNZpjiWMh-xtTiixb79gYw&utm_campaign=yelp_api_v3&utm_medium=api_v3_business_search&utm_source=QNZpjiWMh-xtTiixb79gYw","13","Bars | Pizza | Chicken Wings","4","45.55008","-92.38273","$","1091 238th Ave"
