"ID","Name","Is_Closed","URL","Review_Count","Categories","Rating","Latitude","Longitude","Price","Address"
"M8K8Z2cgpgeIwPr9Xz6TCg","Chetek Cafe","FALSE","https://www.yelp.com/biz/chetek-cafe-chetek?adjust_creative=QNZpjiWMh-xtTiixb79gYw&utm_campaign=yelp_api_v3&utm_medium=api_v3_business_search&utm_source=QNZpjiWMh-xtTiixb79gYw","14","Breakfast & Brunch | Greek | Meat Shops","5","45.3164801","-91.6514249","$","805 2nd St"
"gxZFe99zaO0SJM_LMdx7sw","Two Acres Supper Club","FALSE","https://www.yelp.com/biz/two-acres-supper-club-bloomer?adjust_creative=QNZpjiWMh-xtTiixb79gYw&utm_campaign=yelp_api_v3&utm_medium=api_v3_business_search&utm_source=QNZpjiWMh-xtTiixb79gYw","2","American (Traditional)","4","45.1625442504883","-91.5123596191406","","21858 County Highway Ss"
"lxDroo5HOr5Osy7dM4G2Iw","Reds Eating & Drinking Establishment","FALSE","https://www.yelp.com/biz/reds-eating-and-drinking-establishment-chetek?adjust_creative=QNZpjiWMh-xtTiixb79gYw&utm_campaign=yelp_api_v3&utm_medium=api_v3_business_search&utm_source=QNZpjiWMh-xtTiixb79gYw","15","Bars | Diners","3.5","45.312452","-91.644521","$$","121 Lakeview Dr"
"BGC6zWAL0vJkMPTwaMLJnQ","B and B Bar & Grill","FALSE","https://www.yelp.com/biz/b-and-b-bar-and-grill-chetek?adjust_creative=QNZpjiWMh-xtTiixb79gYw&utm_campaign=yelp_api_v3&utm_medium=api_v3_business_search&utm_source=QNZpjiWMh-xtTiixb79gYw","8","Pizza | Burgers | Sandwiches","4.5","45.3139152526855","-91.6510925292969","$$","516 2nd St"
"slCRgTPrpJKik-ecAGg1HQ","Northlakes Drive In","FALSE","https://www.yelp.com/biz/northlakes-drive-in-chetek?adjust_creative=QNZpjiWMh-xtTiixb79gYw&utm_campaign=yelp_api_v3&utm_medium=api_v3_business_search&utm_source=QNZpjiWMh-xtTiixb79gYw","11","Diners | American (New) | Fast Food","4.5","45.3128967285156","-91.6511154174805","$","410 2nd St"
"2f9vhsv-ZGi0UkvDm8Y_Zw","Pokegama Inn","FALSE","https://www.yelp.com/biz/pokegama-inn-chetek?adjust_creative=QNZpjiWMh-xtTiixb79gYw&utm_campaign=yelp_api_v3&utm_medium=api_v3_business_search&utm_source=QNZpjiWMh-xtTiixb79gYw","20","Restaurants","2.5","45.326042","-91.631534","$$","840 Banks Ln"
"oeozhEg74GrfXdz-tR6xwg","Gilligans","FALSE","https://www.yelp.com/biz/gilligans-chetek?adjust_creative=QNZpjiWMh-xtTiixb79gYw&utm_campaign=yelp_api_v3&utm_medium=api_v3_business_search&utm_source=QNZpjiWMh-xtTiixb79gYw","23","Restaurants | Hotels | Music Venues","3.5","45.325901","-91.6347275","$$","2542 8 1/4 Ave"
"hCoeZmp_dnkxGfq4v2b1Fg","Mary's Cafe & Pub","FALSE","https://www.yelp.com/biz/marys-cafe-and-pub-chetek?adjust_creative=QNZpjiWMh-xtTiixb79gYw&utm_campaign=yelp_api_v3&utm_medium=api_v3_business_search&utm_source=QNZpjiWMh-xtTiixb79gYw","7","Pubs | Cafes | Mexican","3.5","45.3146591186523","-91.6517181396484","$","208 Knapp St"
"kTDoMgrd8GwgFCXqPkER0A","Caddy Shack Bar & Grill","FALSE","https://www.yelp.com/biz/caddy-shack-bar-and-grill-chetek?adjust_creative=QNZpjiWMh-xtTiixb79gYw&utm_campaign=yelp_api_v3&utm_medium=api_v3_business_search&utm_source=QNZpjiWMh-xtTiixb79gYw","15","Bars | American (Traditional) | Pizza","4","45.352954","-91.639278","$$","1011 25 25 1/4 St"
"x3R5jDZ2UzS5KlOF_6dobQ","Chetek Lanes Event Center & Pizzeria","FALSE","https://www.yelp.com/biz/chetek-lanes-event-center-and-pizzeria-chetek?adjust_creative=QNZpjiWMh-xtTiixb79gYw&utm_campaign=yelp_api_v3&utm_medium=api_v3_business_search&utm_source=QNZpjiWMh-xtTiixb79gYw","1","Pizza | Bowling | Venues & Event Spaces","5","45.30618","-91.645803","$","695 County Hwy Ss"
"UAm9nRg-vI27LiT56TTpHw","Phill's Bar & Grill","FALSE","https://www.yelp.com/biz/phills-bar-and-grill-chetek?adjust_creative=QNZpjiWMh-xtTiixb79gYw&utm_campaign=yelp_api_v3&utm_medium=api_v3_business_search&utm_source=QNZpjiWMh-xtTiixb79gYw","2","Bars | American (Traditional) | Chicken Wings","4.5","45.31407","-91.65159","","519 2nd St"
"LIcRWAm1tu5xVqfaI3Ih8w","The Corner Deli","FALSE","https://www.yelp.com/biz/the-corner-deli-chetek?adjust_creative=QNZpjiWMh-xtTiixb79gYw&utm_campaign=yelp_api_v3&utm_medium=api_v3_business_search&utm_source=QNZpjiWMh-xtTiixb79gYw","3","Delis","2.5","45.3146417048038","-91.6511998184212","","529 2nd St"
"gKAXK--bdDhf-Du_8MOC-w","Kwik Trip","FALSE","https://www.yelp.com/biz/kwik-trip-chetek?adjust_creative=QNZpjiWMh-xtTiixb79gYw&utm_campaign=yelp_api_v3&utm_medium=api_v3_business_search&utm_source=QNZpjiWMh-xtTiixb79gYw","1","Convenience Stores | Pizza","5","45.3121604919434","-91.6507720947266","","324 2nd St"
"nVHpzsctxBiNO6TwJsp-cg","The Frog and the Fly's Bistro Pub","FALSE","https://www.yelp.com/biz/the-frog-and-the-flys-bistro-pub-new-auburn?adjust_creative=QNZpjiWMh-xtTiixb79gYw&utm_campaign=yelp_api_v3&utm_medium=api_v3_business_search&utm_source=QNZpjiWMh-xtTiixb79gYw","5","Pubs | American (New)","4","45.24833","-91.4295099","","27895 Wisconsin 40"
"L-rF3ZCblrj4SVLcoSlksw","Backwoods Bar & Grill","FALSE","https://www.yelp.com/biz/backwoods-bar-and-grill-weyerhaeuser?adjust_creative=QNZpjiWMh-xtTiixb79gYw&utm_campaign=yelp_api_v3&utm_medium=api_v3_business_search&utm_source=QNZpjiWMh-xtTiixb79gYw","10","Bars | American (Traditional)","4.5","45.3154604442257","-91.4076232910156","$$","W14549 Plummer Rd"
"MLz1r9L-LeGCrSk9zZ9UKA","Back 40","FALSE","https://www.yelp.com/biz/back-40-bloomer?adjust_creative=QNZpjiWMh-xtTiixb79gYw&utm_campaign=yelp_api_v3&utm_medium=api_v3_business_search&utm_source=QNZpjiWMh-xtTiixb79gYw","8","American (Traditional) | Pizza | Cocktail Bars","5","45.1204936866037","-91.4493651637542","$$","19037 State Hwy 40"
"8X5HjlJz6LglTiLkcFudSw","Rock Lake Lodge & Campground","FALSE","https://www.yelp.com/biz/rock-lake-lodge-and-campground-bloomer?adjust_creative=QNZpjiWMh-xtTiixb79gYw&utm_campaign=yelp_api_v3&utm_medium=api_v3_business_search&utm_source=QNZpjiWMh-xtTiixb79gYw","1","Pizza","5","45.1867218017578","-91.3755264282227","","23015 153rd St"
"P0whEkPzn61IjGlsteXk9w","Corner Cafe","FALSE","https://www.yelp.com/biz/corner-cafe-new-auburn?adjust_creative=QNZpjiWMh-xtTiixb79gYw&utm_campaign=yelp_api_v3&utm_medium=api_v3_business_search&utm_source=QNZpjiWMh-xtTiixb79gYw","1","Cafes","4","45.220223","-91.450291","$","11403 County Highway M"
"KjH_eWLL3WtDZA3PLCRCmw","Lured In Lodge & Campground","FALSE","https://www.yelp.com/biz/lured-in-lodge-and-campground-chetek?adjust_creative=QNZpjiWMh-xtTiixb79gYw&utm_campaign=yelp_api_v3&utm_medium=api_v3_business_search&utm_source=QNZpjiWMh-xtTiixb79gYw","1","Restaurants","4","45.331756","-91.43032","","N1211 Potato Lake Rd"
"g4gx9PnwD7avgC92GNS-WA","Main Street Cafe","FALSE","https://www.yelp.com/biz/main-street-cafe-bloomer?adjust_creative=QNZpjiWMh-xtTiixb79gYw&utm_campaign=yelp_api_v3&utm_medium=api_v3_business_search&utm_source=QNZpjiWMh-xtTiixb79gYw","15","Cafes","4","45.1017494","-91.4884491","$","1418 Main St"
"PRPG6S2bFyjHxV2W5vbRuw","Xpeditions","FALSE","https://www.yelp.com/biz/xpeditions-bloomer?adjust_creative=QNZpjiWMh-xtTiixb79gYw&utm_campaign=yelp_api_v3&utm_medium=api_v3_business_search&utm_source=QNZpjiWMh-xtTiixb79gYw","4","American (Traditional) | Pubs","4.5","45.102654","-91.48909","","1319 Main St"
"MyHBxhQ9aN9L_oERj2lWpg","Fat Boy's Pizza","FALSE","https://www.yelp.com/biz/fat-boys-pizza-bloomer?adjust_creative=QNZpjiWMh-xtTiixb79gYw&utm_campaign=yelp_api_v3&utm_medium=api_v3_business_search&utm_source=QNZpjiWMh-xtTiixb79gYw","11","Pizza | Sandwiches","4.5","45.1027374267578","-91.4884414672852","$","1312 Main St"
"1Vl9lu5dBatvplHjN56oxw","Billy's Grill & Catering","FALSE","https://www.yelp.com/biz/billys-grill-and-catering-bloomer?adjust_creative=QNZpjiWMh-xtTiixb79gYw&utm_campaign=yelp_api_v3&utm_medium=api_v3_business_search&utm_source=QNZpjiWMh-xtTiixb79gYw","5","American (Traditional)","3.5","45.1015550633626","-91.4859116077423","$","1019 15th Ave"
"62Gbs_jvs9r72DQSLbTCXg","Ms.Fitz Hideout","FALSE","https://www.yelp.com/biz/ms-fitz-hideout-bloomer?adjust_creative=QNZpjiWMh-xtTiixb79gYw&utm_campaign=yelp_api_v3&utm_medium=api_v3_business_search&utm_source=QNZpjiWMh-xtTiixb79gYw","2","American (Traditional) | Sports Bars | Steakhouses","5","45.088356","-91.627627","","2170 County Hwy A"
"PPpIO7zGoy1qcyonWQTCMg","Casa Mexicana Bloomer","FALSE","https://www.yelp.com/biz/casa-mexicana-bloomer-bloomer?adjust_creative=QNZpjiWMh-xtTiixb79gYw&utm_campaign=yelp_api_v3&utm_medium=api_v3_business_search&utm_source=QNZpjiWMh-xtTiixb79gYw","2","Mexican | Diners | Seafood","1.5","45.1002998352051","-91.5075225830078","","1628 Woodard Rd"
"5vE6p0KqSV5Cxr5Z3qEqrg","Farmhouse Cafe & Gifts","FALSE","https://www.yelp.com/biz/farmhouse-cafe-and-gifts-bloomer?adjust_creative=QNZpjiWMh-xtTiixb79gYw&utm_campaign=yelp_api_v3&utm_medium=api_v3_business_search&utm_source=QNZpjiWMh-xtTiixb79gYw","2","Cafes | Gift Shops | Sandwiches","5","45.101738","-91.487999","","1205 15th Ave"
"ccvhoPIpf4TL10ME3wUBOg","China One","FALSE","https://www.yelp.com/biz/china-one-bloomer?adjust_creative=QNZpjiWMh-xtTiixb79gYw&utm_campaign=yelp_api_v3&utm_medium=api_v3_business_search&utm_source=QNZpjiWMh-xtTiixb79gYw","3","Chinese","2","45.09856","-91.49871","$","2055 19th Ave"
"bPO3_cstQvh_Z_oyxVgjQg","Valley Tavern","FALSE","https://www.yelp.com/biz/valley-tavern-bloomer?adjust_creative=QNZpjiWMh-xtTiixb79gYw&utm_campaign=yelp_api_v3&utm_medium=api_v3_business_search&utm_source=QNZpjiWMh-xtTiixb79gYw","1","Restaurants","5","45.0526885986328","-91.5582122802734","$","14515 State Highway 40"
"rENRzRrqGNuiFupIhi_MoQ","Hardee's","FALSE","https://www.yelp.com/biz/hardees-bloomer?adjust_creative=QNZpjiWMh-xtTiixb79gYw&utm_campaign=yelp_api_v3&utm_medium=api_v3_business_search&utm_source=QNZpjiWMh-xtTiixb79gYw","1","Fast Food | American (Traditional)","5","45.0990905761719","-91.5010681152344","","2070 19th Ave"
"YRTCQpmJHlc60t9WO9RjPQ","Daily Brew Coffeehouse","FALSE","https://www.yelp.com/biz/daily-brew-coffeehouse-bloomer?adjust_creative=QNZpjiWMh-xtTiixb79gYw&utm_campaign=yelp_api_v3&utm_medium=api_v3_business_search&utm_source=QNZpjiWMh-xtTiixb79gYw","1","Jewelry | Restaurants","4","45.10174","-91.488","","1205 15th Ave"
"Hj0WLthiXbpjb3HmWAKplg","Old Abe's Supper Club","FALSE","https://www.yelp.com/biz/old-abes-supper-club-jim-falls?adjust_creative=QNZpjiWMh-xtTiixb79gYw&utm_campaign=yelp_api_v3&utm_medium=api_v3_business_search&utm_source=QNZpjiWMh-xtTiixb79gYw","5","Restaurants","4","45.0697174072266","-91.3231811523438","$$","17256 155th Ave"
"MIy8lJRXRHDhVQMpFrNCYg","Dougie's","FALSE","https://www.yelp.com/biz/dougies-bloomer?adjust_creative=QNZpjiWMh-xtTiixb79gYw&utm_campaign=yelp_api_v3&utm_medium=api_v3_business_search&utm_source=QNZpjiWMh-xtTiixb79gYw","1","Bars | American (Traditional)","5","45.0171585","-91.509819","","12038 County Hwy F"
"Rfmj_zRFAkc_eEEyQTbUfQ","The Next Place Bar & Grill","FALSE","https://www.yelp.com/biz/the-next-place-bar-and-grill-bloomer?adjust_creative=QNZpjiWMh-xtTiixb79gYw&utm_campaign=yelp_api_v3&utm_medium=api_v3_business_search&utm_source=QNZpjiWMh-xtTiixb79gYw","16","Bars | Burgers | American (Traditional)","5","45.1002","-91.48254","$","1602 Martin Rd"
"qK6-a9lSNX59kdBD7t7kXw","Pine Drive Bar And Grill","FALSE","https://www.yelp.com/biz/pine-drive-bar-and-grill-holcombe?adjust_creative=QNZpjiWMh-xtTiixb79gYw&utm_campaign=yelp_api_v3&utm_medium=api_v3_business_search&utm_source=QNZpjiWMh-xtTiixb79gYw","4","Bars | American (Traditional)","4.5","45.2381522893012","-91.1701318404385","$$","27339 250th St"
"f8mxHvjfIeTSRfABNTgi1w","Ted's Timberlodge","FALSE","https://www.yelp.com/biz/teds-timberlodge-holcombe?adjust_creative=QNZpjiWMh-xtTiixb79gYw&utm_campaign=yelp_api_v3&utm_medium=api_v3_business_search&utm_source=QNZpjiWMh-xtTiixb79gYw","10","Restaurants","3.5","45.23502","-91.15027","$$$","26064 County Highway M"
"JZdHaWqfz2KpVgq1Qccn9w","MoonRidge Brewing Company","FALSE","https://www.yelp.com/biz/moonridge-brewing-company-cornell?adjust_creative=QNZpjiWMh-xtTiixb79gYw&utm_campaign=yelp_api_v3&utm_medium=api_v3_business_search&utm_source=QNZpjiWMh-xtTiixb79gYw","11","Pizza | Breweries","5","45.1650848388672","-91.1456604003906","$$","501 Bridge St"
"_LgL2_dtQcwY2IlE8WdFGQ","Paradise Shores Restaurant & Lounge","FALSE","https://www.yelp.com/biz/paradise-shores-restaurant-and-lounge-holcombe?adjust_creative=QNZpjiWMh-xtTiixb79gYw&utm_campaign=yelp_api_v3&utm_medium=api_v3_business_search&utm_source=QNZpjiWMh-xtTiixb79gYw","2","American (Traditional)","3.5","45.234165","-91.144054","","26364 Country Hwy M"
"t0avXtzsdyru5REW5JBpQg","Lake Holcombe Cafe","FALSE","https://www.yelp.com/biz/lake-holcombe-cafe-holcombe?adjust_creative=QNZpjiWMh-xtTiixb79gYw&utm_campaign=yelp_api_v3&utm_medium=api_v3_business_search&utm_source=QNZpjiWMh-xtTiixb79gYw","1","Breakfast & Brunch | American (Traditional)","4","45.22457","-91.11763","","26314 276th"
"fi43th4hpeiKKPgXPm6_6Q","Dylan's Dairy","FALSE","https://www.yelp.com/biz/dylans-dairy-cornell?adjust_creative=QNZpjiWMh-xtTiixb79gYw&utm_campaign=yelp_api_v3&utm_medium=api_v3_business_search&utm_source=QNZpjiWMh-xtTiixb79gYw","3","Cafes | Ice Cream & Frozen Yogurt | Seafood","5","45.1676559448242","-91.1507034301758","","120 Main St"
"4kesGWfcgaRDyzjTUu30fg","Foster's Riverview Inn","FALSE","https://www.yelp.com/biz/fosters-riverview-inn-cornell?adjust_creative=QNZpjiWMh-xtTiixb79gYw&utm_campaign=yelp_api_v3&utm_medium=api_v3_business_search&utm_source=QNZpjiWMh-xtTiixb79gYw","4","Restaurants","4","45.1451683","-91.1927719","","24118 State Highway 178"
"4tPFe5BDbD-gJU8YMACBNg","Turany Turk","FALSE","https://www.yelp.com/biz/turany-turk-cornell?adjust_creative=QNZpjiWMh-xtTiixb79gYw&utm_campaign=yelp_api_v3&utm_medium=api_v3_business_search&utm_source=QNZpjiWMh-xtTiixb79gYw","2","Restaurants","4.5","45.1676559448242","-91.1508941650391","","116 Main St"
"-k0HJubjFARAmMliHeJxBw","Normas's Place","FALSE","https://www.yelp.com/biz/normass-place-gilman?adjust_creative=QNZpjiWMh-xtTiixb79gYw&utm_campaign=yelp_api_v3&utm_medium=api_v3_business_search&utm_source=QNZpjiWMh-xtTiixb79gYw","1","American (Traditional)","5","45.161403","-90.987602","","34009 State Hwy 64"
"WMdctU-Uiq7XP27C2nC-jg","Drywood Tavern","FALSE","https://www.yelp.com/biz/drywood-tavern-cadott?adjust_creative=QNZpjiWMh-xtTiixb79gYw&utm_campaign=yelp_api_v3&utm_medium=api_v3_business_search&utm_source=QNZpjiWMh-xtTiixb79gYw","2","Bars | Steakhouses","3","45.048058","-91.167467","","14157 250th St"
"MIVXSwC_CQcxx5oysjngdA","Crescent Tavern","FALSE","https://www.yelp.com/biz/crescent-tavern-cadott?adjust_creative=QNZpjiWMh-xtTiixb79gYw&utm_campaign=yelp_api_v3&utm_medium=api_v3_business_search&utm_source=QNZpjiWMh-xtTiixb79gYw","1","Bars | American (Traditional)","3","45.067999","-91.147611","","15506 State Highway 27"
"5ZR67q3UdfgffOw57K8Dhw","Riverview Supper Club","FALSE","https://www.yelp.com/biz/riverview-supper-club-boyd?adjust_creative=QNZpjiWMh-xtTiixb79gYw&utm_campaign=yelp_api_v3&utm_medium=api_v3_business_search&utm_source=QNZpjiWMh-xtTiixb79gYw","1","American (Traditional) | Pubs","4","45.01493793733","-91.0443019866943","","11951 County Hwy D"
"IUpgqaroH87jXZI3H6ZVIQ","Big Minnow","FALSE","https://www.yelp.com/biz/big-minnow-holcombe?adjust_creative=QNZpjiWMh-xtTiixb79gYw&utm_campaign=yelp_api_v3&utm_medium=api_v3_business_search&utm_source=QNZpjiWMh-xtTiixb79gYw","1","Restaurants","5","45.22725","-91.11022","","26490 State Highway 27"
"vs6sirGIzzcFlw-MrSjPog","Iron Horse Steakhouse","FALSE","https://www.yelp.com/biz/iron-horse-steakhouse-conrath?adjust_creative=QNZpjiWMh-xtTiixb79gYw&utm_campaign=yelp_api_v3&utm_medium=api_v3_business_search&utm_source=QNZpjiWMh-xtTiixb79gYw","3","Steakhouses | Burgers | American (Traditional)","2","45.2996323","-91.11012","","N310 State Hwy 27"
"ktaLpEinTe4dA8lU9VwLwQ","Albertville Tavern","FALSE","https://www.yelp.com/biz/albertville-tavern-colfax?adjust_creative=QNZpjiWMh-xtTiixb79gYw&utm_campaign=yelp_api_v3&utm_medium=api_v3_business_search&utm_source=QNZpjiWMh-xtTiixb79gYw","5","American (Traditional) | Cocktail Bars","4","44.95966","-91.60086","$","8114 35th St"
"4UGldWBqmdCNtfUyddOIbA","Wander Inn","FALSE","https://www.yelp.com/biz/wander-inn-chippewa-falls?adjust_creative=QNZpjiWMh-xtTiixb79gYw&utm_campaign=yelp_api_v3&utm_medium=api_v3_business_search&utm_source=QNZpjiWMh-xtTiixb79gYw","1","Bars | American (Traditional)","5","44.90112","-91.548928","","6020 County Hwy X"
"NUJtNI-v8Q7dOzArCWI5oA","Chippewa Family Restaurant","FALSE","https://www.yelp.com/biz/chippewa-family-restaurant-chippewa-falls-2?adjust_creative=QNZpjiWMh-xtTiixb79gYw&utm_campaign=yelp_api_v3&utm_medium=api_v3_business_search&utm_source=QNZpjiWMh-xtTiixb79gYw","37","American (Traditional) | Breakfast & Brunch","4.5","44.9494132995605","-91.3707656860352","$","1701 Kennedy Rd"
"SaHGFMFLdU-KRiup-8TKdg","Bresina's Hometown Bar & Grill","FALSE","https://www.yelp.com/biz/bresinas-hometown-bar-and-grill-chippewa-falls?adjust_creative=QNZpjiWMh-xtTiixb79gYw&utm_campaign=yelp_api_v3&utm_medium=api_v3_business_search&utm_source=QNZpjiWMh-xtTiixb79gYw","3","Sports Bars | American (Traditional)","5","45.0020027160645","-91.4229965209961","$","12037 County Hwy B"
"wxLQy9jhVKTlbOzl2B3lPg","The Edge Pub And Eatery On Lake Wissota","FALSE","https://www.yelp.com/biz/the-edge-pub-and-eatery-on-lake-wissota-chippewa-falls?adjust_creative=QNZpjiWMh-xtTiixb79gYw&utm_campaign=yelp_api_v3&utm_medium=api_v3_business_search&utm_source=QNZpjiWMh-xtTiixb79gYw","11","American (Traditional) | Boating","3","44.981194","-91.342391","$$","9416-9498 County Hwy S"
"pdHa7RnPRhq7tqO4c2r1UA","Wissota Chophouse","FALSE","https://www.yelp.com/biz/wissota-chophouse-chippewa-falls?adjust_creative=QNZpjiWMh-xtTiixb79gYw&utm_campaign=yelp_api_v3&utm_medium=api_v3_business_search&utm_source=QNZpjiWMh-xtTiixb79gYw","14","Steakhouses | Bars","4.5","44.93571","-91.39204","$$$","100 N Bridge St"
"Cyupww7Jm69gnAvjz3bavQ","Lucy's Delicatessen-Eatery Market Wine","FALSE","https://www.yelp.com/biz/lucys-delicatessen-eatery-market-wine-chippewa-falls?adjust_creative=QNZpjiWMh-xtTiixb79gYw&utm_campaign=yelp_api_v3&utm_medium=api_v3_business_search&utm_source=QNZpjiWMh-xtTiixb79gYw","35","Delis | Sandwiches","4.5","44.93631","-91.39196","$","117 N Bridge St"
"eKdp5AL5RyEbhDfv3t54Hw","West Hill Bar & Grill","FALSE","https://www.yelp.com/biz/west-hill-bar-and-grill-chippewa-falls?adjust_creative=QNZpjiWMh-xtTiixb79gYw&utm_campaign=yelp_api_v3&utm_medium=api_v3_business_search&utm_source=QNZpjiWMh-xtTiixb79gYw","12","American (Traditional) | Bars","4.5","44.9408264160156","-91.4030532836914","$$","250 W Elm St"
"k7mivnQBnjW9S5rzXzmA8g","Max's Bistro & Bar","FALSE","https://www.yelp.com/biz/maxs-bistro-and-bar-chippewa-falls?adjust_creative=QNZpjiWMh-xtTiixb79gYw&utm_campaign=yelp_api_v3&utm_medium=api_v3_business_search&utm_source=QNZpjiWMh-xtTiixb79gYw","7","Mexican | Bars","5","44.9367370727234","-91.3926566666667","","213 N Bridge St"
"7j0S2hG0gnHbsLRCQrwD3w","Bridge Street Brew","FALSE","https://www.yelp.com/biz/bridge-street-brew-chippewa-falls?adjust_creative=QNZpjiWMh-xtTiixb79gYw&utm_campaign=yelp_api_v3&utm_medium=api_v3_business_search&utm_source=QNZpjiWMh-xtTiixb79gYw","9","Coffee & Tea | Breakfast & Brunch | Sandwiches","4.5","44.9359","-91.39227","","114 N Bridge St"
"-7kPXXapGhQDTgwc_3Kk-g","Bridgewater Restaurant & Pub","FALSE","https://www.yelp.com/biz/bridgewater-restaurant-and-pub-chippewa-falls?adjust_creative=QNZpjiWMh-xtTiixb79gYw&utm_campaign=yelp_api_v3&utm_medium=api_v3_business_search&utm_source=QNZpjiWMh-xtTiixb79gYw","26","British | American (Traditional) | Pizza","4","44.913547","-91.399101","$$","1009 W Park Ave"
"NOZj-XkVR1SgiDYirkcX0A","Mahli Thai Asian Cuisine","FALSE","https://www.yelp.com/biz/mahli-thai-cuisine-chippewa-falls?adjust_creative=QNZpjiWMh-xtTiixb79gYw&utm_campaign=yelp_api_v3&utm_medium=api_v3_business_search&utm_source=QNZpjiWMh-xtTiixb79gYw","40","Thai | Seafood | Noodles","4.5","44.93654","-91.39294","$$","212 N Bridge St"
"VL-uJ8ckfvnyEsD-JxUMkA","Sheeley House Saloon","FALSE","https://www.yelp.com/biz/sheeley-house-saloon-chippewa-falls?adjust_creative=QNZpjiWMh-xtTiixb79gYw&utm_campaign=yelp_api_v3&utm_medium=api_v3_business_search&utm_source=QNZpjiWMh-xtTiixb79gYw","34","Pubs | American (Traditional)","4","44.9327127383597","-91.3948218552902","$$","236 W River St"
"kKD3InOMMLBfjq3xJkFj9A","Blue Marble Pub","FALSE","https://www.yelp.com/biz/blue-marble-pub-chippewa-falls-6?adjust_creative=QNZpjiWMh-xtTiixb79gYw&utm_campaign=yelp_api_v3&utm_medium=api_v3_business_search&utm_source=QNZpjiWMh-xtTiixb79gYw","11","Pizza | Burgers | Pubs","4.5","44.9419842","-91.3953033","$","816 N High St"
"aHBTTON0XTJXL33U7O6KLA","Sakura Japanese Restaurant","FALSE","https://www.yelp.com/biz/sakura-japanese-restaurant-chippewa-falls-2?adjust_creative=QNZpjiWMh-xtTiixb79gYw&utm_campaign=yelp_api_v3&utm_medium=api_v3_business_search&utm_source=QNZpjiWMh-xtTiixb79gYw","59","Japanese | Sushi Bars","4.5","44.92606","-91.38175","$$","360 Chippewa Mall Dr"
"GGp9tFQyX3vRjgLlYtf-iA","Casa Mexicana","FALSE","https://www.yelp.com/biz/casa-mexicana-chippewa-falls?adjust_creative=QNZpjiWMh-xtTiixb79gYw&utm_campaign=yelp_api_v3&utm_medium=api_v3_business_search&utm_source=QNZpjiWMh-xtTiixb79gYw","35","Mexican","4","44.93751","-91.39409","$","324 N Bridge St"
"m2QJKMqKAUt-UZFm_AAb1g","Olson's Ice Cream Parlor & Deli","FALSE","https://www.yelp.com/biz/olsons-ice-cream-parlor-and-deli-chippewa-falls?adjust_creative=QNZpjiWMh-xtTiixb79gYw&utm_campaign=yelp_api_v3&utm_medium=api_v3_business_search&utm_source=QNZpjiWMh-xtTiixb79gYw","32","Ice Cream & Frozen Yogurt | Wraps | Sandwiches","5","44.9395713806152","-91.3957824707031","$","611 N Bridge St"
"pZIPWs-7z99cZAJpAy7Cpg","Loopy's","FALSE","https://www.yelp.com/biz/loopys-chippewa-falls?adjust_creative=QNZpjiWMh-xtTiixb79gYw&utm_campaign=yelp_api_v3&utm_medium=api_v3_business_search&utm_source=QNZpjiWMh-xtTiixb79gYw","44","Pizza | Burgers | Bars","4","44.9227447509766","-91.4567108154297","$","10691 County Hwy X"
"qnlISGAM96OXgsvc6N5OLA","Bomb Tacos","FALSE","https://www.yelp.com/biz/bomb-tacos-chippewa-falls?adjust_creative=QNZpjiWMh-xtTiixb79gYw&utm_campaign=yelp_api_v3&utm_medium=api_v3_business_search&utm_source=QNZpjiWMh-xtTiixb79gYw","2","Tacos | Beer Bar | Breakfast & Brunch","5","44.9391998696164","-91.3961200556329","","504 N Bridge St"
"EPU0QswSrMUn7ojovlkAug","Horizons Lounge & Banquet Center","FALSE","https://www.yelp.com/biz/horizons-lounge-and-banquet-center-chippewa-falls?adjust_creative=QNZpjiWMh-xtTiixb79gYw&utm_campaign=yelp_api_v3&utm_medium=api_v3_business_search&utm_source=QNZpjiWMh-xtTiixb79gYw","5","Cocktail Bars | American (Traditional)","3","44.9966142826744","-91.4424236118793","","10764 County Highway Q"
"oD72EmBBg1OG9Z955WkzvQ","Fill Inn Station","FALSE","https://www.yelp.com/biz/fill-inn-station-chippewa-falls?adjust_creative=QNZpjiWMh-xtTiixb79gYw&utm_campaign=yelp_api_v3&utm_medium=api_v3_business_search&utm_source=QNZpjiWMh-xtTiixb79gYw","21","Burgers | American (Traditional) | Pizza","3","44.9369299","-91.39591","$$","104 W Columbia St"
"XHBG16ti83lDhRSEk_lzrA","The Rumor Mill Pub & Eatery","FALSE","https://www.yelp.com/biz/the-rumor-mill-pub-and-eatery-chippewa-falls?adjust_creative=QNZpjiWMh-xtTiixb79gYw&utm_campaign=yelp_api_v3&utm_medium=api_v3_business_search&utm_source=QNZpjiWMh-xtTiixb79gYw","26","Pubs | Burgers | American (Traditional)","3","44.9247486144304","-91.3819840550423","$$","465 Chippewa Mall Dr"
"KhyVYuW8Bw9InVy-HDzmfg","Jimbob's Pizza Shop","FALSE","https://www.yelp.com/biz/jimbobs-pizza-shop-chippewa-falls-2?adjust_creative=QNZpjiWMh-xtTiixb79gYw&utm_campaign=yelp_api_v3&utm_medium=api_v3_business_search&utm_source=QNZpjiWMh-xtTiixb79gYw","6","Pizza","4.5","44.962767","-91.394091","$$","8140 136th St"
"fr__cHPFgXTLzAH6Gb5R8Q","SandBar and Grill","FALSE","https://www.yelp.com/biz/sandbar-and-grill-chippewa-falls?adjust_creative=QNZpjiWMh-xtTiixb79gYw&utm_campaign=yelp_api_v3&utm_medium=api_v3_business_search&utm_source=QNZpjiWMh-xtTiixb79gYw","12","Bars | Burgers | Sandwiches","2.5","44.914981842041","-91.31396484375","","17643 50th Ave"
"fIFVPaUwgIH7dL57E7al4g","Sweeney's Bar & Grill","FALSE","https://www.yelp.com/biz/sweeneys-bar-and-grill-chippewa-falls?adjust_creative=QNZpjiWMh-xtTiixb79gYw&utm_campaign=yelp_api_v3&utm_medium=api_v3_business_search&utm_source=QNZpjiWMh-xtTiixb79gYw","4","Bars | American (Traditional) | Music Venues","3.5","44.9286414","-91.3901889","","201 E Canal St"
"d5mIqEd-VIblfrJVy6WCjw","Bresina's Old Home Restaurant","FALSE","https://www.yelp.com/biz/bresinas-old-home-restaurant-chippewa-falls?adjust_creative=QNZpjiWMh-xtTiixb79gYw&utm_campaign=yelp_api_v3&utm_medium=api_v3_business_search&utm_source=QNZpjiWMh-xtTiixb79gYw","4","Restaurants","4","44.94202","-91.38516","$","704 E Grand Ave"
"a-UoBPWDRXsziuu9fJWUfA","Hong Kong House","FALSE","https://www.yelp.com/biz/hong-kong-house-chippewa-falls?adjust_creative=QNZpjiWMh-xtTiixb79gYw&utm_campaign=yelp_api_v3&utm_medium=api_v3_business_search&utm_source=QNZpjiWMh-xtTiixb79gYw","8","Chinese","3.5","44.937873840332","-91.3945846557617","$","412 N Bridge St"
"SneQhmTBcMyIvl_P3a2LhA","Cancun Mexican Grill","FALSE","https://www.yelp.com/biz/cancun-mexican-grill-chippewa-falls?adjust_creative=QNZpjiWMh-xtTiixb79gYw&utm_campaign=yelp_api_v3&utm_medium=api_v3_business_search&utm_source=QNZpjiWMh-xtTiixb79gYw","14","Mexican","3","44.9253883361816","-91.380615234375","$","475 Chippewa Mall Dr"
"Uqxok1z9pXMS0moBKCb8mQ","River Inn Bar","FALSE","https://www.yelp.com/biz/river-inn-bar-chippewa-falls?adjust_creative=QNZpjiWMh-xtTiixb79gYw&utm_campaign=yelp_api_v3&utm_medium=api_v3_business_search&utm_source=QNZpjiWMh-xtTiixb79gYw","3","Bars | American (Traditional) | Chicken Wings","3.5","44.91982","-91.46117","","10418 County Hwy X"
"mBzy0A5lM_jYtOc9a-T1cw","Toppers Pizza","FALSE","https://www.yelp.com/biz/toppers-pizza-chippewa-falls?adjust_creative=QNZpjiWMh-xtTiixb79gYw&utm_campaign=yelp_api_v3&utm_medium=api_v3_business_search&utm_source=QNZpjiWMh-xtTiixb79gYw","5","Pizza","5","44.9253883361816","-91.380615234375","","475 Chippewa Mall Dr"
"KuhDqedQomdfvAuxb10ieg","China Buffet","FALSE","https://www.yelp.com/biz/china-buffet-chippewa-falls?adjust_creative=QNZpjiWMh-xtTiixb79gYw&utm_campaign=yelp_api_v3&utm_medium=api_v3_business_search&utm_source=QNZpjiWMh-xtTiixb79gYw","6","Chinese | Buffets","2.5","44.9253883361816","-91.380615234375","$","475 Chippewa Mall Dr"
"7hQBXoMSd1rTSFwxcCi2cg","Four Corners","FALSE","https://www.yelp.com/biz/four-corners-chippewa-falls?adjust_creative=QNZpjiWMh-xtTiixb79gYw&utm_campaign=yelp_api_v3&utm_medium=api_v3_business_search&utm_source=QNZpjiWMh-xtTiixb79gYw","3","Restaurants","2.5","44.96664","-91.36853","$","14982 County Hwy S"
"pMoxHA6KFTANqIGp9BnC6Q","Jimmy John's","FALSE","https://www.yelp.com/biz/jimmy-johns-chippewa-falls?adjust_creative=QNZpjiWMh-xtTiixb79gYw&utm_campaign=yelp_api_v3&utm_medium=api_v3_business_search&utm_source=QNZpjiWMh-xtTiixb79gYw","3","Sandwiches | Fast Food | Delis","3.5","44.94522","-91.36896","","424 Bridge St"
"3spfBjFUHfYFi3OOjxJhYg","Subway","FALSE","https://www.yelp.com/biz/subway-chippewa-falls-4?adjust_creative=QNZpjiWMh-xtTiixb79gYw&utm_campaign=yelp_api_v3&utm_medium=api_v3_business_search&utm_source=QNZpjiWMh-xtTiixb79gYw","2","Sandwiches | Fast Food","3.5","44.95129","-91.3679499","","2029 County Highway I"
"woiK6iq3p-rFbrB_D7DZ5Q","Burger King","FALSE","https://www.yelp.com/biz/burger-king-chippewa-falls-2?adjust_creative=QNZpjiWMh-xtTiixb79gYw&utm_campaign=yelp_api_v3&utm_medium=api_v3_business_search&utm_source=QNZpjiWMh-xtTiixb79gYw","6","Burgers","2.5","44.933193","-91.394241","","228 W River St"
"oX3NBIJBpJmjnXFI7iknmA","Goldsmith Coffee Bar","FALSE","https://www.yelp.com/biz/goldsmith-coffee-bar-chippewa-falls?adjust_creative=QNZpjiWMh-xtTiixb79gYw&utm_campaign=yelp_api_v3&utm_medium=api_v3_business_search&utm_source=QNZpjiWMh-xtTiixb79gYw","1","Cafes","5","44.936268","-91.387482","","22 S Prairie St"
"BqZtZ873OAbM0mUPMBxwPg","Glen Loch Saloon","FALSE","https://www.yelp.com/biz/glen-loch-saloon-chippewa-falls?adjust_creative=QNZpjiWMh-xtTiixb79gYw&utm_campaign=yelp_api_v3&utm_medium=api_v3_business_search&utm_source=QNZpjiWMh-xtTiixb79gYw","2","Restaurants","4","44.95774","-91.39652","","1300 Jefferson Ave"
"L0DN2NZ1gxWmyNw_7zgp5g","Arby's","FALSE","https://www.yelp.com/biz/arbys-chippewa-falls?adjust_creative=QNZpjiWMh-xtTiixb79gYw&utm_campaign=yelp_api_v3&utm_medium=api_v3_business_search&utm_source=QNZpjiWMh-xtTiixb79gYw","2","Fast Food | Sandwiches","4","44.91472","-91.38715","","307 E Prairie View Rd"
"2C_C-b8E3YOL3mQCaRJ7Mw","Taco John's","FALSE","https://www.yelp.com/biz/taco-johns-chippewa-falls?adjust_creative=QNZpjiWMh-xtTiixb79gYw&utm_campaign=yelp_api_v3&utm_medium=api_v3_business_search&utm_source=QNZpjiWMh-xtTiixb79gYw","5","Mexican | Fast Food","3","44.91302470463","-91.3909086808781","$","257 W Prairie View Rd"
"6eQIA4_GG65UztbZwEWVQg","McDonald's","FALSE","https://www.yelp.com/biz/mcdonalds-chippewa-falls-2?adjust_creative=QNZpjiWMh-xtTiixb79gYw&utm_campaign=yelp_api_v3&utm_medium=api_v3_business_search&utm_source=QNZpjiWMh-xtTiixb79gYw","4","Burgers | Fast Food | Coffee & Tea","3","44.9139664910872","-91.3896891956983","","100 Prairie View Rd"
"mgW5jSr8HY9JmiSzQmjcjg","Domino's Pizza","FALSE","https://www.yelp.com/biz/dominos-pizza-chippewa-falls?adjust_creative=QNZpjiWMh-xtTiixb79gYw&utm_campaign=yelp_api_v3&utm_medium=api_v3_business_search&utm_source=QNZpjiWMh-xtTiixb79gYw","3","Pizza | Chicken Wings | Sandwiches","3","44.9263076782227","-91.3819808959961","","354 Chippewa Mall Dr"
"dbQzZ8CrdmZUekLay2W5kQ","Subway","FALSE","https://www.yelp.com/biz/subway-chippewa-falls?adjust_creative=QNZpjiWMh-xtTiixb79gYw&utm_campaign=yelp_api_v3&utm_medium=api_v3_business_search&utm_source=QNZpjiWMh-xtTiixb79gYw","1","Sandwiches | Fast Food","5","44.915641","-91.389297","","860 Woodward Ave"
"5sKtYwN0iMhYdDbfVVLG9A","Pizza Hut","FALSE","https://www.yelp.com/biz/pizza-hut-chippewa-falls?adjust_creative=QNZpjiWMh-xtTiixb79gYw&utm_campaign=yelp_api_v3&utm_medium=api_v3_business_search&utm_source=QNZpjiWMh-xtTiixb79gYw","3","Pizza | Italian | Chicken Wings","2.5","44.9137798978409","-91.3904187","","225 W Prairie View Rd"
"rvQU-gqf0magg42ju-QHiw","KFC","FALSE","https://www.yelp.com/biz/kfc-chippewa-falls-2?adjust_creative=QNZpjiWMh-xtTiixb79gYw&utm_campaign=yelp_api_v3&utm_medium=api_v3_business_search&utm_source=QNZpjiWMh-xtTiixb79gYw","1","Fast Food | Chicken Wings | Chicken Shop","3","44.9148","-91.3886","","1017 Woodward Ave"
"WHW1MoYpwd8UuC2of3R7Tw","The Informalist","FALSE","https://www.yelp.com/biz/the-informalist-eau-claire?adjust_creative=QNZpjiWMh-xtTiixb79gYw&utm_campaign=yelp_api_v3&utm_medium=api_v3_business_search&utm_source=QNZpjiWMh-xtTiixb79gYw","107","Wine Bars | American (New)","4","44.8115463256836","-91.4995574951172","$$","205 S Barstow St"
"wehTlk8qCvVrzhW64pfvqg","The Classic Garage","FALSE","https://www.yelp.com/biz/the-classic-garage-eau-claire?adjust_creative=QNZpjiWMh-xtTiixb79gYw&utm_campaign=yelp_api_v3&utm_medium=api_v3_business_search&utm_source=QNZpjiWMh-xtTiixb79gYw","81","Burgers | Diners | American (Traditional)","4","44.82061","-91.51351","$$","2111 3rd St"
"JlJDaZD6h0GFYCI_ou6K2w","29 Pines Restaurant","FALSE","https://www.yelp.com/biz/29-pines-restaurant-eau-claire-2?adjust_creative=QNZpjiWMh-xtTiixb79gYw&utm_campaign=yelp_api_v3&utm_medium=api_v3_business_search&utm_source=QNZpjiWMh-xtTiixb79gYw","15","American (Traditional)","2.5","44.891625","-91.551689","$","5872 33rd Ave"
"8AQxFP0J57C-jB2yuJYDkg","Mona Lisa's Restaurant","FALSE","https://www.yelp.com/biz/mona-lisas-restaurant-eau-claire?adjust_creative=QNZpjiWMh-xtTiixb79gYw&utm_campaign=yelp_api_v3&utm_medium=api_v3_business_search&utm_source=QNZpjiWMh-xtTiixb79gYw","119","Italian | Mediterranean | Vegetarian","4","44.802386","-91.508988","$$","428 Water St"
"83FAmXd_qDgvKht1Lo49ug","Ray's Place","FALSE","https://www.yelp.com/biz/rays-place-eau-claire?adjust_creative=QNZpjiWMh-xtTiixb79gYw&utm_campaign=yelp_api_v3&utm_medium=api_v3_business_search&utm_source=QNZpjiWMh-xtTiixb79gYw","37","Bars | American (New)","4.5","44.802323754247","-91.5176278119548","$","838 Water St"
"H2abdQxmfgd33aoElETTVg","The Nucleus Cafe","FALSE","https://www.yelp.com/biz/the-nucleus-cafe-eau-claire?adjust_creative=QNZpjiWMh-xtTiixb79gYw&utm_campaign=yelp_api_v3&utm_medium=api_v3_business_search&utm_source=QNZpjiWMh-xtTiixb79gYw","174","Breakfast & Brunch | Cafes","4","44.8020381170519","-91.5081326895154","$$","405 Water St"
"IrCkMse3pjyf4ya7pJUkDw","The Lakely","FALSE","https://www.yelp.com/biz/the-lakely-eau-claire?adjust_creative=QNZpjiWMh-xtTiixb79gYw&utm_campaign=yelp_api_v3&utm_medium=api_v3_business_search&utm_source=QNZpjiWMh-xtTiixb79gYw","42","Bars | Breakfast & Brunch | American (Traditional)","4","44.81503","-91.4998","$$","516 Galloway St"
"4zIFxEePhVD6zZ6A68v-Jg","Stella Blues","FALSE","https://www.yelp.com/biz/stella-blues-eau-claire?adjust_creative=QNZpjiWMh-xtTiixb79gYw&utm_campaign=yelp_api_v3&utm_medium=api_v3_business_search&utm_source=QNZpjiWMh-xtTiixb79gYw","112","Cajun/Creole | Seafood | Sandwiches","4","44.81661","-91.503","$$","306 E Madison St"
"yBpEUeGfGJVLxMJC_FBt0g","Muang Thai","FALSE","https://www.yelp.com/biz/muang-thai-eau-claire?adjust_creative=QNZpjiWMh-xtTiixb79gYw&utm_campaign=yelp_api_v3&utm_medium=api_v3_business_search&utm_source=QNZpjiWMh-xtTiixb79gYw","50","Thai | Japanese","4","44.827114","-91.541872","$$","2637 N Clairemont Ave"
"jUFNszedlVBQv7Rqhk4fJg","Houligans Steak & Seafood Pub","FALSE","https://www.yelp.com/biz/houligans-steak-and-seafood-pub-eau-claire?adjust_creative=QNZpjiWMh-xtTiixb79gYw&utm_campaign=yelp_api_v3&utm_medium=api_v3_business_search&utm_source=QNZpjiWMh-xtTiixb79gYw","54","Seafood | Steakhouses | Pubs","4","44.809733","-91.498051","$$","415 S Barstow St"
"UW5QtfGEfxtLpE0-kzQt4w","The Livery Restaurant & Saloon","FALSE","https://www.yelp.com/biz/the-livery-restaurant-and-saloon-eau-claire?adjust_creative=QNZpjiWMh-xtTiixb79gYw&utm_campaign=yelp_api_v3&utm_medium=api_v3_business_search&utm_source=QNZpjiWMh-xtTiixb79gYw","49","Bars | American (New) | Sandwiches","3.5","44.8155598007665","-91.5021309354355","$$","316 Wisconsin St"
"R-0UpCyb-Ehgjqu9SOSM5Q","Yankee Jack's Public House","FALSE","https://www.yelp.com/biz/yankee-jacks-public-house-eau-claire?adjust_creative=QNZpjiWMh-xtTiixb79gYw&utm_campaign=yelp_api_v3&utm_medium=api_v3_business_search&utm_source=QNZpjiWMh-xtTiixb79gYw","19","American (Traditional) | Salad | Sandwiches","3.5","44.8225366497271","-91.5433353558183","$$","2235 North Clairemont Ave"
"L4p_-VpxRVMAP4j5j6-2Aw","Grand Avenue Caf√©","FALSE","https://www.yelp.com/biz/grand-avenue-caf%C3%A9-eau-claire-2?adjust_creative=QNZpjiWMh-xtTiixb79gYw&utm_campaign=yelp_api_v3&utm_medium=api_v3_business_search&utm_source=QNZpjiWMh-xtTiixb79gYw","23","Coffee & Tea | American (New)","4.5","44.808952331543","-91.5038070678711","$","119 W Grand Ave"
"KR5TqzYJwO2MYa2lI1iM5g","Egg Rolls Plus","FALSE","https://www.yelp.com/biz/egg-rolls-plus-eau-claire?adjust_creative=QNZpjiWMh-xtTiixb79gYw&utm_campaign=yelp_api_v3&utm_medium=api_v3_business_search&utm_source=QNZpjiWMh-xtTiixb79gYw","86","Chinese | Thai | Vietnamese","4.5","44.8158378601074","-91.5110626220703","$","1611 Bellinger St"
"oaE_nuBVS1lJ6x0OApTTDQ","Court'n House Bar & Grill","FALSE","https://www.yelp.com/biz/courtn-house-bar-and-grill-eau-claire?adjust_creative=QNZpjiWMh-xtTiixb79gYw&utm_campaign=yelp_api_v3&utm_medium=api_v3_business_search&utm_source=QNZpjiWMh-xtTiixb79gYw","31","Bars | American (Traditional)","4","44.80903","-91.50361","$","113 W Grand Ave"
"3Jgegdn6RU-3_60PP2kSbQ","Acoustic Cafe","FALSE","https://www.yelp.com/biz/acoustic-cafe-eau-claire?adjust_creative=QNZpjiWMh-xtTiixb79gYw&utm_campaign=yelp_api_v3&utm_medium=api_v3_business_search&utm_source=QNZpjiWMh-xtTiixb79gYw","34","Coffee & Tea | Cafes | Sandwiches","4","44.809322","-91.497512","$","505 S Barstow St"
"VMMUUla-cuSwBGWTryqlew","Dana's Grill & Sports Bar","FALSE","https://www.yelp.com/biz/danas-grill-and-sports-bar-eau-claire?adjust_creative=QNZpjiWMh-xtTiixb79gYw&utm_campaign=yelp_api_v3&utm_medium=api_v3_business_search&utm_source=QNZpjiWMh-xtTiixb79gYw","8","American (Traditional) | Sports Bars","2.5","44.8446502685547","-91.6026306152344","$$","6505 Texaco Dr"
"1J0GjVXm8AAjkskMJSobww","Smiling Moose Rocky Mountain Deli","FALSE","https://www.yelp.com/biz/smiling-moose-rocky-mountain-deli-eau-claire?adjust_creative=QNZpjiWMh-xtTiixb79gYw&utm_campaign=yelp_api_v3&utm_medium=api_v3_business_search&utm_source=QNZpjiWMh-xtTiixb79gYw","31","Sandwiches | Delis | Cafes","3.5","44.815877","-91.504188","$","329 Riverfront Ter"
"j71ag5YCTWpqBbJmkBviHA","Wigwam Tavern","FALSE","https://www.yelp.com/biz/wigwam-tavern-eau-claire-2?adjust_creative=QNZpjiWMh-xtTiixb79gYw&utm_campaign=yelp_api_v3&utm_medium=api_v3_business_search&utm_source=QNZpjiWMh-xtTiixb79gYw","7","Bars | Burgers | Breakfast & Brunch","4.5","44.8163330554962","-91.5028879791498","$","314 E Madison St"
"53HTkWZ0Mq1lrmmeBPREUg","Galloway Grille","FALSE","https://www.yelp.com/biz/galloway-grille-eau-claire?adjust_creative=QNZpjiWMh-xtTiixb79gYw&utm_campaign=yelp_api_v3&utm_medium=api_v3_business_search&utm_source=QNZpjiWMh-xtTiixb79gYw","41","American (Traditional) | Breakfast & Brunch | Burgers","3.5","44.8143730163574","-91.5007476806641","$$","409 Galloway St"
"aO2Phq1BrC03ttlimlXSMA","Local Lounge","FALSE","https://www.yelp.com/biz/local-lounge-eau-claire?adjust_creative=QNZpjiWMh-xtTiixb79gYw&utm_campaign=yelp_api_v3&utm_medium=api_v3_business_search&utm_source=QNZpjiWMh-xtTiixb79gYw","18","Supper Clubs | Lounges | Venues & Event Spaces","2","44.8200327352324","-91.5442587395484","$$","2106 N Clairemont Ave"
"17iKOObLa_OyrKiMfSJ3qg","Eau Claire Ale House","FALSE","https://www.yelp.com/biz/eau-claire-ale-house-eau-claire?adjust_creative=QNZpjiWMh-xtTiixb79gYw&utm_campaign=yelp_api_v3&utm_medium=api_v3_business_search&utm_source=QNZpjiWMh-xtTiixb79gYw","24","American (New) | Beer Bar | Italian","3.5","44.7998642852102","-91.531181384402","$","120 N Clairemont Ave"
"rFE7e8L1eb31cufoE0CaWw","Chick-A-Dee's Family Restaurant","FALSE","https://www.yelp.com/biz/chick-a-dees-family-restaurant-eau-claire?adjust_creative=QNZpjiWMh-xtTiixb79gYw&utm_campaign=yelp_api_v3&utm_medium=api_v3_business_search&utm_source=QNZpjiWMh-xtTiixb79gYw","15","American (Traditional) | Breakfast & Brunch","3.5","44.81902","-91.51383","$","1928 3rd St"
"wVfydTx4KVTG1gprljxvqw","Green Mill Restaurant & Bar","FALSE","https://www.yelp.com/biz/green-mill-restaurant-and-bar-eau-claire?adjust_creative=QNZpjiWMh-xtTiixb79gYw&utm_campaign=yelp_api_v3&utm_medium=api_v3_business_search&utm_source=QNZpjiWMh-xtTiixb79gYw","49","Pizza | American (New)","3.5","44.7905","-91.518504","$$","2703 Craig Rd"
"1IqVViPe3aqcCYOj-oLwHA","Amber Inn Bar & Grill","FALSE","https://www.yelp.com/biz/amber-inn-bar-and-grill-eau-claire?adjust_creative=QNZpjiWMh-xtTiixb79gYw&utm_campaign=yelp_api_v3&utm_medium=api_v3_business_search&utm_source=QNZpjiWMh-xtTiixb79gYw","13","Pubs | Barbeque","4.5","44.81802","-91.49571","$","840 E Madison St"
"_7GADNIwraEr6ZpRldCFug","Westside Bar & Grill","FALSE","https://www.yelp.com/biz/westside-bar-and-grill-eau-claire?adjust_creative=QNZpjiWMh-xtTiixb79gYw&utm_campaign=yelp_api_v3&utm_medium=api_v3_business_search&utm_source=QNZpjiWMh-xtTiixb79gYw","3","American (Traditional) | Bars","3.5","44.817478","-91.540994","$$","1807 N Clairemont Ave"
"gKkIX1kEwebkL7rwONYWwQ","The District Pub and Grill","FALSE","https://www.yelp.com/biz/the-district-pub-and-grill-eau-claire?adjust_creative=QNZpjiWMh-xtTiixb79gYw&utm_campaign=yelp_api_v3&utm_medium=api_v3_business_search&utm_source=QNZpjiWMh-xtTiixb79gYw","8","American (New) | Bars","2.5","44.81185","-91.50128","$$","101 Graham Ave"
"yDdK820ntapmXA94ztpEjQ","Rice Palace","FALSE","https://www.yelp.com/biz/rice-palace-eau-claire?adjust_creative=QNZpjiWMh-xtTiixb79gYw&utm_campaign=yelp_api_v3&utm_medium=api_v3_business_search&utm_source=QNZpjiWMh-xtTiixb79gYw","34","Thai","3.5","44.8110809","-91.5001297","$","210 S Barstow"
"FXcHdCMIcNHYwAS4rBACQQ","Cancun Mexican Grill","FALSE","https://www.yelp.com/biz/cancun-mexican-grill-eau-claire-2?adjust_creative=QNZpjiWMh-xtTiixb79gYw&utm_campaign=yelp_api_v3&utm_medium=api_v3_business_search&utm_source=QNZpjiWMh-xtTiixb79gYw","14","Mexican","3.5","44.82748","-91.5419","$$","2713 N Clairemont Ave"
"YjKwDxkM5z7uBooo-OxqQA","Pizza Ranch","FALSE","https://www.yelp.com/biz/pizza-ranch-eau-claire?adjust_creative=QNZpjiWMh-xtTiixb79gYw&utm_campaign=yelp_api_v3&utm_medium=api_v3_business_search&utm_source=QNZpjiWMh-xtTiixb79gYw","24","Pizza","3","44.83188","-91.54292","$$","2451 Truax Blvd"
"FyCvMyLCUuaDUQ4425N2kw","Goat Coffee House","FALSE","https://www.yelp.com/biz/goat-coffee-house-eau-claire?adjust_creative=QNZpjiWMh-xtTiixb79gYw&utm_campaign=yelp_api_v3&utm_medium=api_v3_business_search&utm_source=QNZpjiWMh-xtTiixb79gYw","15","Coffee & Tea | Breakfast & Brunch | Sandwiches","4","44.80244","-91.50728","$","336 Water St"
"WQ9L9e1qYubCQMkaf3aFMg","Golden Dragon Chinese Restaurant","FALSE","https://www.yelp.com/biz/golden-dragon-chinese-restaurant-eau-claire?adjust_creative=QNZpjiWMh-xtTiixb79gYw&utm_campaign=yelp_api_v3&utm_medium=api_v3_business_search&utm_source=QNZpjiWMh-xtTiixb79gYw","17","Chinese","2.5","44.8273162","-91.5439007","$","2709 N Clairemont Ave"
"HaAH3_aHtqSK0mAyR4cdkw","The Plus","FALSE","https://www.yelp.com/biz/the-plus-eau-claire?adjust_creative=QNZpjiWMh-xtTiixb79gYw&utm_campaign=yelp_api_v3&utm_medium=api_v3_business_search&utm_source=QNZpjiWMh-xtTiixb79gYw","31","Pizza","3.5","44.8111724853516","-91.5002136230469","$$","208 S Barstow St"
"9Was-FiH8ZkI0T7imrL9CQ","Ninja Japanese House","FALSE","https://www.yelp.com/biz/ninja-japanese-house-eau-claire-2?adjust_creative=QNZpjiWMh-xtTiixb79gYw&utm_campaign=yelp_api_v3&utm_medium=api_v3_business_search&utm_source=QNZpjiWMh-xtTiixb79gYw","34","Japanese | Sushi Bars | Asian Fusion","3.5","44.81002","-91.49817","$$","405 S Barstow St"
"MlIemTy7EpFhQgidySMsiA","Culvers","FALSE","https://www.yelp.com/biz/culvers-eau-claire-2?adjust_creative=QNZpjiWMh-xtTiixb79gYw&utm_campaign=yelp_api_v3&utm_medium=api_v3_business_search&utm_source=QNZpjiWMh-xtTiixb79gYw","7","Burgers | Fast Food | Ice Cream & Frozen Yogurt","3.5","44.82913","-91.54629","$","2520 W Folsom St"
"Zc5YLkwxIvt565qRf-Yb-Q","Red Lobster","FALSE","https://www.yelp.com/biz/red-lobster-eau-claire?adjust_creative=QNZpjiWMh-xtTiixb79gYw&utm_campaign=yelp_api_v3&utm_medium=api_v3_business_search&utm_source=QNZpjiWMh-xtTiixb79gYw","19","Seafood | American (Traditional)","3.5","44.79213","-91.51442","$$","1019 W Clairemont Ave"
"9idBqJ9AtdIC3SmsE6Of6g","Embers America Karl & Cindy's","FALSE","https://www.yelp.com/biz/embers-america-karl-and-cindys-eau-claire?adjust_creative=QNZpjiWMh-xtTiixb79gYw&utm_campaign=yelp_api_v3&utm_medium=api_v3_business_search&utm_source=QNZpjiWMh-xtTiixb79gYw","1","American (New)","1","44.84424","-91.5955199","$","6220 Texaco Dr"
"5JjBzMi4UANlCqx5klXOyA","Erbert & Gerbert's Sandwich Shop","FALSE","https://www.yelp.com/biz/erbert-and-gerberts-sandwich-shop-eau-claire-2?adjust_creative=QNZpjiWMh-xtTiixb79gYw&utm_campaign=yelp_api_v3&utm_medium=api_v3_business_search&utm_source=QNZpjiWMh-xtTiixb79gYw","8","Sandwiches","3.5","44.80189","-91.50828","$","409 Water St"
"x9LHy7Dia3Y442FMwDm7Ng","Burger King","FALSE","https://www.yelp.com/biz/burger-king-eau-claire-3?adjust_creative=QNZpjiWMh-xtTiixb79gYw&utm_campaign=yelp_api_v3&utm_medium=api_v3_business_search&utm_source=QNZpjiWMh-xtTiixb79gYw","2","Hot Dogs | Burgers","2.5","44.84442","-91.59292","","6124 Texaco Dr"
"xT4ZTBmj_vWANuWnfhjKsA","McDonald's","FALSE","https://www.yelp.com/biz/mcdonalds-eau-claire?adjust_creative=QNZpjiWMh-xtTiixb79gYw&utm_campaign=yelp_api_v3&utm_medium=api_v3_business_search&utm_source=QNZpjiWMh-xtTiixb79gYw","3","Fast Food | Burgers | Coffee & Tea","2.5","44.8426698173413","-91.5954663558023","$$","6251 Truax Ln"
"Z88qKRountAxUeuZDn93gQ","Mancino's Grinders & Pizza","FALSE","https://www.yelp.com/biz/mancinos-grinders-and-pizza-eau-claire-3?adjust_creative=QNZpjiWMh-xtTiixb79gYw&utm_campaign=yelp_api_v3&utm_medium=api_v3_business_search&utm_source=QNZpjiWMh-xtTiixb79gYw","20","Italian | Pizza | Sandwiches","4","44.79273","-91.51037","$","809 W Clairemont Ave"
"iqpyFnDS4SvJpBxLbU40uQ","El Patio","FALSE","https://www.yelp.com/biz/el-patio-eau-claire-3?adjust_creative=QNZpjiWMh-xtTiixb79gYw&utm_campaign=yelp_api_v3&utm_medium=api_v3_business_search&utm_source=QNZpjiWMh-xtTiixb79gYw","16","Mexican | Bars | Seafood","3","44.80244","-91.50812","$$","408 Water St"
"1gxiF5X2wtqYaSQx3QptPA","Dooleys Pub","FALSE","https://www.yelp.com/biz/dooleys-pub-eau-claire?adjust_creative=QNZpjiWMh-xtTiixb79gYw&utm_campaign=yelp_api_v3&utm_medium=api_v3_business_search&utm_source=QNZpjiWMh-xtTiixb79gYw","31","Pubs | Irish | Sandwiches","3","44.80247","-91.50954","$$","442 Water St"
"iNTkqcQnUhS-bey2l01F3Q","Dickey's Barbecue Pit","FALSE","https://www.yelp.com/biz/dickeys-barbecue-pit-eau-claire?adjust_creative=QNZpjiWMh-xtTiixb79gYw&utm_campaign=yelp_api_v3&utm_medium=api_v3_business_search&utm_source=QNZpjiWMh-xtTiixb79gYw","24","Barbeque | American (Traditional) | Southern","3","44.7924421322817","-91.4936631917953","$$","311 E Clairemont Ave"
"mAOGEwH_EAe5gsPYr79M6w","Toppers Pizza","FALSE","https://www.yelp.com/biz/toppers-pizza-eau-claire-2?adjust_creative=QNZpjiWMh-xtTiixb79gYw&utm_campaign=yelp_api_v3&utm_medium=api_v3_business_search&utm_source=QNZpjiWMh-xtTiixb79gYw","5","Pizza","4","44.8152712586123","-91.5411450552948","$$","1616 N Clairemont Ave"
"zK4rfbaM6d7IVpa4zAr6QA","Godfather's Pizza","FALSE","https://www.yelp.com/biz/godfathers-pizza-eau-claire?adjust_creative=QNZpjiWMh-xtTiixb79gYw&utm_campaign=yelp_api_v3&utm_medium=api_v3_business_search&utm_source=QNZpjiWMh-xtTiixb79gYw","5","Pizza","4.5","44.7924461364746","-91.52001953125","","2510 Mondovi Rd"
"hZMf-Lo__XvOsb0Gyuuyug","Subway","FALSE","https://www.yelp.com/biz/subway-eau-claire-3?adjust_creative=QNZpjiWMh-xtTiixb79gYw&utm_campaign=yelp_api_v3&utm_medium=api_v3_business_search&utm_source=QNZpjiWMh-xtTiixb79gYw","1","Fast Food | Sandwiches","3","44.84207","-91.59339","","6123 Truax Ln"
"2gDWTX6sdBqugYHAZFAk_A","420 Internet Cafe","FALSE","https://www.yelp.com/biz/420-internet-cafe-eau-claire?adjust_creative=QNZpjiWMh-xtTiixb79gYw&utm_campaign=yelp_api_v3&utm_medium=api_v3_business_search&utm_source=QNZpjiWMh-xtTiixb79gYw","1","Sandwiches | Coffee & Tea | Internet Cafes","5","44.80514","-91.49123","","420 Washington St"
"v9bceQFQzoTJ3mkRRxl2Ow","Jimmy John's","FALSE","https://www.yelp.com/biz/jimmy-johns-eau-claire-4?adjust_creative=QNZpjiWMh-xtTiixb79gYw&utm_campaign=yelp_api_v3&utm_medium=api_v3_business_search&utm_source=QNZpjiWMh-xtTiixb79gYw","2","Sandwiches | Fast Food | Delis","3.5","44.8324893414974","-91.5448370575905","","2504 Truax Blvd"
"JHvSi5IRvgdxx0PQU5cQoA","Burger King","FALSE","https://www.yelp.com/biz/burger-king-eau-claire-4?adjust_creative=QNZpjiWMh-xtTiixb79gYw&utm_campaign=yelp_api_v3&utm_medium=api_v3_business_search&utm_source=QNZpjiWMh-xtTiixb79gYw","1","Burgers","1","44.8282241821289","-91.5433883666992","","2833 N Clairemont Ave"
"J6YKEQ40g5aEeetcvdbixA","Chopsticks","FALSE","https://www.yelp.com/biz/chopsticks-chippewa-falls?adjust_creative=QNZpjiWMh-xtTiixb79gYw&utm_campaign=yelp_api_v3&utm_medium=api_v3_business_search&utm_source=QNZpjiWMh-xtTiixb79gYw","12","Thai | Chinese","4.5","44.888371685238","-91.4188513532281","$","3030 Commercial Blvd"
"Sm--YmP39siIenoWHHFrXw","Heckel's Family Restaurant","FALSE","https://www.yelp.com/biz/heckels-family-restaurant-chippewa-falls?adjust_creative=QNZpjiWMh-xtTiixb79gYw&utm_campaign=yelp_api_v3&utm_medium=api_v3_business_search&utm_source=QNZpjiWMh-xtTiixb79gYw","15","Diners","3.5","44.8809545","-91.4277382","$$","2621 State Hwy 53"
"Web1yPwESreoutuo6ZLyrg","Taqueria La Poblanita","FALSE","https://www.yelp.com/biz/taqueria-la-poblanita-eau-claire?adjust_creative=QNZpjiWMh-xtTiixb79gYw&utm_campaign=yelp_api_v3&utm_medium=api_v3_business_search&utm_source=QNZpjiWMh-xtTiixb79gYw","110","Mexican","4.5","44.7932544","-91.4633428","$","2436 London Rd"
"nRfDQNONk8Wuk7aMCH08TA","The French Press","FALSE","https://www.yelp.com/biz/the-french-press-eau-claire?adjust_creative=QNZpjiWMh-xtTiixb79gYw&utm_campaign=yelp_api_v3&utm_medium=api_v3_business_search&utm_source=QNZpjiWMh-xtTiixb79gYw","71","Breakfast & Brunch | Sandwiches | Coffee & Tea","4.5","44.7894999","-91.46312","$","2823 London Rd"
"FOm2_bDDRKLtKl5RMzo26g","Deb's Cafe","FALSE","https://www.yelp.com/biz/debs-cafe-chippewa-falls?adjust_creative=QNZpjiWMh-xtTiixb79gYw&utm_campaign=yelp_api_v3&utm_medium=api_v3_business_search&utm_source=QNZpjiWMh-xtTiixb79gYw","8","Salad | Pizza | Sandwiches","4","44.8585594","-91.4258094","$","1120 122nd St"
"R1WPtFORBvDL8OX_2HRsLA","Bijou Bistro","FALSE","https://www.yelp.com/biz/bijou-bistro-eau-claire?adjust_creative=QNZpjiWMh-xtTiixb79gYw&utm_campaign=yelp_api_v3&utm_medium=api_v3_business_search&utm_source=QNZpjiWMh-xtTiixb79gYw","15","American (New)","4.5","44.7946304","-91.4630268","$$$","2629 E Clairemont Ave"
"cUWFgjQQ9ME1YGLTx3bHGA","Cowboy Jack's Altoona","FALSE","https://www.yelp.com/biz/cowboy-jacks-altoona-altoona?adjust_creative=QNZpjiWMh-xtTiixb79gYw&utm_campaign=yelp_api_v3&utm_medium=api_v3_business_search&utm_source=QNZpjiWMh-xtTiixb79gYw","26","American (Traditional)","3","44.80829","-91.46585","$$","1432 Front Porch Pl"
"-qi32BONUleHcI6rSlT67g","Bug Eyed Betty's","FALSE","https://www.yelp.com/biz/bug-eyed-bettys-eau-claire-3?adjust_creative=QNZpjiWMh-xtTiixb79gYw&utm_campaign=yelp_api_v3&utm_medium=api_v3_business_search&utm_source=QNZpjiWMh-xtTiixb79gYw","74","American (New) | Burgers | Pizza","4","44.7988130308454","-91.4673307834661","$$","1920 S Hastings Way"
"MrVZKuJgaJirrxAChI5taw","Culver's","FALSE","https://www.yelp.com/biz/culvers-chippewa-falls-2?adjust_creative=QNZpjiWMh-xtTiixb79gYw&utm_campaign=yelp_api_v3&utm_medium=api_v3_business_search&utm_source=QNZpjiWMh-xtTiixb79gYw","3","Burgers | Fast Food | Ice Cream & Frozen Yogurt","4","44.88342","-91.41829","$","2753 Commercial Blvd"
"szoXXmWxcW-icvxHE3u4OA","Princeton Valley Golf Course And Grill","FALSE","https://www.yelp.com/biz/princeton-valley-golf-course-and-grill-eau-claire?adjust_creative=QNZpjiWMh-xtTiixb79gYw&utm_campaign=yelp_api_v3&utm_medium=api_v3_business_search&utm_source=QNZpjiWMh-xtTiixb79gYw","5","Golf | Bars | American (Traditional)","4.5","44.84085","-91.4521199","","2300 W Princeton Ave"
"vZtJ7FR6C8jPaAoJtafdhg","Milwaukee Burger Company","FALSE","https://www.yelp.com/biz/milwaukee-burger-company-eau-claire?adjust_creative=QNZpjiWMh-xtTiixb79gYw&utm_campaign=yelp_api_v3&utm_medium=api_v3_business_search&utm_source=QNZpjiWMh-xtTiixb79gYw","132","Burgers | Sports Bars | Chicken Wings","4","44.7952","-91.46404","$$","2620 E Clairemont Ave"
"vaefucV_BeVqDhaWtF88NQ","Fox Run Tavern","FALSE","https://www.yelp.com/biz/fox-run-tavern-eau-claire-2?adjust_creative=QNZpjiWMh-xtTiixb79gYw&utm_campaign=yelp_api_v3&utm_medium=api_v3_business_search&utm_source=QNZpjiWMh-xtTiixb79gYw","4","Bars | American (New)","4","44.8341352477764","-91.3979353705879","$$","1515 S 65th Ave"
"ohKFuznBb4_R3ENCc3IGcQ","Mom's Kitchen","FALSE","https://www.yelp.com/biz/moms-kitchen-eau-claire?adjust_creative=QNZpjiWMh-xtTiixb79gYw&utm_campaign=yelp_api_v3&utm_medium=api_v3_business_search&utm_source=QNZpjiWMh-xtTiixb79gYw","11","Coffee & Tea | Breakfast & Brunch","3.5","44.85147","-91.47002","","3035 N Hastings Way"
"V7zrfVFOBHhzlGReMnQAvw","Za 51","FALSE","https://www.yelp.com/biz/za-51-altoona?adjust_creative=QNZpjiWMh-xtTiixb79gYw&utm_campaign=yelp_api_v3&utm_medium=api_v3_business_search&utm_source=QNZpjiWMh-xtTiixb79gYw","20","Pizza | Bars","2.5","44.8187450000109","-91.4598600000477","","1476 Blazing Star Blvd"
"34Kt2YiTKemlpsXWgbWkeA","Taverna Grill","FALSE","https://www.yelp.com/biz/taverna-grill-eau-claire?adjust_creative=QNZpjiWMh-xtTiixb79gYw&utm_campaign=yelp_api_v3&utm_medium=api_v3_business_search&utm_source=QNZpjiWMh-xtTiixb79gYw","14","American (Traditional) | Italian","3.5","44.7895202636719","-91.4602508544922","$$","2839 Mall Dr"
"SepQjDCR4AqAnupzXwoQAQ","Altoona Family Restaurant","FALSE","https://www.yelp.com/biz/altoona-family-restaurant-altoona?adjust_creative=QNZpjiWMh-xtTiixb79gYw&utm_campaign=yelp_api_v3&utm_medium=api_v3_business_search&utm_source=QNZpjiWMh-xtTiixb79gYw","32","American (Traditional)","4","44.79617","-91.44152","$","2000 N Hillcrest Pkwy"
"26I5NRpmgQgNdqwnB1mVaA","Taco John's","FALSE","https://www.yelp.com/biz/taco-johns-chippewa-falls-2?adjust_creative=QNZpjiWMh-xtTiixb79gYw&utm_campaign=yelp_api_v3&utm_medium=api_v3_business_search&utm_source=QNZpjiWMh-xtTiixb79gYw","5","Mexican | Fast Food","4","44.8860283026414","-91.4193761779098","$","2982 Commercial Blvd"
"ZNVz1_gxR_PNyUJchHnhkw","McDonald's","FALSE","https://www.yelp.com/biz/mcdonalds-chippewa-falls?adjust_creative=QNZpjiWMh-xtTiixb79gYw&utm_campaign=yelp_api_v3&utm_medium=api_v3_business_search&utm_source=QNZpjiWMh-xtTiixb79gYw","3","Burgers | Fast Food | Coffee & Tea","2.5","44.8854057861778","-91.418394985244","","2971 Commercial Blvd"
"IroW7AYN52LAn13qbOlzHA","Subway","FALSE","https://www.yelp.com/biz/subway-chippewa-falls-3?adjust_creative=QNZpjiWMh-xtTiixb79gYw&utm_campaign=yelp_api_v3&utm_medium=api_v3_business_search&utm_source=QNZpjiWMh-xtTiixb79gYw","1","Sandwiches | Fast Food","1","44.88589","-91.41938","","2986 Commercial Blvd"
"MFfSO-zcnz7cHYTkRXSHSQ","Connell's Supper Club","FALSE","https://www.yelp.com/biz/connells-supper-club-chippewa-falls?adjust_creative=QNZpjiWMh-xtTiixb79gYw&utm_campaign=yelp_api_v3&utm_medium=api_v3_business_search&utm_source=QNZpjiWMh-xtTiixb79gYw","19","Supper Clubs | Bars","3.5","44.9155381270229","-91.2966081165676","$$","18525 50th Ave"
"TRmtCKTGDZ3YXIhnDYv9rA","Hallie Bar & Grill","FALSE","https://www.yelp.com/biz/hallie-bar-and-grill-chippewa-falls?adjust_creative=QNZpjiWMh-xtTiixb79gYw&utm_campaign=yelp_api_v3&utm_medium=api_v3_business_search&utm_source=QNZpjiWMh-xtTiixb79gYw","3","Restaurants","3.5","44.8679275512695","-91.4498977661133","$","1713 County Highway Oo"
"OXZ9SEka80dADgIhwKR8Eg","Hangar 54 Grill","FALSE","https://www.yelp.com/biz/hangar-54-grill-eau-claire-2?adjust_creative=QNZpjiWMh-xtTiixb79gYw&utm_campaign=yelp_api_v3&utm_medium=api_v3_business_search&utm_source=QNZpjiWMh-xtTiixb79gYw","30","Breakfast & Brunch | American (Traditional) | Bars","4","44.8636967041083","-91.481367610395","$$","3800 Starr Ave"
"KcSzytumJvdrhmF66zSPYA","Pizza Hut","FALSE","https://www.yelp.com/biz/pizza-hut-eau-claire-2?adjust_creative=QNZpjiWMh-xtTiixb79gYw&utm_campaign=yelp_api_v3&utm_medium=api_v3_business_search&utm_source=QNZpjiWMh-xtTiixb79gYw","2","Pizza | Italian | Chicken Wings","4.5","44.85044","-91.47723","$$","2225 Eddy Ln"
"mQqMt_pOn86kLiZDrdvRlg","Subway","FALSE","https://www.yelp.com/biz/subway-eau-claire-2?adjust_creative=QNZpjiWMh-xtTiixb79gYw&utm_campaign=yelp_api_v3&utm_medium=api_v3_business_search&utm_source=QNZpjiWMh-xtTiixb79gYw","4","Sandwiches | Fast Food","3","44.8504409790039","-91.4752578735352","","2413 Eddy Ln"
"-zRfonrAqF2CRg6JKSjdYg","River Country Plaza-Farmer's Kitchen","FALSE","https://www.yelp.com/biz/river-country-plaza-farmers-kitchen-cadott?adjust_creative=QNZpjiWMh-xtTiixb79gYw&utm_campaign=yelp_api_v3&utm_medium=api_v3_business_search&utm_source=QNZpjiWMh-xtTiixb79gYw","11","American (New)","3.5","44.935676574707","-91.1485900878906","$","641 S Hwy 27"
"gtyUUQ5sB2bveLywjjL_WQ","Kathy's Diner","FALSE","https://www.yelp.com/biz/kathys-diner-cadott?adjust_creative=QNZpjiWMh-xtTiixb79gYw&utm_campaign=yelp_api_v3&utm_medium=api_v3_business_search&utm_source=QNZpjiWMh-xtTiixb79gYw","6","Diners","5","44.9520111083984","-91.1471099853516","$$","304 E Mills St"
"KIgBXr-iFjaRbfHmYioLMQ","Famers Kitchen Family Restaurant","FALSE","https://www.yelp.com/biz/famers-kitchen-family-restaurant-cadott?adjust_creative=QNZpjiWMh-xtTiixb79gYw&utm_campaign=yelp_api_v3&utm_medium=api_v3_business_search&utm_source=QNZpjiWMh-xtTiixb79gYw","1","Diners | American (Traditional)","2","44.9363140901805","-91.1473084796668","","641 Wisconsin 27"
"rS9V5PvT3IPycGH-3TMWSA","J & J's Sports Bar and Grill","FALSE","https://www.yelp.com/biz/j-and-js-sports-bar-and-grill-cadott?adjust_creative=QNZpjiWMh-xtTiixb79gYw&utm_campaign=yelp_api_v3&utm_medium=api_v3_business_search&utm_source=QNZpjiWMh-xtTiixb79gYw","1","Sports Bars | Burgers","1","44.9448","-91.13531","","26566 Co Hwy X"
"L6fky_jbMk6HIrDqSViRng","Harpole's Supper Club","FALSE","https://www.yelp.com/biz/harpoles-supper-club-chippewa-falls?adjust_creative=QNZpjiWMh-xtTiixb79gYw&utm_campaign=yelp_api_v3&utm_medium=api_v3_business_search&utm_source=QNZpjiWMh-xtTiixb79gYw","1","Restaurants","4","44.9291","-91.2709","","19845 County Highway X"
"tzS3fAs4NGPCqy_NVG2TUg","Kutzee's Supper Club","FALSE","https://www.yelp.com/biz/kutzees-supper-club-stanley?adjust_creative=QNZpjiWMh-xtTiixb79gYw&utm_campaign=yelp_api_v3&utm_medium=api_v3_business_search&utm_source=QNZpjiWMh-xtTiixb79gYw","2","American (New)","5","44.9440193","-90.9831314","","34027 County Hwy X"
"1j0iupP1x7AKAx_5KvWPfw","Hill House Pub & Grill","FALSE","https://www.yelp.com/biz/hill-house-pub-and-grill-boyd?adjust_creative=QNZpjiWMh-xtTiixb79gYw&utm_campaign=yelp_api_v3&utm_medium=api_v3_business_search&utm_source=QNZpjiWMh-xtTiixb79gYw","1","Pubs | American (Traditional)","4","44.9448394775391","-91.0340347290039","$","910 County Hwy X"
"Sae6kScoxBuoIrzCzsGHnA","The Rose Den Cafe","FALSE","https://www.yelp.com/biz/the-rose-den-cafe-stanley?adjust_creative=QNZpjiWMh-xtTiixb79gYw&utm_campaign=yelp_api_v3&utm_medium=api_v3_business_search&utm_source=QNZpjiWMh-xtTiixb79gYw","2","Breakfast & Brunch","5","44.9600191656127","-90.9356123798213","","143 E 1st Ave"
"yoOCp133jfuOTniw9DPsYg","Bob's Riverview Restaurant","FALSE","https://www.yelp.com/biz/bobs-riverview-restaurant-boyd?adjust_creative=QNZpjiWMh-xtTiixb79gYw&utm_campaign=yelp_api_v3&utm_medium=api_v3_business_search&utm_source=QNZpjiWMh-xtTiixb79gYw","2","American (Traditional)","3","45.0145302","-91.0447311","","11951 County Hwy D"
"jHI9uR-6kE5SRepqlh_4AQ","A & W Restaurant","FALSE","https://www.yelp.com/biz/a-and-w-restaurant-stanley?adjust_creative=QNZpjiWMh-xtTiixb79gYw&utm_campaign=yelp_api_v3&utm_medium=api_v3_business_search&utm_source=QNZpjiWMh-xtTiixb79gYw","3","Burgers | Fast Food","3.5","44.9550858","-90.9367523","$","175 Pine St"
"6LSgr4pqPR1pYzJ5Bh43SQ","Panda Garden","FALSE","https://www.yelp.com/biz/panda-garden-stanley?adjust_creative=QNZpjiWMh-xtTiixb79gYw&utm_campaign=yelp_api_v3&utm_medium=api_v3_business_search&utm_source=QNZpjiWMh-xtTiixb79gYw","1","Chinese","3","44.949591","-90.937065","","617 S Broadway St"
"Zho6kRBxESXpjYXnsxPavQ","McDonald's","FALSE","https://www.yelp.com/biz/mcdonalds-stanley?adjust_creative=QNZpjiWMh-xtTiixb79gYw&utm_campaign=yelp_api_v3&utm_medium=api_v3_business_search&utm_source=QNZpjiWMh-xtTiixb79gYw","4","Fast Food | Burgers | Coffee & Tea","1","44.949718","-90.93849","$$","604 S Broadway"
