"ID","Name","Is_Closed","URL","Review_Count","Categories","Rating","Latitude","Longitude","Price","Address"
"epQ5Zk8OM9TV73T7-PYl_g","Boat House Pub & Eatery","FALSE","https://www.yelp.com/biz/boat-house-pub-and-eatery-fox-lake?adjust_creative=QNZpjiWMh-xtTiixb79gYw&utm_campaign=yelp_api_v3&utm_medium=api_v3_business_search&utm_source=QNZpjiWMh-xtTiixb79gYw","26","Pizza | Pubs | American (Traditional)","3.5","43.57822","-88.92937","$","N10575 Chief Kuno Trl"
"YhL9K_F4pZWcgmnQHwQL_A","The Shores","FALSE","https://www.yelp.com/biz/the-shores-fox-lake?adjust_creative=QNZpjiWMh-xtTiixb79gYw&utm_campaign=yelp_api_v3&utm_medium=api_v3_business_search&utm_source=QNZpjiWMh-xtTiixb79gYw","10","Steakhouses","2.5","43.57839","-88.92665","$$","N10604 Chief Kuno Trl"
"a709689PU5zCADyblYdKFg","Prime Steakhouse","FALSE","https://www.yelp.com/biz/prime-steakhouse-fox-lake?adjust_creative=QNZpjiWMh-xtTiixb79gYw&utm_campaign=yelp_api_v3&utm_medium=api_v3_business_search&utm_source=QNZpjiWMh-xtTiixb79gYw","1","Steakhouses","3","43.57839","-88.92665","","The Shores Of Fox Lake"
"kWXSHiND6cxwBoh4OkixEA","Schaumburg Dinner Club","FALSE","https://www.yelp.com/biz/schaumburg-dinner-club-randolph?adjust_creative=QNZpjiWMh-xtTiixb79gYw&utm_campaign=yelp_api_v3&utm_medium=api_v3_business_search&utm_source=QNZpjiWMh-xtTiixb79gYw","17","American (Traditional)","3.5","43.62915","-88.9616099","$$","N11935 County Rd A"
"ersd7YHegQbVXiLqhJbW3A","Denise's Cafe","FALSE","https://www.yelp.com/biz/denises-cafe-randolph?adjust_creative=QNZpjiWMh-xtTiixb79gYw&utm_campaign=yelp_api_v3&utm_medium=api_v3_business_search&utm_source=QNZpjiWMh-xtTiixb79gYw","6","Breakfast & Brunch","4.5","43.5382766723633","-89.0054550170898","$","163 Stark St"
"Y8n8nkuqQ_8OmCUzD5arWQ","The Wharf","FALSE","https://www.yelp.com/biz/the-wharf-fox-lake?adjust_creative=QNZpjiWMh-xtTiixb79gYw&utm_campaign=yelp_api_v3&utm_medium=api_v3_business_search&utm_source=QNZpjiWMh-xtTiixb79gYw","7","Seafood","2.5","43.56631","-88.90899","$","221 W State St"
"41JAjrkyMHhV9S97RSnzVA","Feil's Supper Club","FALSE","https://www.yelp.com/biz/feils-supper-club-randolph?adjust_creative=QNZpjiWMh-xtTiixb79gYw&utm_campaign=yelp_api_v3&utm_medium=api_v3_business_search&utm_source=QNZpjiWMh-xtTiixb79gYw","38","German | American (Traditional)","4","43.51098","-89.00079","$$","N8743 State Rd 73"
"wciAXgtpq28NWKRnLGMPoA","Mullin's Drive In","FALSE","https://www.yelp.com/biz/mullins-drive-in-fox-lake?adjust_creative=QNZpjiWMh-xtTiixb79gYw&utm_campaign=yelp_api_v3&utm_medium=api_v3_business_search&utm_source=QNZpjiWMh-xtTiixb79gYw","15","Burgers","4","43.5656051635742","-88.9062042236328","$","102 Spring St"
"5wW39Y_lGtqFBceXpnhSVg","Quit N Time","FALSE","https://www.yelp.com/biz/quit-n-time-fox-lake?adjust_creative=QNZpjiWMh-xtTiixb79gYw&utm_campaign=yelp_api_v3&utm_medium=api_v3_business_search&utm_source=QNZpjiWMh-xtTiixb79gYw","1","Bars | American (Traditional)","5","43.566192","-88.910179","","317 W State St"
"dqxYSwdQX-DMOaXMq6Pq9w","State Street Pizza","FALSE","https://www.yelp.com/biz/state-street-pizza-fox-lake?adjust_creative=QNZpjiWMh-xtTiixb79gYw&utm_campaign=yelp_api_v3&utm_medium=api_v3_business_search&utm_source=QNZpjiWMh-xtTiixb79gYw","4","Pizza","5","43.56618","-88.91031","","319 W State St"
"XdzgVm3ob5WJ66jmRUcEvw","Chalet of Fox Lake","FALSE","https://www.yelp.com/biz/chalet-of-fox-lake-fox-lake?adjust_creative=QNZpjiWMh-xtTiixb79gYw&utm_campaign=yelp_api_v3&utm_medium=api_v3_business_search&utm_source=QNZpjiWMh-xtTiixb79gYw","7","Restaurants","2.5","43.5666455","-88.9215783","$","814 W State St"
"dc-QGzpF-W0SmBHNNGGwYw","Fox Lake Golf Club","FALSE","https://www.yelp.com/biz/fox-lake-golf-club-fox-lake?adjust_creative=QNZpjiWMh-xtTiixb79gYw&utm_campaign=yelp_api_v3&utm_medium=api_v3_business_search&utm_source=QNZpjiWMh-xtTiixb79gYw","3","Restaurants | Golf","3","43.57488","-88.9080199","$$","N10500 Indian Point Rd"
"s8FytzcihllbDp8qWCJ1xg","Kraft's Hot Corner","FALSE","https://www.yelp.com/biz/krafts-hot-corner-randolph?adjust_creative=QNZpjiWMh-xtTiixb79gYw&utm_campaign=yelp_api_v3&utm_medium=api_v3_business_search&utm_source=QNZpjiWMh-xtTiixb79gYw","2","Hot Dogs | Pizza","4.5","43.541908","-89.006714","","302 N High St"
"YaS1EE-qiT_KxVjxiKWMyQ","Subway","FALSE","https://www.yelp.com/biz/subway-randolph-3?adjust_creative=QNZpjiWMh-xtTiixb79gYw&utm_campaign=yelp_api_v3&utm_medium=api_v3_business_search&utm_source=QNZpjiWMh-xtTiixb79gYw","3","Sandwiches | Fast Food","3","43.53081","-89.0057999","$","154 Kienow Dr"
"B4vpUy6s_xx7Ey3zNsswTQ","Helen's Kitchen","FALSE","https://www.yelp.com/biz/helens-kitchen-waupun?adjust_creative=QNZpjiWMh-xtTiixb79gYw&utm_campaign=yelp_api_v3&utm_medium=api_v3_business_search&utm_source=QNZpjiWMh-xtTiixb79gYw","19","Diners | Cafes","3.5","43.6332249","-88.7616349","$","1116 W Main St"
"J5izUTU69C6RmeE_5UP9Jw","Brittain House Supper Club","FALSE","https://www.yelp.com/biz/brittain-house-supper-club-waupun?adjust_creative=QNZpjiWMh-xtTiixb79gYw&utm_campaign=yelp_api_v3&utm_medium=api_v3_business_search&utm_source=QNZpjiWMh-xtTiixb79gYw","8","American (Traditional)","4.5","43.6225300133431","-88.7243001535535","$$","735 S Watertown St"
"6wwbPHZBK3MrUaJDTHE5hg","The Other Bar","FALSE","https://www.yelp.com/biz/the-other-bar-waupun?adjust_creative=QNZpjiWMh-xtTiixb79gYw&utm_campaign=yelp_api_v3&utm_medium=api_v3_business_search&utm_source=QNZpjiWMh-xtTiixb79gYw","5","Bars | American (Traditional) | Sandwiches","4.5","43.6329574584961","-88.7331771850586","$","105 E Main St"
"Dedpl-qY0uCwIakg1-O6Tw","Golden Cup Cafe","FALSE","https://www.yelp.com/biz/golden-cup-cafe-waupun?adjust_creative=QNZpjiWMh-xtTiixb79gYw&utm_campaign=yelp_api_v3&utm_medium=api_v3_business_search&utm_source=QNZpjiWMh-xtTiixb79gYw","4","Coffee & Tea | Breakfast & Brunch | Sandwiches","2.5","43.63338","-88.72959","","400 E Main St"
"u5YVexQogL_XX7Q4wrDPQw","Cantafio's Buckhorn Steakhouse","FALSE","https://www.yelp.com/biz/cantafios-buckhorn-steakhouse-beaver-dam-2?adjust_creative=QNZpjiWMh-xtTiixb79gYw&utm_campaign=yelp_api_v3&utm_medium=api_v3_business_search&utm_source=QNZpjiWMh-xtTiixb79gYw","13","Steakhouses | Desserts | Seafood","3","43.51371","-88.81013","$$","N8802 County Rd A"
"BF7KwRuEYI3D8b5EoHluSQ","Tony's Pizza","FALSE","https://www.yelp.com/biz/tonys-pizza-waupun?adjust_creative=QNZpjiWMh-xtTiixb79gYw&utm_campaign=yelp_api_v3&utm_medium=api_v3_business_search&utm_source=QNZpjiWMh-xtTiixb79gYw","9","Pizza","4.5","43.6410484313965","-88.7207183837891","$$","420 Fond Du Lac St"
"HKf2HmW5mFiODbXr7Mt2VA","Don Ramon Mexican Restaurant","FALSE","https://www.yelp.com/biz/don-ramon-mexican-restaurant-waupun?adjust_creative=QNZpjiWMh-xtTiixb79gYw&utm_campaign=yelp_api_v3&utm_medium=api_v3_business_search&utm_source=QNZpjiWMh-xtTiixb79gYw","12","Mexican","3.5","43.63291","-88.72947","$","405 E Main St"
"4GXSsRk1ausq4oHqsRDkPg","Chang Jiang","FALSE","https://www.yelp.com/biz/chang-jiang-waupun?adjust_creative=QNZpjiWMh-xtTiixb79gYw&utm_campaign=yelp_api_v3&utm_medium=api_v3_business_search&utm_source=QNZpjiWMh-xtTiixb79gYw","5","Chinese","4","43.6332249","-88.7618232","$","1118 W Main St"
"4fokSVyZKDIZjUStmIfNeQ","From Scratch Kitchen And Bakery","FALSE","https://www.yelp.com/biz/from-scratch-kitchen-and-bakery-waupun?adjust_creative=QNZpjiWMh-xtTiixb79gYw&utm_campaign=yelp_api_v3&utm_medium=api_v3_business_search&utm_source=QNZpjiWMh-xtTiixb79gYw","1","Barbeque | Bakeries | Fish & Chips","3","43.63277","-88.75083","","815 W Main St"
"GVkZ_EElIHtrWta2rlyNJw","Pizza Ranch","FALSE","https://www.yelp.com/biz/pizza-ranch-waupun?adjust_creative=QNZpjiWMh-xtTiixb79gYw&utm_campaign=yelp_api_v3&utm_medium=api_v3_business_search&utm_source=QNZpjiWMh-xtTiixb79gYw","7","Pizza","3.5","43.63358","-88.7519","$","900 W Main St"
"AhXVHtQktCIQxoro-EM2ow","El Guacamole","FALSE","https://www.yelp.com/biz/el-guacamole-beaver-dam?adjust_creative=QNZpjiWMh-xtTiixb79gYw&utm_campaign=yelp_api_v3&utm_medium=api_v3_business_search&utm_source=QNZpjiWMh-xtTiixb79gYw","2","Mexican","4.5","43.4775832556213","-88.8202047527913","$","114 E Industrial Dr"
"VxCsvVU1K_XFkuEBslW3bQ","Culver's","FALSE","https://www.yelp.com/biz/culvers-waupun?adjust_creative=QNZpjiWMh-xtTiixb79gYw&utm_campaign=yelp_api_v3&utm_medium=api_v3_business_search&utm_source=QNZpjiWMh-xtTiixb79gYw","6","Fast Food | Burgers","3.5","43.63511","-88.71775","$","900 Kelly Ave"
"OBkXDji8PNPBT3MMoya36w","Chang Jiang Buffet","FALSE","https://www.yelp.com/biz/chang-jiang-buffet-beaver-dam?adjust_creative=QNZpjiWMh-xtTiixb79gYw&utm_campaign=yelp_api_v3&utm_medium=api_v3_business_search&utm_source=QNZpjiWMh-xtTiixb79gYw","6","Chinese | Buffets","3","43.48705","-88.81187","$","106 Frances Ln"
"_xQ40nvOhlhZaKdcWt-JDA","A & W Restaurant","FALSE","https://www.yelp.com/biz/a-and-w-restaurant-waupun?adjust_creative=QNZpjiWMh-xtTiixb79gYw&utm_campaign=yelp_api_v3&utm_medium=api_v3_business_search&utm_source=QNZpjiWMh-xtTiixb79gYw","6","Burgers | Fast Food | Chicken Wings","4","43.63296","-88.74732","$","715 W Main St"
"YJ56nK5npTaCqSKlOYXv3A","Applebee's Grill + Bar","FALSE","https://www.yelp.com/biz/applebees-grill-bar-beaver-dam?adjust_creative=QNZpjiWMh-xtTiixb79gYw&utm_campaign=yelp_api_v3&utm_medium=api_v3_business_search&utm_source=QNZpjiWMh-xtTiixb79gYw","22","American (Traditional) | Sports Bars | Burgers","2","43.477156","-88.821761","$$","115 E Industrial Dr"
"HLteB5f6Y-1owm45wmyJoQ","Taco Bell","FALSE","https://www.yelp.com/biz/taco-bell-waupun?adjust_creative=QNZpjiWMh-xtTiixb79gYw&utm_campaign=yelp_api_v3&utm_medium=api_v3_business_search&utm_source=QNZpjiWMh-xtTiixb79gYw","3","Tex-Mex | Fast Food | Mexican","5","43.63243","-88.71723","","114 Shaler"
"oE4oh_vFYcTE3wR0DMZ42w","McDonald's","FALSE","https://www.yelp.com/biz/mcdonalds-waupun-3?adjust_creative=QNZpjiWMh-xtTiixb79gYw&utm_campaign=yelp_api_v3&utm_medium=api_v3_business_search&utm_source=QNZpjiWMh-xtTiixb79gYw","12","Burgers | Coffee & Tea | Fast Food","2.5","43.6336233510494","-88.7176117300987","$","932 E Main St"
"IuNaYB7emS96pwOmsoil3Q","Ponderosa Steak House","FALSE","https://www.yelp.com/biz/ponderosa-steak-house-beaver-dam?adjust_creative=QNZpjiWMh-xtTiixb79gYw&utm_campaign=yelp_api_v3&utm_medium=api_v3_business_search&utm_source=QNZpjiWMh-xtTiixb79gYw","12","Steakhouses","2","43.4723701","-88.8270111","$","1520 N Spring St"
"NCjjtmmUN8OanOsD_qoh6w","Culver's - Beaver Dam","FALSE","https://www.yelp.com/biz/culvers-beaver-dam-beaver-dam?adjust_creative=QNZpjiWMh-xtTiixb79gYw&utm_campaign=yelp_api_v3&utm_medium=api_v3_business_search&utm_source=QNZpjiWMh-xtTiixb79gYw","9","Ice Cream & Frozen Yogurt | Fast Food | Burgers","4","43.47273","-88.82541","$$","1601 N Spring St"
"azM4281i40ZQTnqm8vULgQ","Domino's Pizza","FALSE","https://www.yelp.com/biz/dominos-pizza-waupun?adjust_creative=QNZpjiWMh-xtTiixb79gYw&utm_campaign=yelp_api_v3&utm_medium=api_v3_business_search&utm_source=QNZpjiWMh-xtTiixb79gYw","4","Pizza | Chicken Wings | Sandwiches","3","43.6334066323562","-88.7282714205764","$$","106 Shaler Dr"
"T7oOsM_MK7GQKgxK8uUYMw","Papa Murphy's","FALSE","https://www.yelp.com/biz/papa-murphys-beaver-dam?adjust_creative=QNZpjiWMh-xtTiixb79gYw&utm_campaign=yelp_api_v3&utm_medium=api_v3_business_search&utm_source=QNZpjiWMh-xtTiixb79gYw","4","Pizza","3","43.48705","-88.81187","$","106 Frances Lane"
"xKirpbXxqRwrNosHoKRk5Q","Wendy's","FALSE","https://www.yelp.com/biz/wendys-beaver-dam-2?adjust_creative=QNZpjiWMh-xtTiixb79gYw&utm_campaign=yelp_api_v3&utm_medium=api_v3_business_search&utm_source=QNZpjiWMh-xtTiixb79gYw","1","Fast Food | Burgers","3","43.48725","-88.80999","","102 Frances Ln"
"VSRh3mO3Q8yG3SIv6ChxDg","Arby's","FALSE","https://www.yelp.com/biz/arbys-beaver-dam-3?adjust_creative=QNZpjiWMh-xtTiixb79gYw&utm_campaign=yelp_api_v3&utm_medium=api_v3_business_search&utm_source=QNZpjiWMh-xtTiixb79gYw","1","Fast Food | Sandwiches","3","43.4883499","-88.80707","","121 Frances Ln"
"ssslLZ_LeWmKrS82c2mLeA","Taco Bell","FALSE","https://www.yelp.com/biz/taco-bell-beaver-dam-2?adjust_creative=QNZpjiWMh-xtTiixb79gYw&utm_campaign=yelp_api_v3&utm_medium=api_v3_business_search&utm_source=QNZpjiWMh-xtTiixb79gYw","2","Mexican | Tex-Mex | Fast Food","4.5","43.48319","-88.818937","$","1739 North Spring Street"
"0esWOFoDXPl-vrJ0GegoGQ","Pizza Hut","FALSE","https://www.yelp.com/biz/pizza-hut-beaver-dam?adjust_creative=QNZpjiWMh-xtTiixb79gYw&utm_campaign=yelp_api_v3&utm_medium=api_v3_business_search&utm_source=QNZpjiWMh-xtTiixb79gYw","4","Pizza | Italian | Chicken Wings","2.5","43.4802132","-88.8209839","$$","1742 N Spring St"
"f_acg25jxSLyatjySGoTPg","KFC","FALSE","https://www.yelp.com/biz/kfc-beaver-dam-2?adjust_creative=QNZpjiWMh-xtTiixb79gYw&utm_campaign=yelp_api_v3&utm_medium=api_v3_business_search&utm_source=QNZpjiWMh-xtTiixb79gYw","4","Fast Food | Chicken Wings | Chicken Shop","2","43.477","-88.8186","","203 Industrial Dr E"
"ngIezZKlzhGrgZ5eWWE50w","McDonald's","FALSE","https://www.yelp.com/biz/mcdonalds-beaver-dam-3?adjust_creative=QNZpjiWMh-xtTiixb79gYw&utm_campaign=yelp_api_v3&utm_medium=api_v3_business_search&utm_source=QNZpjiWMh-xtTiixb79gYw","5","Fast Food | Burgers | Coffee & Tea","1.5","43.4756842064425","-88.823411981582","$","1639 N Spring St"
"YJezj93l6SJXqqSkNV__dA","John's","FALSE","https://www.yelp.com/biz/johns-beaver-dam?adjust_creative=QNZpjiWMh-xtTiixb79gYw&utm_campaign=yelp_api_v3&utm_medium=api_v3_business_search&utm_source=QNZpjiWMh-xtTiixb79gYw","3","Restaurants","4","43.44081","-88.85657","$$","1201 Madison St"
"2vPo1CbviOJUqD3Z91GrWA","Kelly's Bar","FALSE","https://www.yelp.com/biz/kellys-bar-randolph?adjust_creative=QNZpjiWMh-xtTiixb79gYw&utm_campaign=yelp_api_v3&utm_medium=api_v3_business_search&utm_source=QNZpjiWMh-xtTiixb79gYw","1","Restaurants | Beer, Wine & Spirits","3","43.459686","-88.989921","","W11794 Concord Rd"
"4Z-0BSZN-8TCBsDOcNhKdw","Statz Ale House & Grill","FALSE","https://www.yelp.com/biz/statz-ale-house-and-grill-beaver-dam-2?adjust_creative=QNZpjiWMh-xtTiixb79gYw&utm_campaign=yelp_api_v3&utm_medium=api_v3_business_search&utm_source=QNZpjiWMh-xtTiixb79gYw","8","Sports Bars | American (Traditional)","4.5","43.44735","-88.8487","$","825 Madison St"
"KTUuMs-5WhiNU0eDba6u9A","Old Hickory Dining","FALSE","https://www.yelp.com/biz/old-hickory-dining-beaver-dam-2?adjust_creative=QNZpjiWMh-xtTiixb79gYw&utm_campaign=yelp_api_v3&utm_medium=api_v3_business_search&utm_source=QNZpjiWMh-xtTiixb79gYw","1","American (Traditional) | Seafood","5","43.451381","-88.775863","$$","W7596 State Rd 33"
"F7t776QAeo4tjQOIld91Jw","Chili John's Cafe","FALSE","https://www.yelp.com/biz/chili-johns-cafe-beaver-dam?adjust_creative=QNZpjiWMh-xtTiixb79gYw&utm_campaign=yelp_api_v3&utm_medium=api_v3_business_search&utm_source=QNZpjiWMh-xtTiixb79gYw","22","Cafes","4.5","43.4560204","-88.8404388","$","223 Front St"
"KD9kLMomWnf8M8wnaRT80A","Char House Pub & Grill","FALSE","https://www.yelp.com/biz/char-house-pub-and-grill-beaver-dam?adjust_creative=QNZpjiWMh-xtTiixb79gYw&utm_campaign=yelp_api_v3&utm_medium=api_v3_business_search&utm_source=QNZpjiWMh-xtTiixb79gYw","44","Pubs | American (Traditional)","4","43.452880859375","-88.8396377563477","$$","400 S Center St"
"jXftETTbTce-ErQYVIdpQg","Palenque Mexican Bar & Grill","FALSE","https://www.yelp.com/biz/palenque-mexican-bar-and-grill-beaver-dam?adjust_creative=QNZpjiWMh-xtTiixb79gYw&utm_campaign=yelp_api_v3&utm_medium=api_v3_business_search&utm_source=QNZpjiWMh-xtTiixb79gYw","40","Mexican | Bars","4.5","43.4546341054133","-88.8371395729061","$$","210 S Spring St"
"Kv129K-YU2qV0_sLXs8cmg","Sake House","FALSE","https://www.yelp.com/biz/sake-house-beaver-dam?adjust_creative=QNZpjiWMh-xtTiixb79gYw&utm_campaign=yelp_api_v3&utm_medium=api_v3_business_search&utm_source=QNZpjiWMh-xtTiixb79gYw","58","Sushi Bars | Japanese | Steakhouses","4.5","43.4583223195248","-88.8173725494865","$$","820 Park Ave"
"8-rUkQHwkV7-WbZ7I_frfg","Benvenuto's Italian Grill","FALSE","https://www.yelp.com/biz/benvenutos-italian-grill-beaver-dam?adjust_creative=QNZpjiWMh-xtTiixb79gYw&utm_campaign=yelp_api_v3&utm_medium=api_v3_business_search&utm_source=QNZpjiWMh-xtTiixb79gYw","46","Italian","3.5","43.455072","-88.8169829","$$","831 Park Ave"
"7uh1Ji6Z0RRxkee5-HrROQ","Sunview Restaurant","FALSE","https://www.yelp.com/biz/sunview-restaurant-beaver-dam?adjust_creative=QNZpjiWMh-xtTiixb79gYw&utm_campaign=yelp_api_v3&utm_medium=api_v3_business_search&utm_source=QNZpjiWMh-xtTiixb79gYw","25","American (New)","3.5","43.4554901","-88.8170395","$","827 Park Ave"
"xT2n3YAjV6AbScLzUjWf3Q","Park Avenue Sports Cafe","FALSE","https://www.yelp.com/biz/park-avenue-sports-cafe-beaver-dam-2?adjust_creative=QNZpjiWMh-xtTiixb79gYw&utm_campaign=yelp_api_v3&utm_medium=api_v3_business_search&utm_source=QNZpjiWMh-xtTiixb79gYw","40","Sports Bars | Cafes","3","43.45592","-88.82061","$$","709 Park Ave"
"Tzi3sZ0uhe1-A0JsjtFwqg","The Barrel House Saloon & Eatery","FALSE","https://www.yelp.com/biz/the-barrel-house-saloon-and-eatery-juneau?adjust_creative=QNZpjiWMh-xtTiixb79gYw&utm_campaign=yelp_api_v3&utm_medium=api_v3_business_search&utm_source=QNZpjiWMh-xtTiixb79gYw","11","Bars | Steakhouses | Burgers","4","43.406599","-88.703555","","124 E Oak St"
"oBdWnLOxLiMTU1R2ouQ1GA","Village Garden Restaurant","FALSE","https://www.yelp.com/biz/village-garden-restaurant-juneau?adjust_creative=QNZpjiWMh-xtTiixb79gYw&utm_campaign=yelp_api_v3&utm_medium=api_v3_business_search&utm_source=QNZpjiWMh-xtTiixb79gYw","6","American (Traditional)","3.5","43.405489102006","-88.7078297138214","$$","225 W Oak Grove St"
"z-Ydfda8JQ-703cyqNFmjA","La Tapatia","FALSE","https://www.yelp.com/biz/la-tapatia-beaver-dam?adjust_creative=QNZpjiWMh-xtTiixb79gYw&utm_campaign=yelp_api_v3&utm_medium=api_v3_business_search&utm_source=QNZpjiWMh-xtTiixb79gYw","38","Mexican","4","43.4664","-88.83057","$$","1105 N Spring St"
"e2opejOMmsZ2vjB9pd2Bcg","Voelker's Steak House","FALSE","https://www.yelp.com/biz/voelkers-steak-house-beaver-dam?adjust_creative=QNZpjiWMh-xtTiixb79gYw&utm_campaign=yelp_api_v3&utm_medium=api_v3_business_search&utm_source=QNZpjiWMh-xtTiixb79gYw","11","Steakhouses","3","43.4509239196777","-88.8290023803711","$$","415 E South St"
"QbP8Pasrr3mmGEK2WYvy9Q","Rolling Stone","FALSE","https://www.yelp.com/biz/rolling-stone-juneau?adjust_creative=QNZpjiWMh-xtTiixb79gYw&utm_campaign=yelp_api_v3&utm_medium=api_v3_business_search&utm_source=QNZpjiWMh-xtTiixb79gYw","8","Pizza","4.5","43.4072341918945","-88.7026062011719","$","153 E Oak St"
"mfCEJevsAO7vGDMD5wIefQ","Bayside Supper Club","FALSE","https://www.yelp.com/biz/bayside-supper-club-beaver-dam?adjust_creative=QNZpjiWMh-xtTiixb79gYw&utm_campaign=yelp_api_v3&utm_medium=api_v3_business_search&utm_source=QNZpjiWMh-xtTiixb79gYw","6","American (New) | Seafood","3.5","43.4433289","-88.860733","$$","W9231 County Rd G"
"CmC1o8hsN0537u9xnQAfQw","Park Plaza Pizza","FALSE","https://www.yelp.com/biz/park-plaza-pizza-beaver-dam?adjust_creative=QNZpjiWMh-xtTiixb79gYw&utm_campaign=yelp_api_v3&utm_medium=api_v3_business_search&utm_source=QNZpjiWMh-xtTiixb79gYw","21","Pizza | Desserts | Sandwiches","4","43.455978","-88.8409086","$","233 Front St"
"SbonfRSInSjWiiPLog233A","Lupita's Market","FALSE","https://www.yelp.com/biz/lupitas-market-beaver-dam?adjust_creative=QNZpjiWMh-xtTiixb79gYw&utm_campaign=yelp_api_v3&utm_medium=api_v3_business_search&utm_source=QNZpjiWMh-xtTiixb79gYw","8","Grocery | Restaurants","4","43.4717550873756","-88.8395684212446","$","1307 N Center St"
"MrudNodys_V-3P6esmnSvg","Annabelle's Ice Cream Parlor","FALSE","https://www.yelp.com/biz/annabelles-ice-cream-parlor-beaver-dam-2?adjust_creative=QNZpjiWMh-xtTiixb79gYw&utm_campaign=yelp_api_v3&utm_medium=api_v3_business_search&utm_source=QNZpjiWMh-xtTiixb79gYw","5","Hot Dogs | Greek | Ice Cream & Frozen Yogurt","5","43.4560279846191","-88.8416748046875","$","301 Front St"
"4ZRT7vFbE38NMU6xcStHMQ","Ming's Garden Chinese Restaurant","FALSE","https://www.yelp.com/biz/mings-garden-chinese-restaurant-beaver-dam?adjust_creative=QNZpjiWMh-xtTiixb79gYw&utm_campaign=yelp_api_v3&utm_medium=api_v3_business_search&utm_source=QNZpjiWMh-xtTiixb79gYw","19","Chinese","3","43.4563095867634","-88.8381716609001","$$","150 Front St"
"xjpeduIN7jq9hu07tAf5mg","Cousins Subs","FALSE","https://www.yelp.com/biz/cousins-subs-beaver-dam?adjust_creative=QNZpjiWMh-xtTiixb79gYw&utm_campaign=yelp_api_v3&utm_medium=api_v3_business_search&utm_source=QNZpjiWMh-xtTiixb79gYw","5","Sandwiches | Delis","2.5","43.45778391933","-88.8185616005591","$","820 A Park Ave"
"DodLCH9j7jLW4wdZodParw","Piggly Wiggly-Beaver Dam","FALSE","https://www.yelp.com/biz/piggly-wiggly-beaver-dam-beaver-dam?adjust_creative=QNZpjiWMh-xtTiixb79gYw&utm_campaign=yelp_api_v3&utm_medium=api_v3_business_search&utm_source=QNZpjiWMh-xtTiixb79gYw","5","Grocery | Beer, Wine & Spirits | Delis","3","43.45709","-88.81855","$$","810 Park Ave"
"sDYSNdYuiCSfzXWywTxf9g","Edith's Cakes & Catering","FALSE","https://www.yelp.com/biz/ediths-cakes-and-catering-beaver-dam-2?adjust_creative=QNZpjiWMh-xtTiixb79gYw&utm_campaign=yelp_api_v3&utm_medium=api_v3_business_search&utm_source=QNZpjiWMh-xtTiixb79gYw","7","Cupcakes | Cafes","2.5","43.4560165405273","-88.8371124267578","","103 Front St"
"U6SXUzfB6I1VV1Kc5vdaBw","Jimmy John's","FALSE","https://www.yelp.com/biz/jimmy-johns-beaver-dam?adjust_creative=QNZpjiWMh-xtTiixb79gYw&utm_campaign=yelp_api_v3&utm_medium=api_v3_business_search&utm_source=QNZpjiWMh-xtTiixb79gYw","5","Delis | Sandwiches | Fast Food","4","43.4560204","-88.8194199","$","803 Park Ave"
"1GDuT-1KStzdMsVkXHmWLw","Bell","FALSE","https://www.yelp.com/biz/bell-beaver-dam?adjust_creative=QNZpjiWMh-xtTiixb79gYw&utm_campaign=yelp_api_v3&utm_medium=api_v3_business_search&utm_source=QNZpjiWMh-xtTiixb79gYw","3","Restaurants","4","43.4405899","-88.8863983","$$","W9735 County Road D"
"gMmo3LdWJ-rceOT5fJbwXA","Marco's Pizza","FALSE","https://www.yelp.com/biz/marcos-pizza-beaver-dam?adjust_creative=QNZpjiWMh-xtTiixb79gYw&utm_campaign=yelp_api_v3&utm_medium=api_v3_business_search&utm_source=QNZpjiWMh-xtTiixb79gYw","4","Pizza","4","43.4578285217285","-88.8378753662109","","112 W Maple Ave"
"XLUsInvThQK6ASVNUNv3_Q","Pj's Family Restaurant","FALSE","https://www.yelp.com/biz/pjs-family-restaurant-juneau?adjust_creative=QNZpjiWMh-xtTiixb79gYw&utm_campaign=yelp_api_v3&utm_medium=api_v3_business_search&utm_source=QNZpjiWMh-xtTiixb79gYw","1","American (New)","1","43.4057273864746","-88.7092895507812","$$","255 W Oak Grove St"
"yI5g0YFBrjyeZzLkYMJsuA","McDonald's","FALSE","https://www.yelp.com/biz/mcdonalds-beaver-dam?adjust_creative=QNZpjiWMh-xtTiixb79gYw&utm_campaign=yelp_api_v3&utm_medium=api_v3_business_search&utm_source=QNZpjiWMh-xtTiixb79gYw","4","Fast Food | Burgers | Coffee & Tea","2","43.4568176269531","-88.8168029785156","$","840 Park Ave"
"OicyhPfAwgPKWEseT_izCg","Cocktails Bar and Grill","FALSE","https://www.yelp.com/biz/cocktails-bar-and-grill-beaver-dam?adjust_creative=QNZpjiWMh-xtTiixb79gYw&utm_campaign=yelp_api_v3&utm_medium=api_v3_business_search&utm_source=QNZpjiWMh-xtTiixb79gYw","2","Restaurants","4","43.4717369","-88.8394928","$","1305 N Center St"
"3O7ElcEtIf0QkQS7V7bBuw","Domino's Pizza","FALSE","https://www.yelp.com/biz/dominos-pizza-beaver-dam?adjust_creative=QNZpjiWMh-xtTiixb79gYw&utm_campaign=yelp_api_v3&utm_medium=api_v3_business_search&utm_source=QNZpjiWMh-xtTiixb79gYw","2","Pizza | Chicken Wings | Sandwiches","2.5","43.4619598","-88.8335495","","711 N Spring St"
"Q2cLWXbRQ3BbA5_winMxrA","Subway","FALSE","https://www.yelp.com/biz/subway-beaver-dam-2?adjust_creative=QNZpjiWMh-xtTiixb79gYw&utm_campaign=yelp_api_v3&utm_medium=api_v3_business_search&utm_source=QNZpjiWMh-xtTiixb79gYw","2","Sandwiches | Fast Food","2.5","43.4708786","-88.8268738","","1511 N Spring St"
"uCfjD5q4dVdtJmJo-yB4FQ","The Wisco An Old Fashioned Supper Club","FALSE","https://www.yelp.com/biz/the-wisco-an-old-fashioned-supper-club-mayville?adjust_creative=QNZpjiWMh-xtTiixb79gYw&utm_campaign=yelp_api_v3&utm_medium=api_v3_business_search&utm_source=QNZpjiWMh-xtTiixb79gYw","1","American (Traditional)","4","43.57343","-88.56084","","W3295 County Rd Y"
"iTMV1AD7lt4QUilg0WNDKw","Kekoskee Cooper Shop","FALSE","https://www.yelp.com/biz/kekoskee-cooper-shop-mayville?adjust_creative=QNZpjiWMh-xtTiixb79gYw&utm_campaign=yelp_api_v3&utm_medium=api_v3_business_search&utm_source=QNZpjiWMh-xtTiixb79gYw","7","Pubs | American (Traditional)","3.5","43.52867","-88.5643","","30 Main St"
"piPTDhGI4KmEr-EVyUijfQ","The Marsh Inn","FALSE","https://www.yelp.com/biz/the-marsh-inn-mayville?adjust_creative=QNZpjiWMh-xtTiixb79gYw&utm_campaign=yelp_api_v3&utm_medium=api_v3_business_search&utm_source=QNZpjiWMh-xtTiixb79gYw","3","Bars | Burgers | Pizza","4.5","43.49342","-88.52838","$","23 County Rd"
"6ADWlApzkKqooUWmZhZWIw","Sherwood Family Restraunt","FALSE","https://www.yelp.com/biz/sherwood-family-restraunt-mayville?adjust_creative=QNZpjiWMh-xtTiixb79gYw&utm_campaign=yelp_api_v3&utm_medium=api_v3_business_search&utm_source=QNZpjiWMh-xtTiixb79gYw","1","Restaurants","5","43.493579864502","-88.5591735839844","","1145 Horicon St"
"4ZuFQYT2OUw37klXHXxQ7w","McDonald's","FALSE","https://www.yelp.com/biz/mcdonalds-mayville?adjust_creative=QNZpjiWMh-xtTiixb79gYw&utm_campaign=yelp_api_v3&utm_medium=api_v3_business_search&utm_source=QNZpjiWMh-xtTiixb79gYw","1","Fast Food | Burgers | Coffee & Tea","3","43.4935494163388","-88.5596703691476","","1157 Horicon St"
"oRN8bmUB0gWE617SCsba1g","Subway","FALSE","https://www.yelp.com/biz/subway-mayville?adjust_creative=QNZpjiWMh-xtTiixb79gYw&utm_campaign=yelp_api_v3&utm_medium=api_v3_business_search&utm_source=QNZpjiWMh-xtTiixb79gYw","1","Sandwiches | Fast Food","3","43.4942932128906","-88.5569305419922","","1030 Horicon St"
"4wu-i3rWGzxuBfTKQtLgZg","Diner 67","FALSE","https://www.yelp.com/biz/diner-67-lomira-2?adjust_creative=QNZpjiWMh-xtTiixb79gYw&utm_campaign=yelp_api_v3&utm_medium=api_v3_business_search&utm_source=QNZpjiWMh-xtTiixb79gYw","32","Burgers | Breakfast & Brunch","4","43.5868759155273","-88.4465408325195","$","1007 Church St"
"c5PyRpJk-l6LLjkS-XphRA","Rock the House Pub & Grill","FALSE","https://www.yelp.com/biz/rock-the-house-pub-and-grill-brownsville?adjust_creative=QNZpjiWMh-xtTiixb79gYw&utm_campaign=yelp_api_v3&utm_medium=api_v3_business_search&utm_source=QNZpjiWMh-xtTiixb79gYw","17","Sports Bars | American (Traditional)","4.5","43.6165499","-88.4501499","$","N11710 State Rd 175"
"NLSJECy72Ovou_wrKQXBYA","NOLA North Grille","FALSE","https://www.yelp.com/biz/nola-north-grille-mayville?adjust_creative=QNZpjiWMh-xtTiixb79gYw&utm_campaign=yelp_api_v3&utm_medium=api_v3_business_search&utm_source=QNZpjiWMh-xtTiixb79gYw","39","American (Traditional) | Cajun/Creole | Bars","4","43.496558","-88.544893","$$","45 N Main St"
"bIBVJsSnl1ESOZkksiY14w","Bublitz's Restaurant & Alehouse","FALSE","https://www.yelp.com/biz/bublitzs-restaurant-and-alehouse-lomira?adjust_creative=QNZpjiWMh-xtTiixb79gYw&utm_campaign=yelp_api_v3&utm_medium=api_v3_business_search&utm_source=QNZpjiWMh-xtTiixb79gYw","42","American (Traditional) | Salad | Pizza","2.5","43.58834","-88.43244","$$","580 East Ave"
"p9iBu4Y0U4Sb-mH58WWcdA","Pioneer Keg","FALSE","https://www.yelp.com/biz/pioneer-keg-theresa?adjust_creative=QNZpjiWMh-xtTiixb79gYw&utm_campaign=yelp_api_v3&utm_medium=api_v3_business_search&utm_source=QNZpjiWMh-xtTiixb79gYw","10","Diners | Coffee & Tea","5","43.5173835754395","-88.4514389038086","$","122 S Milwaukee St"
"kTS53Q6Bu5qLt_8EKE1ckA","Quitting Time Pub & Grill","FALSE","https://www.yelp.com/biz/quitting-time-pub-and-grill-lomira?adjust_creative=QNZpjiWMh-xtTiixb79gYw&utm_campaign=yelp_api_v3&utm_medium=api_v3_business_search&utm_source=QNZpjiWMh-xtTiixb79gYw","1","Pubs | American (Traditional)","5","43.5914948807113","-88.4417612850666","$$","701 Main St"
"OFzyqnyCumkIzVtq2bRGtg","Back Street Cafe","FALSE","https://www.yelp.com/biz/back-street-cafe-mayville?adjust_creative=QNZpjiWMh-xtTiixb79gYw&utm_campaign=yelp_api_v3&utm_medium=api_v3_business_search&utm_source=QNZpjiWMh-xtTiixb79gYw","12","American (Traditional)","4","43.49595","-88.54592","$","11 N School St"
"8OBmq42QfPQw1UWoa9N7Rw","521 Pub and Grub","FALSE","https://www.yelp.com/biz/521-pub-and-grub-brownsville?adjust_creative=QNZpjiWMh-xtTiixb79gYw&utm_campaign=yelp_api_v3&utm_medium=api_v3_business_search&utm_source=QNZpjiWMh-xtTiixb79gYw","2","Burgers | Sandwiches | Barbeque","5","43.61609","-88.48927","","521 W Main St"
"dXB3WJShYclqhRbuzhgCcQ","Don Ramon","FALSE","https://www.yelp.com/biz/don-ramon-mayville?adjust_creative=QNZpjiWMh-xtTiixb79gYw&utm_campaign=yelp_api_v3&utm_medium=api_v3_business_search&utm_source=QNZpjiWMh-xtTiixb79gYw","21","Mexican","4.5","43.49495","-88.54453","$$","39 S Main St"
"cSbSAB6QMzosYN_GCRq3Bg","Guido's Spirits & Sandwich","FALSE","https://www.yelp.com/biz/guidos-spirits-and-sandwich-byron?adjust_creative=QNZpjiWMh-xtTiixb79gYw&utm_campaign=yelp_api_v3&utm_medium=api_v3_business_search&utm_source=QNZpjiWMh-xtTiixb79gYw","5","American (Traditional) | Bars | Sandwiches","5","43.65128","-88.45061","$","N3041 Hwy 175"
"fwAzwreCAIBFz7sdY1cUCQ","Bridge Street Eatery","FALSE","https://www.yelp.com/biz/bridge-street-eatery-mayville?adjust_creative=QNZpjiWMh-xtTiixb79gYw&utm_campaign=yelp_api_v3&utm_medium=api_v3_business_search&utm_source=QNZpjiWMh-xtTiixb79gYw","1","Sandwiches | Ice Cream & Frozen Yogurt | Hot Dogs","4","43.49589","-88.54448","","1 N Main St"
"jbzEITgDT8mHDWFwf5HmqQ","Confections For Any Occasion","FALSE","https://www.yelp.com/biz/confections-for-any-occasion-theresa?adjust_creative=QNZpjiWMh-xtTiixb79gYw&utm_campaign=yelp_api_v3&utm_medium=api_v3_business_search&utm_source=QNZpjiWMh-xtTiixb79gYw","8","Candy Stores | Chocolatiers & Shops | American (Traditional)","4.5","43.51844","-88.45083","$","101 W Milwaukee St"
"edBQiCj41cibx9A5j1bqKQ","The Banquets At Camelot","FALSE","https://www.yelp.com/biz/the-banquets-at-camelot-lomira-2?adjust_creative=QNZpjiWMh-xtTiixb79gYw&utm_campaign=yelp_api_v3&utm_medium=api_v3_business_search&utm_source=QNZpjiWMh-xtTiixb79gYw","2","American (Traditional) | Pubs | Beer, Wine & Spirits","5","43.5871951","-88.4301163","","W194 State Rd 67"
"TQMHYHLiiHMV_kHaTho6QA","M J's Food & Spirits","FALSE","https://www.yelp.com/biz/m-js-food-and-spirits-brownsville?adjust_creative=QNZpjiWMh-xtTiixb79gYw&utm_campaign=yelp_api_v3&utm_medium=api_v3_business_search&utm_source=QNZpjiWMh-xtTiixb79gYw","1","Bars | Burgers | Pizza","4","43.616092","-88.489273","$$","521 W Main St"
"9NCdIyPuFWtFMtF90vzq4w","McDonald's","FALSE","https://www.yelp.com/biz/mcdonalds-lomira?adjust_creative=QNZpjiWMh-xtTiixb79gYw&utm_campaign=yelp_api_v3&utm_medium=api_v3_business_search&utm_source=QNZpjiWMh-xtTiixb79gYw","4","Burgers | Fast Food | Coffee & Tea","1.5","43.58928","-88.43244","$","630 E Ave"
"q5CUgk-AiZQfv-0hG-tLvg","Richies Up Ur Alley","FALSE","https://www.yelp.com/biz/richies-up-ur-alley-mayville?adjust_creative=QNZpjiWMh-xtTiixb79gYw&utm_campaign=yelp_api_v3&utm_medium=api_v3_business_search&utm_source=QNZpjiWMh-xtTiixb79gYw","1","American (Traditional) | Bowling","5","43.4952714840417","-88.5445053130388","","25 S Main St"
"234KJvTJ6Qy--UiDJgif0A","Lee's Chinese Restaurant","FALSE","https://www.yelp.com/biz/lees-chinese-restaurant-mayville?adjust_creative=QNZpjiWMh-xtTiixb79gYw&utm_campaign=yelp_api_v3&utm_medium=api_v3_business_search&utm_source=QNZpjiWMh-xtTiixb79gYw","4","Chinese","4.5","43.4946899","-88.5444717","","101 S Main St"
"xwj7-mlhkvbspZ_Q8GviXg","Sidelines Tap","FALSE","https://www.yelp.com/biz/sidelines-tap-mayville?adjust_creative=QNZpjiWMh-xtTiixb79gYw&utm_campaign=yelp_api_v3&utm_medium=api_v3_business_search&utm_source=QNZpjiWMh-xtTiixb79gYw","1","Sports Bars | American (Traditional)","5","43.4944892422932","-88.544411930859","","111 S Main St"
"hpcEu74gT0SRniSo9VO2Fw","New China Restaurant","FALSE","https://www.yelp.com/biz/new-china-restaurant-mayville?adjust_creative=QNZpjiWMh-xtTiixb79gYw&utm_campaign=yelp_api_v3&utm_medium=api_v3_business_search&utm_source=QNZpjiWMh-xtTiixb79gYw","4","Chinese","2.5","43.4946937561035","-88.5444717407227","","101 S Main St"
"O2nz0OvPKrIRrEgjRsQbOg","Nora's Restaurant","FALSE","https://www.yelp.com/biz/noras-restaurant-horicon?adjust_creative=QNZpjiWMh-xtTiixb79gYw&utm_campaign=yelp_api_v3&utm_medium=api_v3_business_search&utm_source=QNZpjiWMh-xtTiixb79gYw","9","Diners","4","43.4513397216797","-88.6301879882812","$$","417 East Lake St"
"jO-Smqu0eRMLk8r64ccM8g","Rock River Tap","FALSE","https://www.yelp.com/biz/rock-river-tap-horicon?adjust_creative=QNZpjiWMh-xtTiixb79gYw&utm_campaign=yelp_api_v3&utm_medium=api_v3_business_search&utm_source=QNZpjiWMh-xtTiixb79gYw","5","American (Traditional)","3","43.45174","-88.63554","$$","110 W Lake St"
"PLeljVpCrmhr6MPpOTxqKA","Ginger's Hideaway","FALSE","https://www.yelp.com/biz/gingers-hideaway-horicon?adjust_creative=QNZpjiWMh-xtTiixb79gYw&utm_campaign=yelp_api_v3&utm_medium=api_v3_business_search&utm_source=QNZpjiWMh-xtTiixb79gYw","11","American (Traditional)","3.5","43.4517784","-88.6322327","$$","302 E Lake St"
"oBLdTizD4UAXC8HpZdQcIQ","China House Restaurant","FALSE","https://www.yelp.com/biz/china-house-restaurant-horicon?adjust_creative=QNZpjiWMh-xtTiixb79gYw&utm_campaign=yelp_api_v3&utm_medium=api_v3_business_search&utm_source=QNZpjiWMh-xtTiixb79gYw","9","Chinese","5","43.4456939697266","-88.6480407714844","$","620 Washington St"
"_MrBwK4iK1CCFejNn7CO2g","Jamaican Oasis","FALSE","https://www.yelp.com/biz/jamaican-oasis-horicon?adjust_creative=QNZpjiWMh-xtTiixb79gYw&utm_campaign=yelp_api_v3&utm_medium=api_v3_business_search&utm_source=QNZpjiWMh-xtTiixb79gYw","2","Restaurants","4.5","43.44363","-88.596365","","W3997 State Rd 33"
"3GPjJstti9-aYCn_OU3aPA","Heine's Famous Pizza","FALSE","https://www.yelp.com/biz/heines-famous-pizza-horicon?adjust_creative=QNZpjiWMh-xtTiixb79gYw&utm_campaign=yelp_api_v3&utm_medium=api_v3_business_search&utm_source=QNZpjiWMh-xtTiixb79gYw","3","Pizza","4","43.453006","-88.696388","$","N7115 Center St"
"qEGtlKChU_yIUTHrK2AyRg","Danny Boys Irish Pub","FALSE","https://www.yelp.com/biz/danny-boys-irish-pub-horicon?adjust_creative=QNZpjiWMh-xtTiixb79gYw&utm_campaign=yelp_api_v3&utm_medium=api_v3_business_search&utm_source=QNZpjiWMh-xtTiixb79gYw","1","Burgers | Pubs","3","43.45134","-88.63171","$$","315 E Lake St"
"yPTFAYsq5YpL0RpzX7roIg","Subway","FALSE","https://www.yelp.com/biz/subway-horicon?adjust_creative=QNZpjiWMh-xtTiixb79gYw&utm_campaign=yelp_api_v3&utm_medium=api_v3_business_search&utm_source=QNZpjiWMh-xtTiixb79gYw","5","Sandwiches | Fast Food","4","43.4477767944336","-88.6361999511719","$$","309 Barstow St"
"SYiuLJ1SWwDebOye9RGo9Q","Domino's Pizza","FALSE","https://www.yelp.com/biz/dominos-pizza-horicon?adjust_creative=QNZpjiWMh-xtTiixb79gYw&utm_campaign=yelp_api_v3&utm_medium=api_v3_business_search&utm_source=QNZpjiWMh-xtTiixb79gYw","3","Pizza | Chicken Wings | Sandwiches","2","43.4444274902344","-88.6467742919922","","602 Washington St"
"8mSQrEm2_kg6-TvKAOzmdw","Iron Ridge Inn Restaurant","FALSE","https://www.yelp.com/biz/iron-ridge-inn-restaurant-iron-ridge?adjust_creative=QNZpjiWMh-xtTiixb79gYw&utm_campaign=yelp_api_v3&utm_medium=api_v3_business_search&utm_source=QNZpjiWMh-xtTiixb79gYw","7","Seafood | Steakhouses | Buffets","3.5","43.39798","-88.5319","$$","131 S Main St"
"e1EUmze-0sc5tMuH5LWzuw","The Stand","FALSE","https://www.yelp.com/biz/the-stand-iron-ridge-2?adjust_creative=QNZpjiWMh-xtTiixb79gYw&utm_campaign=yelp_api_v3&utm_medium=api_v3_business_search&utm_source=QNZpjiWMh-xtTiixb79gYw","4","Pizza | Sandwiches","5","43.3988876342773","-88.5321502685547","","119 S Main St"
"7T-Fz1n-0K6rvDCPG5gmhA","Snapper Vick's","FALSE","https://www.yelp.com/biz/snapper-vicks-woodland?adjust_creative=QNZpjiWMh-xtTiixb79gYw&utm_campaign=yelp_api_v3&utm_medium=api_v3_business_search&utm_source=QNZpjiWMh-xtTiixb79gYw","6","Mexican","3","43.374248","-88.52037","$$","N5007 County Road Ws"
"3vIFWVNiKDpOIi7K66lfUw","Mullin's Short Stop","FALSE","https://www.yelp.com/biz/mullins-short-stop-columbus-2?adjust_creative=QNZpjiWMh-xtTiixb79gYw&utm_campaign=yelp_api_v3&utm_medium=api_v3_business_search&utm_source=QNZpjiWMh-xtTiixb79gYw","7","Ice Cream & Frozen Yogurt | Burgers | American (Traditional)","4.5","43.342777","-89.009791","$","641 N Ludington St"
"f7_JLSCncZNKk-altVmnfA","Cowbells","FALSE","https://www.yelp.com/biz/cowbells-lowell?adjust_creative=QNZpjiWMh-xtTiixb79gYw&utm_campaign=yelp_api_v3&utm_medium=api_v3_business_search&utm_source=QNZpjiWMh-xtTiixb79gYw","2","Pizza | Diners | Breakfast & Brunch","5","43.5367356240749","-89.0008630603552","","205 Columbus St"
"HPop0PE90vZ8Ow07gcGXRA","Mercer T's Bar & Grill","FALSE","https://www.yelp.com/biz/mercer-ts-bar-and-grill-clyman?adjust_creative=QNZpjiWMh-xtTiixb79gYw&utm_campaign=yelp_api_v3&utm_medium=api_v3_business_search&utm_source=QNZpjiWMh-xtTiixb79gYw","2","Restaurants","4.5","43.3102112","-88.7206802","","962 Main"
"_v6bCuCGHcyFPpOPVPxoWQ","The Waterloo Diner","FALSE","https://www.yelp.com/biz/the-waterloo-diner-waterloo?adjust_creative=QNZpjiWMh-xtTiixb79gYw&utm_campaign=yelp_api_v3&utm_medium=api_v3_business_search&utm_source=QNZpjiWMh-xtTiixb79gYw","6","Diners","4","43.1840476989746","-88.99072265625","$","111 N Monroe St"
"FYyWSHnZZ9erv9vB98VNRg","Cindy Lou's Cafe","FALSE","https://www.yelp.com/biz/cindy-lous-cafe-waterloo?adjust_creative=QNZpjiWMh-xtTiixb79gYw&utm_campaign=yelp_api_v3&utm_medium=api_v3_business_search&utm_source=QNZpjiWMh-xtTiixb79gYw","2","Cafes","3.5","43.186924","-88.977646","","336 Portland Rd"
"NmULNm-g3rx3CWFMSZ4-2Q","Zwieg's Grill","FALSE","https://www.yelp.com/biz/zwiegs-grill-watertown?adjust_creative=QNZpjiWMh-xtTiixb79gYw&utm_campaign=yelp_api_v3&utm_medium=api_v3_business_search&utm_source=QNZpjiWMh-xtTiixb79gYw","27","American (Traditional) | Breakfast & Brunch","4","43.1933098","-88.7154617","$","904 E Main St"
"6JGJUnQhAfivGHQEOlO-Bw","Elias Inn Supper Club","FALSE","https://www.yelp.com/biz/elias-inn-supper-club-watertown?adjust_creative=QNZpjiWMh-xtTiixb79gYw&utm_campaign=yelp_api_v3&utm_medium=api_v3_business_search&utm_source=QNZpjiWMh-xtTiixb79gYw","36","American (Traditional) | Bars","4.5","43.19516","-88.72315","$$","200 N 2nd St"
"MpkBwi0HAzbg-pMsYoFr0A","Taqueria Maria's","FALSE","https://www.yelp.com/biz/taqueria-marias-watertown-2?adjust_creative=QNZpjiWMh-xtTiixb79gYw&utm_campaign=yelp_api_v3&utm_medium=api_v3_business_search&utm_source=QNZpjiWMh-xtTiixb79gYw","60","Mexican","4.5","43.1927924","-88.7244254","$$","311 S First St"
"FGqnfUVPyorhwOkRk2tgXg","Moon Rabbit","FALSE","https://www.yelp.com/biz/moon-rabbit-watertown?adjust_creative=QNZpjiWMh-xtTiixb79gYw&utm_campaign=yelp_api_v3&utm_medium=api_v3_business_search&utm_source=QNZpjiWMh-xtTiixb79gYw","4","Cajun/Creole | Pop-Up Restaurants","4.5","43.19407","-88.71961","$","510 E Main St"
"Jdc1DyhaBt2TY3J3g5lHRw","Main Street Cafe","FALSE","https://www.yelp.com/biz/main-street-cafe-watertown?adjust_creative=QNZpjiWMh-xtTiixb79gYw&utm_campaign=yelp_api_v3&utm_medium=api_v3_business_search&utm_source=QNZpjiWMh-xtTiixb79gYw","8","American (Traditional)","4.5","43.19445","-88.723236","$","116 E Main St"
"neCHiCvUhehcQNLOoH1P6Q","Latte Donatte","FALSE","https://www.yelp.com/biz/latte-donatte-watertown?adjust_creative=QNZpjiWMh-xtTiixb79gYw&utm_campaign=yelp_api_v3&utm_medium=api_v3_business_search&utm_source=QNZpjiWMh-xtTiixb79gYw","14","Coffee & Tea | Breakfast & Brunch | Sandwiches","4.5","43.19358","-88.71999","$","501 E Main St"
"PER62UAZlyKx0oJR1cPg1Q","Two Sisters Cafe","FALSE","https://www.yelp.com/biz/two-sisters-cafe-watertown?adjust_creative=QNZpjiWMh-xtTiixb79gYw&utm_campaign=yelp_api_v3&utm_medium=api_v3_business_search&utm_source=QNZpjiWMh-xtTiixb79gYw","9","American (Traditional)","3.5","43.1944990224633","-88.7312889824808","$$","1300 Memorial Dr"
"svzRACsZHpRW5H-Mz8sB4Q","Connection Cafe","FALSE","https://www.yelp.com/biz/connection-cafe-watertown-2?adjust_creative=QNZpjiWMh-xtTiixb79gYw&utm_campaign=yelp_api_v3&utm_medium=api_v3_business_search&utm_source=QNZpjiWMh-xtTiixb79gYw","12","Coffee & Tea | Sandwiches","4.5","43.1977532","-88.7542089","$$","1308 W Main St"
"TB6SKWVyWjSKc8GTEXHD3Q","Bismarck's Main Street Bar & Grill","FALSE","https://www.yelp.com/biz/bismarcks-main-street-bar-and-grill-watertown?adjust_creative=QNZpjiWMh-xtTiixb79gYw&utm_campaign=yelp_api_v3&utm_medium=api_v3_business_search&utm_source=QNZpjiWMh-xtTiixb79gYw","22","Bars | American (New)","3.5","43.1942060633435","-88.7239169022384","$","105 E Main St"
"ro2JBSz7x1Il79EekH47wA","Chalet Restaurant","FALSE","https://www.yelp.com/biz/chalet-restaurant-watertown-4?adjust_creative=QNZpjiWMh-xtTiixb79gYw&utm_campaign=yelp_api_v3&utm_medium=api_v3_business_search&utm_source=QNZpjiWMh-xtTiixb79gYw","5","American (Traditional) | Salad | Breakfast & Brunch","4.5","43.19414","-88.72539","$","107 W Main St"
"Gyny8jwU9aoBarjAngXoYA","Sake House","FALSE","https://www.yelp.com/biz/sake-house-watertown?adjust_creative=QNZpjiWMh-xtTiixb79gYw&utm_campaign=yelp_api_v3&utm_medium=api_v3_business_search&utm_source=QNZpjiWMh-xtTiixb79gYw","33","Japanese | Sushi Bars","4.5","43.1784237676221","-88.7325310864048","$$","1506 S Church St"
"RxzhRnqWHIEyr7paDPv1Qg","Sprecher's Restaurant & Pub","FALSE","https://www.yelp.com/biz/sprechers-restaurant-and-pub-watertown?adjust_creative=QNZpjiWMh-xtTiixb79gYw&utm_campaign=yelp_api_v3&utm_medium=api_v3_business_search&utm_source=QNZpjiWMh-xtTiixb79gYw","16","American (New) | Pubs","3","43.17817","-88.73217","$$","1512 S Church St"
"mTRWeLvrFHpbe_P4YAOtkw","Amado's Restaurant","FALSE","https://www.yelp.com/biz/amados-restaurant-watertown?adjust_creative=QNZpjiWMh-xtTiixb79gYw&utm_campaign=yelp_api_v3&utm_medium=api_v3_business_search&utm_source=QNZpjiWMh-xtTiixb79gYw","16","Mexican","4.5","43.19372","-88.72101","$$","403 E Main St"
"FocpvlSk4D4C31FIhMsnaQ","Mullen's Dairy Bar","FALSE","https://www.yelp.com/biz/mullens-dairy-bar-watertown?adjust_creative=QNZpjiWMh-xtTiixb79gYw&utm_campaign=yelp_api_v3&utm_medium=api_v3_business_search&utm_source=QNZpjiWMh-xtTiixb79gYw","27","Ice Cream & Frozen Yogurt | Salad | Sandwiches","3.5","43.19503","-88.72681","$","212 W Main St"
"B9y49jeDaHvVny-Ac4ljcA","Bamboo Kitchen","FALSE","https://www.yelp.com/biz/bamboo-kitchen-watertown?adjust_creative=QNZpjiWMh-xtTiixb79gYw&utm_campaign=yelp_api_v3&utm_medium=api_v3_business_search&utm_source=QNZpjiWMh-xtTiixb79gYw","16","Thai | Chinese","3.5","43.1946691880747","-88.7273541145654","$","310 W Main St"
"xAWOXQ1S_6ItrH6J77re2w","El Mariachi Mexican Restaurant","FALSE","https://www.yelp.com/biz/el-mariachi-mexican-restaurant-watertown?adjust_creative=QNZpjiWMh-xtTiixb79gYw&utm_campaign=yelp_api_v3&utm_medium=api_v3_business_search&utm_source=QNZpjiWMh-xtTiixb79gYw","17","Mexican | Seafood","4.5","43.1730513","-88.7323616","$$","1694 S Church St"
"gPoZ2cDU8uvWImParWXvzg","PJ's Pizza","FALSE","https://www.yelp.com/biz/pjs-pizza-watertown-2?adjust_creative=QNZpjiWMh-xtTiixb79gYw&utm_campaign=yelp_api_v3&utm_medium=api_v3_business_search&utm_source=QNZpjiWMh-xtTiixb79gYw","8","Pizza | Salad | Tacos","4","43.1956977844238","-88.7286987304688","$","118 N Church St"
"hoqLn_2Uzazjma_Tam67rQ","JB's on 3rd","FALSE","https://www.yelp.com/biz/jbs-on-3rd-watertown-2?adjust_creative=QNZpjiWMh-xtTiixb79gYw&utm_campaign=yelp_api_v3&utm_medium=api_v3_business_search&utm_source=QNZpjiWMh-xtTiixb79gYw","5","Burgers","4","43.1927","-88.72224","","215 S 3rd St"
"OtQcgIukwEJ4aFz9tdG9fg","Rock River Pizza","FALSE","https://www.yelp.com/biz/rock-river-pizza-watertown-5?adjust_creative=QNZpjiWMh-xtTiixb79gYw&utm_campaign=yelp_api_v3&utm_medium=api_v3_business_search&utm_source=QNZpjiWMh-xtTiixb79gYw","14","Pizza | Italian | Bars","2.5","43.19526","-88.72364","$$","100 E Madison St"
"pJvQCXb5siO_Uov3aoL_ZA","Rose Garden Cafe & Pizzeria","FALSE","https://www.yelp.com/biz/rose-garden-cafe-and-pizzeria-watertown?adjust_creative=QNZpjiWMh-xtTiixb79gYw&utm_campaign=yelp_api_v3&utm_medium=api_v3_business_search&utm_source=QNZpjiWMh-xtTiixb79gYw","10","Italian","2.5","43.1868629455566","-88.7317276000977","$","500 Bernard St"
"syX6r_dRvCiBi9xleJYcvw","Driftwood Restaurant","FALSE","https://www.yelp.com/biz/driftwood-restaurant-watertown?adjust_creative=QNZpjiWMh-xtTiixb79gYw&utm_campaign=yelp_api_v3&utm_medium=api_v3_business_search&utm_source=QNZpjiWMh-xtTiixb79gYw","3","American (Traditional) | Breakfast & Brunch","1.5","43.187454106265","-88.7292099371552","$$",""
"aGQ57a80xjIkM3tTF5qzxw","Uptown Bar","FALSE","https://www.yelp.com/biz/uptown-bar-watertown?adjust_creative=QNZpjiWMh-xtTiixb79gYw&utm_campaign=yelp_api_v3&utm_medium=api_v3_business_search&utm_source=QNZpjiWMh-xtTiixb79gYw","2","Sports Bars | American (Traditional)","5","43.19411","-88.72038","$","416 E Main St"
"NVX_y7k2HeIPkkafQiT38A","Deeg's Grill & Bar","FALSE","https://www.yelp.com/biz/deegs-grill-and-bar-watertown?adjust_creative=QNZpjiWMh-xtTiixb79gYw&utm_campaign=yelp_api_v3&utm_medium=api_v3_business_search&utm_source=QNZpjiWMh-xtTiixb79gYw","8","Burgers | Breakfast & Brunch | Mexican","2.5","43.1979713439941","-88.7466812133789","$","1002 W Main St"
"yUUQfPm5DcmA_0SoEap6Ng","China Town","FALSE","https://www.yelp.com/biz/china-town-watertown?adjust_creative=QNZpjiWMh-xtTiixb79gYw&utm_campaign=yelp_api_v3&utm_medium=api_v3_business_search&utm_source=QNZpjiWMh-xtTiixb79gYw","8","Chinese","4","43.2010145","-88.701271","$","1309 Memorial Dr"
"Hea6yziqGjNe4FMzLBxopQ","Rosati's Pizza","FALSE","https://www.yelp.com/biz/rosatis-pizza-watertown?adjust_creative=QNZpjiWMh-xtTiixb79gYw&utm_campaign=yelp_api_v3&utm_medium=api_v3_business_search&utm_source=QNZpjiWMh-xtTiixb79gYw","18","Pizza | Salad | Sandwiches","3.5","43.1603254183913","-88.7314027433777","$$","1907 Market Way"
"YLWlSUzs0hvBfm383GaudA","Hessed's Connection Cafe & Laundry","FALSE","https://www.yelp.com/biz/hesseds-connection-cafe-and-laundry-watertown?adjust_creative=QNZpjiWMh-xtTiixb79gYw&utm_campaign=yelp_api_v3&utm_medium=api_v3_business_search&utm_source=QNZpjiWMh-xtTiixb79gYw","1","American (New) | Breakfast & Brunch | Sandwiches","5","43.1981163024902","-88.7569732666016","$","1308B W Main St"
"tT4s82641Q2sLsizpM8o0A","Phil's Pizza Palace","FALSE","https://www.yelp.com/biz/phils-pizza-palace-watertown?adjust_creative=QNZpjiWMh-xtTiixb79gYw&utm_campaign=yelp_api_v3&utm_medium=api_v3_business_search&utm_source=QNZpjiWMh-xtTiixb79gYw","3","Pizza","3.5","43.1936950683594","-88.7235260009766","$","112 S 2nd St"
"1KmxMW_Z_lGNe_bG_44uUw","Cherry Bomb Beer And Burgers","FALSE","https://www.yelp.com/biz/cherry-bomb-beer-and-burgers-watertown?adjust_creative=QNZpjiWMh-xtTiixb79gYw&utm_campaign=yelp_api_v3&utm_medium=api_v3_business_search&utm_source=QNZpjiWMh-xtTiixb79gYw","1","Bars | Burgers","5","43.1952536","-88.7338578","","715 W Main St"
"R0dNQiCtfiXVkL62QSPHyw","Marco's Pizza","FALSE","https://www.yelp.com/biz/marcos-pizza-watertown?adjust_creative=QNZpjiWMh-xtTiixb79gYw&utm_campaign=yelp_api_v3&utm_medium=api_v3_business_search&utm_source=QNZpjiWMh-xtTiixb79gYw","5","Pizza","4","43.19297","-88.71644","","813 E Main St"
"sVLGGkX_2cOboBk9Pgrnug","China Buffet","FALSE","https://www.yelp.com/biz/china-buffet-watertown?adjust_creative=QNZpjiWMh-xtTiixb79gYw&utm_campaign=yelp_api_v3&utm_medium=api_v3_business_search&utm_source=QNZpjiWMh-xtTiixb79gYw","10","Chinese","2","43.1762038171291","-88.7317509949207","$","1632 S Church St"
"XRdKXzNS_45JdUT0G1Wl8A","Steve's Bar","FALSE","https://www.yelp.com/biz/steves-bar-watertown?adjust_creative=QNZpjiWMh-xtTiixb79gYw&utm_campaign=yelp_api_v3&utm_medium=api_v3_business_search&utm_source=QNZpjiWMh-xtTiixb79gYw","3","American (Traditional) | Bars","3","43.201162","-88.716126","$$","N1016 County Rd L"
"CYWq8biZcS0xbGF2MZqbZw","Biggs Bar & Grill","FALSE","https://www.yelp.com/biz/biggs-bar-and-grill-watertown?adjust_creative=QNZpjiWMh-xtTiixb79gYw&utm_campaign=yelp_api_v3&utm_medium=api_v3_business_search&utm_source=QNZpjiWMh-xtTiixb79gYw","7","Pubs | Pizza","4.5","43.18206","-88.72777","$","1217 River Dr"
"rOY3hOpoAlQvvlm6Xn0zKQ","La Finca De Adobe Restaurant","FALSE","https://www.yelp.com/biz/la-finca-de-adobe-restaurant-watertown?adjust_creative=QNZpjiWMh-xtTiixb79gYw&utm_campaign=yelp_api_v3&utm_medium=api_v3_business_search&utm_source=QNZpjiWMh-xtTiixb79gYw","8","Mexican | American (New)","3","43.19421","-88.72187","$$","302 E Main St"
"VD6CoJyZgUgyY5ezpt-qzA","Lindberg's by the River Restaurant","FALSE","https://www.yelp.com/biz/lindbergs-by-the-river-restaurant-watertown?adjust_creative=QNZpjiWMh-xtTiixb79gYw&utm_campaign=yelp_api_v3&utm_medium=api_v3_business_search&utm_source=QNZpjiWMh-xtTiixb79gYw","3","Restaurants","2","43.182876","-88.702217","$$","1413 Oconomowoc Ave"
"RKZfnFcX1cX8QeKieWwKRA","The Spot","FALSE","https://www.yelp.com/biz/the-spot-watertown-2?adjust_creative=QNZpjiWMh-xtTiixb79gYw&utm_campaign=yelp_api_v3&utm_medium=api_v3_business_search&utm_source=QNZpjiWMh-xtTiixb79gYw","2","Burgers | American (Traditional) | Mexican","3.5","43.1878700256348","-88.7290420532227","$$","605 Church St"
"JMQTxGAs90XxvCuhhuPmOQ","Jimmy John's","FALSE","https://www.yelp.com/biz/jimmy-johns-watertown-3?adjust_creative=QNZpjiWMh-xtTiixb79gYw&utm_campaign=yelp_api_v3&utm_medium=api_v3_business_search&utm_source=QNZpjiWMh-xtTiixb79gYw","2","Delis | Sandwiches | Fast Food","3","43.1951637268066","-88.7281875610352","$$","103 N Church St"
"5OIz7Lg-dp_ekUdljYTC0Q","McDonald's","FALSE","https://www.yelp.com/biz/mcdonalds-watertown-6?adjust_creative=QNZpjiWMh-xtTiixb79gYw&utm_campaign=yelp_api_v3&utm_medium=api_v3_business_search&utm_source=QNZpjiWMh-xtTiixb79gYw","10","Fast Food | Burgers | Coffee & Tea","1","43.1873086023599","-88.7290133776992","$","625 S Church St"
"SZqyQUeT52m8BeGr2VBm8Q","Culver's","FALSE","https://www.yelp.com/biz/culvers-watertown-2?adjust_creative=QNZpjiWMh-xtTiixb79gYw&utm_campaign=yelp_api_v3&utm_medium=api_v3_business_search&utm_source=QNZpjiWMh-xtTiixb79gYw","5","Fast Food | Ice Cream & Frozen Yogurt","2.5","43.1720008850098","-88.7331161499023","$","1722 S Church St"
"clViiQN97JYw0eQVSfpVJg","Taco Bell","FALSE","https://www.yelp.com/biz/taco-bell-watertown-3?adjust_creative=QNZpjiWMh-xtTiixb79gYw&utm_campaign=yelp_api_v3&utm_medium=api_v3_business_search&utm_source=QNZpjiWMh-xtTiixb79gYw","5","Tex-Mex | Fast Food | Mexican","2","43.173837","-88.731921","$","1729 S Church St"
"ZrtOd9-cpzcBj0nfjXVN_w","Arby's","FALSE","https://www.yelp.com/biz/arbys-watertown?adjust_creative=QNZpjiWMh-xtTiixb79gYw&utm_campaign=yelp_api_v3&utm_medium=api_v3_business_search&utm_source=QNZpjiWMh-xtTiixb79gYw","4","Fast Food | Sandwiches","4.5","43.1601257324219","-88.7330474853516","$","1910 Market Way"
"-Ic4O_fZ5M6tUtOQYF9mXQ","Borderline Bp Amoco","FALSE","https://www.yelp.com/biz/borderline-bp-amoco-watertown?adjust_creative=QNZpjiWMh-xtTiixb79gYw&utm_campaign=yelp_api_v3&utm_medium=api_v3_business_search&utm_source=QNZpjiWMh-xtTiixb79gYw","1","Beer, Wine & Spirits | Convenience Stores | Delis","4","43.2140007","-88.7138214","","N549 Boulder Rd"
"ikDlHsClpiV9dNsgx1rutQ","Pizza Hut","FALSE","https://www.yelp.com/biz/pizza-hut-watertown-2?adjust_creative=QNZpjiWMh-xtTiixb79gYw&utm_campaign=yelp_api_v3&utm_medium=api_v3_business_search&utm_source=QNZpjiWMh-xtTiixb79gYw","8","Pizza | Italian | Chicken Wings","2","43.1788712","-88.7314529","","1504 S Church St"
"AmZce92-kapukel2IjyDGA","Little Caesars Pizza","FALSE","https://www.yelp.com/biz/little-caesars-pizza-watertown?adjust_creative=QNZpjiWMh-xtTiixb79gYw&utm_campaign=yelp_api_v3&utm_medium=api_v3_business_search&utm_source=QNZpjiWMh-xtTiixb79gYw","1","Pizza","4","43.1949019009048","-88.7275482579307","","306 W Main St"
"FdsYo_gJX3H1uIGFAij2mA","Golden Dragon Restaurant & Lounge","FALSE","https://www.yelp.com/biz/golden-dragon-restaurant-and-lounge-watertown?adjust_creative=QNZpjiWMh-xtTiixb79gYw&utm_campaign=yelp_api_v3&utm_medium=api_v3_business_search&utm_source=QNZpjiWMh-xtTiixb79gYw","1","Restaurants","1","43.1940040588379","-88.7194595336914","$$","516 E Main St"
"rLabg7plOVinHMj8Q0mMSA","Subway","FALSE","https://www.yelp.com/biz/subway-watertown-13?adjust_creative=QNZpjiWMh-xtTiixb79gYw&utm_campaign=yelp_api_v3&utm_medium=api_v3_business_search&utm_source=QNZpjiWMh-xtTiixb79gYw","2","Sandwiches | Fast Food","3.5","43.175059184432","-88.731931373477","$","1684 S Church St"
"7hwV6f56HAraiqVJSBiWUA","C D Beck's Cafe","FALSE","https://www.yelp.com/biz/c-d-becks-cafe-watertown?adjust_creative=QNZpjiWMh-xtTiixb79gYw&utm_campaign=yelp_api_v3&utm_medium=api_v3_business_search&utm_source=QNZpjiWMh-xtTiixb79gYw","1","Restaurants","3","43.194450378418","-88.7232360839844","$","116 E Main St"
"6KIaUudm0yQF3m01u4UYsg","Watertown Family Restaurant","FALSE","https://www.yelp.com/biz/watertown-family-restaurant-watertown?adjust_creative=QNZpjiWMh-xtTiixb79gYw&utm_campaign=yelp_api_v3&utm_medium=api_v3_business_search&utm_source=QNZpjiWMh-xtTiixb79gYw","1","Restaurants","2","43.1878699","-88.72904","","605 S Church St"
"CpGgVwfAwLjKKlTHV3nPZA","KFC","FALSE","https://www.yelp.com/biz/kfc-watertown-3?adjust_creative=QNZpjiWMh-xtTiixb79gYw&utm_campaign=yelp_api_v3&utm_medium=api_v3_business_search&utm_source=QNZpjiWMh-xtTiixb79gYw","5","Fast Food | Chicken Wings | Chicken Shop","1","43.1829","-88.7298","$$","1212 Utah St"
"5YhZ0HCsb84JowKEvvxdgA","Subway","FALSE","https://www.yelp.com/biz/subway-watertown-24?adjust_creative=QNZpjiWMh-xtTiixb79gYw&utm_campaign=yelp_api_v3&utm_medium=api_v3_business_search&utm_source=QNZpjiWMh-xtTiixb79gYw","1","Fast Food | Sandwiches","1","43.2009663","-88.7013978","","1303 Memorial Dr"
"TgRfRjH0H_0ggwNjA6CneA","Pizza Hut","FALSE","https://www.yelp.com/biz/pizza-hut-watertown-9?adjust_creative=QNZpjiWMh-xtTiixb79gYw&utm_campaign=yelp_api_v3&utm_medium=api_v3_business_search&utm_source=QNZpjiWMh-xtTiixb79gYw","1","Pizza","1","43.182468","-88.730049","","1214 Utah St"
"SWn24CWaATXgYAJW_CkPEA","Hardee's","FALSE","https://www.yelp.com/biz/hardees-watertown?adjust_creative=QNZpjiWMh-xtTiixb79gYw&utm_campaign=yelp_api_v3&utm_medium=api_v3_business_search&utm_source=QNZpjiWMh-xtTiixb79gYw","3","Fast Food","4","43.1931801","-88.717392","","715 E Main St"
"oumtkR76kU5uyEdZa8Xc4A","Golden Wok Restaurant & Carry-Out","FALSE","https://www.yelp.com/biz/golden-wok-restaurant-and-carry-out-watertown?adjust_creative=QNZpjiWMh-xtTiixb79gYw&utm_campaign=yelp_api_v3&utm_medium=api_v3_business_search&utm_source=QNZpjiWMh-xtTiixb79gYw","1","Restaurants","1","43.1762038171291","-88.7317509949207","","1632 S Church St"
"hqGHDBk2m8H48XxsysTQGQ","Domino's Pizza","FALSE","https://www.yelp.com/biz/dominos-pizza-watertown-3?adjust_creative=QNZpjiWMh-xtTiixb79gYw&utm_campaign=yelp_api_v3&utm_medium=api_v3_business_search&utm_source=QNZpjiWMh-xtTiixb79gYw","1","Pizza | Chicken Wings | Sandwiches","1","43.1923141479492","-88.7144088745117","","1009 E Main St"
"q4ruL-NZ8T_D1VkjNrQ2ug","Crawfish Junction","FALSE","https://www.yelp.com/biz/crawfish-junction-johnson-creek?adjust_creative=QNZpjiWMh-xtTiixb79gYw&utm_campaign=yelp_api_v3&utm_medium=api_v3_business_search&utm_source=QNZpjiWMh-xtTiixb79gYw","54","Bars | Burgers | Seafood","4","43.100925","-88.849227","$$","W6376 County Rd A"
"r1stgbyz4KS5bBtFCiEx4g","Zephyr Cafe","FALSE","https://www.yelp.com/biz/zephyr-cafe-lake-mills?adjust_creative=QNZpjiWMh-xtTiixb79gYw&utm_campaign=yelp_api_v3&utm_medium=api_v3_business_search&utm_source=QNZpjiWMh-xtTiixb79gYw","7","Diners | Breakfast & Brunch | Cafes","3.5","43.09612","-88.909101","$","N6919 State Rd 89"
"esI0T3_FFTlja_7c8VTT6g","Milford Hills Hunt Club","FALSE","https://www.yelp.com/biz/milford-hills-hunt-club-johnson-creek-2?adjust_creative=QNZpjiWMh-xtTiixb79gYw&utm_campaign=yelp_api_v3&utm_medium=api_v3_business_search&utm_source=QNZpjiWMh-xtTiixb79gYw","13","American (New) | Gun/Rifle Ranges | Venues & Event Spaces","4.5","43.1349549","-88.8108734","$$","W5670 French Rd"
"hWLkZBq0pEql3KujjKWRrA","Lake Street Inn","FALSE","https://www.yelp.com/biz/lake-street-inn-hustisford?adjust_creative=QNZpjiWMh-xtTiixb79gYw&utm_campaign=yelp_api_v3&utm_medium=api_v3_business_search&utm_source=QNZpjiWMh-xtTiixb79gYw","3","American (New) | Burgers | Bars","5","43.3471333","-88.600919","","147 N Lake St"
"kHslYpH8hm4kKsREHmCd5g","The Blew Inn","FALSE","https://www.yelp.com/biz/the-blew-inn-juneau?adjust_creative=QNZpjiWMh-xtTiixb79gYw&utm_campaign=yelp_api_v3&utm_medium=api_v3_business_search&utm_source=QNZpjiWMh-xtTiixb79gYw","13","Cantonese | American (Traditional)","3","43.34613754833","-88.660171164418","$$","W7115 State Road 60-16"
"oDrnVYVtW7hgTUPzyluadQ","Joan's Country Cook'n","FALSE","https://www.yelp.com/biz/joans-country-cookn-hustisford?adjust_creative=QNZpjiWMh-xtTiixb79gYw&utm_campaign=yelp_api_v3&utm_medium=api_v3_business_search&utm_source=QNZpjiWMh-xtTiixb79gYw","1","Breakfast & Brunch","5","43.342113494873","-88.5949325561523","","469 Rubicon St"
"0TpwR2611MneSypsFidvkw","Hauser's Hideaway","FALSE","https://www.yelp.com/biz/hausers-hideaway-rubicon?adjust_creative=QNZpjiWMh-xtTiixb79gYw&utm_campaign=yelp_api_v3&utm_medium=api_v3_business_search&utm_source=QNZpjiWMh-xtTiixb79gYw","1","Dive Bars | American (Traditional)","5","43.339897","-88.458465","","N4095 County Road P"
"Nl9PLKnEHEEYx3TipfZg3w","On the Rock's","FALSE","https://www.yelp.com/biz/on-the-rocks-neosho-3?adjust_creative=QNZpjiWMh-xtTiixb79gYw&utm_campaign=yelp_api_v3&utm_medium=api_v3_business_search&utm_source=QNZpjiWMh-xtTiixb79gYw","1","American (Traditional) | Bars | Pizza","4","43.31348","-88.518","","211 N Schuyler St"
"HCAB_eV0WM4uVs9MaFHzpA","Crossroads Inn","FALSE","https://www.yelp.com/biz/crossroads-inn-rubicon?adjust_creative=QNZpjiWMh-xtTiixb79gYw&utm_campaign=yelp_api_v3&utm_medium=api_v3_business_search&utm_source=QNZpjiWMh-xtTiixb79gYw","1","American (New)","5","43.32607","-88.458368","","N3706 Cty Tk P"
"ErgzcqwaSuleWet3fcqKhg","Subway","FALSE","https://www.yelp.com/biz/subway-hartford-7?adjust_creative=QNZpjiWMh-xtTiixb79gYw&utm_campaign=yelp_api_v3&utm_medium=api_v3_business_search&utm_source=QNZpjiWMh-xtTiixb79gYw","1","Sandwiches | Fast Food","5","43.3248023986816","-88.4004287719727","","1220 Theil St"
"M24PHcVS5VzuKEvdWqzUzg","Harvest Market","FALSE","https://www.yelp.com/biz/harvest-market-watertown?adjust_creative=QNZpjiWMh-xtTiixb79gYw&utm_campaign=yelp_api_v3&utm_medium=api_v3_business_search&utm_source=QNZpjiWMh-xtTiixb79gYw","4","Cafes","5","43.2013664245605","-88.6977615356445","$","125 Hospital Dr"
"DqixWll2q25kGbdt2J09aQ","On the Rock","FALSE","https://www.yelp.com/biz/on-the-rock-watertown?adjust_creative=QNZpjiWMh-xtTiixb79gYw&utm_campaign=yelp_api_v3&utm_medium=api_v3_business_search&utm_source=QNZpjiWMh-xtTiixb79gYw","11","American (Traditional) | Pizza | Sandwiches","3.5","43.18158","-88.69082","$$","1601 E Gate Dr"
"k6isglc5C5_khJJ7-mKcjg","Pribnow's Maple Inn","FALSE","https://www.yelp.com/biz/pribnows-maple-inn-ixonia?adjust_creative=QNZpjiWMh-xtTiixb79gYw&utm_campaign=yelp_api_v3&utm_medium=api_v3_business_search&utm_source=QNZpjiWMh-xtTiixb79gYw","7","Venues & Event Spaces | Steakhouses","4.5","43.2240477204323","-88.5198457539082","$$","N887 State Road 67"
"pLOjU7Y18eDBW0VRpwnbBA","Tommy & Di's Rustic Inn","FALSE","https://www.yelp.com/biz/tommy-and-dis-rustic-inn-oconomowoc-3?adjust_creative=QNZpjiWMh-xtTiixb79gYw&utm_campaign=yelp_api_v3&utm_medium=api_v3_business_search&utm_source=QNZpjiWMh-xtTiixb79gYw","25","Sports Bars | Burgers | Pizza","3","43.178428","-88.459119","$$","8739 Brown St"
"3tAELmZc9H8gaPmLFdDxqw","Cindi & Mike's Trackside Bar & Grill","FALSE","https://www.yelp.com/biz/cindi-and-mikes-trackside-bar-and-grill-ashippun?adjust_creative=QNZpjiWMh-xtTiixb79gYw&utm_campaign=yelp_api_v3&utm_medium=api_v3_business_search&utm_source=QNZpjiWMh-xtTiixb79gYw","1","Breakfast & Brunch | Burgers | Pizza","4","43.2118988037109","-88.5160980224609","","W 2453 Oak St"
