"ID","Name","Is_Closed","URL","Review_Count","Categories","Rating","Latitude","Longitude","Price","Address"
"CVQHCE1gUISA44FRiqe65g","Mr & Mrs P's Eatery","FALSE","https://www.yelp.com/biz/mr-and-mrs-ps-eatery-ripon?adjust_creative=QNZpjiWMh-xtTiixb79gYw&utm_campaign=yelp_api_v3&utm_medium=api_v3_business_search&utm_source=QNZpjiWMh-xtTiixb79gYw","55","Bakeries | Breakfast & Brunch","4.5","43.8542823791504","-88.8601913452148","$$","1100 W Fond Du Lac St"
"S_hlfiPH_rQMh62eM1YxMw","J's BBQ","FALSE","https://www.yelp.com/biz/js-bbq-ripon?adjust_creative=QNZpjiWMh-xtTiixb79gYw&utm_campaign=yelp_api_v3&utm_medium=api_v3_business_search&utm_source=QNZpjiWMh-xtTiixb79gYw","45","Barbeque","4.5","43.84313","-88.83844","$$","333 Watson St"
"IBFdUTf9EL9R4JEhsIw5dw","Knuth Brewing Company","FALSE","https://www.yelp.com/biz/knuth-brewing-company-ripon-2?adjust_creative=QNZpjiWMh-xtTiixb79gYw&utm_campaign=yelp_api_v3&utm_medium=api_v3_business_search&utm_source=QNZpjiWMh-xtTiixb79gYw","51","Coffee & Tea | Breweries | Pizza","4.5","43.8446799","-88.83863","$$","221 Watson St"
"7lm230lFQ7kDnfpDTP468Q","Pastimes Pub & Grille","FALSE","https://www.yelp.com/biz/pastimes-pub-and-grille-ripon?adjust_creative=QNZpjiWMh-xtTiixb79gYw&utm_campaign=yelp_api_v3&utm_medium=api_v3_business_search&utm_source=QNZpjiWMh-xtTiixb79gYw","17","American (Traditional)","4","43.8455467224121","-88.8376846313477","$","120 Scott St"
"J8ibbI0T4TJJ8dUprJRnDg","El Fogón","FALSE","https://www.yelp.com/biz/el-fog%C3%B3n-ripon-3?adjust_creative=QNZpjiWMh-xtTiixb79gYw&utm_campaign=yelp_api_v3&utm_medium=api_v3_business_search&utm_source=QNZpjiWMh-xtTiixb79gYw","18","Mexican","4.5","43.8507657","-88.8515817","$$","800 W Fond Du Lac St"
"UuUnOM9DJ1eNVcNPyYe1WA","Roadhouse Pizza","FALSE","https://www.yelp.com/biz/roadhouse-pizza-ripon?adjust_creative=QNZpjiWMh-xtTiixb79gYw&utm_campaign=yelp_api_v3&utm_medium=api_v3_business_search&utm_source=QNZpjiWMh-xtTiixb79gYw","30","Pizza | Bars | American (Traditional)","4.5","43.84612","-88.83931","$$","102 Watson St"
"cKa3MRGRXzkd1cs6jzujmA","Romelia's","FALSE","https://www.yelp.com/biz/romelias-ripon?adjust_creative=QNZpjiWMh-xtTiixb79gYw&utm_campaign=yelp_api_v3&utm_medium=api_v3_business_search&utm_source=QNZpjiWMh-xtTiixb79gYw","4","Mexican","4","43.8456136347271","-88.8386770714116","$","119 Watosn St"
"YADmIxPmKbKdn7vbaK2iAg","Ripon Family Restaurant","FALSE","https://www.yelp.com/biz/ripon-family-restaurant-ripon-3?adjust_creative=QNZpjiWMh-xtTiixb79gYw&utm_campaign=yelp_api_v3&utm_medium=api_v3_business_search&utm_source=QNZpjiWMh-xtTiixb79gYw","12","Diners","3.5","43.85015","-88.84911","$","708 W Fond Du Lac St"
"N1IJ823Xrs7JpipjgUZODw","Mugs Coffee House","FALSE","https://www.yelp.com/biz/mugs-coffee-house-ripon?adjust_creative=QNZpjiWMh-xtTiixb79gYw&utm_campaign=yelp_api_v3&utm_medium=api_v3_business_search&utm_source=QNZpjiWMh-xtTiixb79gYw","22","Coffee & Tea | Sandwiches","4.5","43.8438491821289","-88.8384323120117","$","307 Watson St"
"SIgJ2lF66dRAUSfDXcG0yQ","Farmers Daughter Country Kitchen","FALSE","https://www.yelp.com/biz/farmers-daughter-country-kitchen-waukau-5?adjust_creative=QNZpjiWMh-xtTiixb79gYw&utm_campaign=yelp_api_v3&utm_medium=api_v3_business_search&utm_source=QNZpjiWMh-xtTiixb79gYw","3","Breakfast & Brunch | American (Traditional)","2.5","43.98195","-88.771381","$","7431 State Rd 91"
"D_ZdxMx5hd45HhpKPBRGKA","Kristina's Family Cafe","FALSE","https://www.yelp.com/biz/kristinas-family-cafe-ripon?adjust_creative=QNZpjiWMh-xtTiixb79gYw&utm_campaign=yelp_api_v3&utm_medium=api_v3_business_search&utm_source=QNZpjiWMh-xtTiixb79gYw","9","Restaurants","3.5","43.843566","-88.8386751","$$","317 Watson St"
"zJcPCu_DYwkAI6D91SDNyg","China One","FALSE","https://www.yelp.com/biz/china-one-ripon?adjust_creative=QNZpjiWMh-xtTiixb79gYw&utm_campaign=yelp_api_v3&utm_medium=api_v3_business_search&utm_source=QNZpjiWMh-xtTiixb79gYw","11","Chinese","4","43.8509674072266","-88.8537292480469","$","821 W Fond Du Lac St"
"_5PAFxd5TzVaEIvGG8d58A","Eureka Landings Bar & Grill","FALSE","https://www.yelp.com/biz/eureka-landings-bar-and-grill-eureka?adjust_creative=QNZpjiWMh-xtTiixb79gYw&utm_campaign=yelp_api_v3&utm_medium=api_v3_business_search&utm_source=QNZpjiWMh-xtTiixb79gYw","10","American (Traditional) | Bars","4","44.0047798","-88.842453","$$","3105 W County Trunk K"
"-q5Iksv8o-7sLaL50hGyYw","Jaspers Food Spirits","FALSE","https://www.yelp.com/biz/jaspers-food-spirits-pickett-2?adjust_creative=QNZpjiWMh-xtTiixb79gYw&utm_campaign=yelp_api_v3&utm_medium=api_v3_business_search&utm_source=QNZpjiWMh-xtTiixb79gYw","3","Pizza | Breakfast & Brunch | Sandwiches","4","43.9156002","-88.7236867","$$","6510 State Hwy 44"
"QiwIfGoq4aAS3hGZ1u8fpw","Miller's Tavern","FALSE","https://www.yelp.com/biz/millers-tavern-ripon?adjust_creative=QNZpjiWMh-xtTiixb79gYw&utm_campaign=yelp_api_v3&utm_medium=api_v3_business_search&utm_source=QNZpjiWMh-xtTiixb79gYw","7","Mexican | Bars","3","43.8428077697754","-88.8379364013672","$$","102 E Fond Du Lac St"
"eVUoPAK_fS8hTWpdqHe3gQ","Cousins Subs","FALSE","https://www.yelp.com/biz/cousins-subs-ripon?adjust_creative=QNZpjiWMh-xtTiixb79gYw&utm_campaign=yelp_api_v3&utm_medium=api_v3_business_search&utm_source=QNZpjiWMh-xtTiixb79gYw","2","Sandwiches | Delis","5","43.8523601391222","-88.8580733446486","","1075 W Fond Du Lac St"
"9B913ZFcU0lyeFdfVih4LQ","Shorties Sports Bar & Grill","FALSE","https://www.yelp.com/biz/shorties-sports-bar-and-grill-ripon?adjust_creative=QNZpjiWMh-xtTiixb79gYw&utm_campaign=yelp_api_v3&utm_medium=api_v3_business_search&utm_source=QNZpjiWMh-xtTiixb79gYw","1","Sports Bars | American (Traditional) | Pizza","5","43.8212645","-88.7608082","$","W12010 Rose Eld Rd"
"1Gx7Vyx3XcolkJCmxqVsrQ","Culver's","FALSE","https://www.yelp.com/biz/culvers-ripon?adjust_creative=QNZpjiWMh-xtTiixb79gYw&utm_campaign=yelp_api_v3&utm_medium=api_v3_business_search&utm_source=QNZpjiWMh-xtTiixb79gYw","3","Ice Cream & Frozen Yogurt | Fast Food | Burgers","2.5","43.8535423278809","-88.8587493896484","$","1086 W Fond Du Lac St"
"84kedQsdwVTBvDnugO4mSQ","Player's Bar & Grill","FALSE","https://www.yelp.com/biz/players-bar-and-grill-ripon?adjust_creative=QNZpjiWMh-xtTiixb79gYw&utm_campaign=yelp_api_v3&utm_medium=api_v3_business_search&utm_source=QNZpjiWMh-xtTiixb79gYw","2","Restaurants","4.5","43.821392","-88.76126","","W12010 Rose Eld Rd"
"w4zsDai_CF-H7okAmmCSzQ","A & W Restaurant","FALSE","https://www.yelp.com/biz/a-and-w-restaurant-ripon-2?adjust_creative=QNZpjiWMh-xtTiixb79gYw&utm_campaign=yelp_api_v3&utm_medium=api_v3_business_search&utm_source=QNZpjiWMh-xtTiixb79gYw","7","Fast Food | Burgers | Hot Dogs","2","43.842751","-88.836501","$","401 Blackburn St"
"BjH0VR3Y5zgQXoaAcbLaPQ","McDonald's","FALSE","https://www.yelp.com/biz/mcdonalds-ripon?adjust_creative=QNZpjiWMh-xtTiixb79gYw&utm_campaign=yelp_api_v3&utm_medium=api_v3_business_search&utm_source=QNZpjiWMh-xtTiixb79gYw","1","Fast Food | Burgers | Coffee & Tea","2","43.8532023479099","-88.8602247834206","$","1113 W Fond Du Lac St"
"n6ImPNw5rTM_L7zB0a5Hrg","A&W","FALSE","https://www.yelp.com/biz/a-and-w-ripon?adjust_creative=QNZpjiWMh-xtTiixb79gYw&utm_campaign=yelp_api_v3&utm_medium=api_v3_business_search&utm_source=QNZpjiWMh-xtTiixb79gYw","1","American (Traditional)","1","43.8425119026985","-88.836438","","204 E Fond Du Lac"
"XDarCaCgoG8gsyTDV1OaOA","Subway","FALSE","https://www.yelp.com/biz/subway-ripon?adjust_creative=QNZpjiWMh-xtTiixb79gYw&utm_campaign=yelp_api_v3&utm_medium=api_v3_business_search&utm_source=QNZpjiWMh-xtTiixb79gYw","2","Sandwiches | Fast Food","1","43.85207","-88.8572499","$","1061 W Fond Du Lac St"
"q92bZwsXtLMPGM2eIeyRhg","KFC","FALSE","https://www.yelp.com/biz/kfc-ripon?adjust_creative=QNZpjiWMh-xtTiixb79gYw&utm_campaign=yelp_api_v3&utm_medium=api_v3_business_search&utm_source=QNZpjiWMh-xtTiixb79gYw","3","Fast Food | Chicken Wings | Chicken Shop","2","43.8551","-88.8622","","1180 W Fond Du Lac"
"Kmcg6fG66iwgmHpiIfz1Yg","Taco Bell","FALSE","https://www.yelp.com/biz/taco-bell-ripon-2?adjust_creative=QNZpjiWMh-xtTiixb79gYw&utm_campaign=yelp_api_v3&utm_medium=api_v3_business_search&utm_source=QNZpjiWMh-xtTiixb79gYw","3","Tex-Mex | Fast Food | Mexican","1.5","43.8552435733534","-88.8621729835294","","1180 West Fond Du Lac"
"iYnci6kXJvuHIDpxyLLWlg","Domino's Pizza","FALSE","https://www.yelp.com/biz/dominos-pizza-ripon?adjust_creative=QNZpjiWMh-xtTiixb79gYw&utm_campaign=yelp_api_v3&utm_medium=api_v3_business_search&utm_source=QNZpjiWMh-xtTiixb79gYw","3","Pizza | Chicken Wings | Sandwiches","3","43.8460184633732","-88.8370840251446","","120 Blackburn St"
"Ak6md5ATL1Bb4r4jAL5QXg","Pete's Garage Bar","FALSE","https://www.yelp.com/biz/petes-garage-bar-oshkosh?adjust_creative=QNZpjiWMh-xtTiixb79gYw&utm_campaign=yelp_api_v3&utm_medium=api_v3_business_search&utm_source=QNZpjiWMh-xtTiixb79gYw","79","Bars | American (Traditional)","4.5","44.0042520314455","-88.5424473881721","$","1514 Oregon St"
"yPmdo58z3218dnqWU52JvQ","Tabbert's","FALSE","https://www.yelp.com/biz/tabberts-rosendale?adjust_creative=QNZpjiWMh-xtTiixb79gYw&utm_campaign=yelp_api_v3&utm_medium=api_v3_business_search&utm_source=QNZpjiWMh-xtTiixb79gYw","14","American (New)","4","43.8014640808105","-88.6747894287109","$","221 S Main"
"jo9QSIBd0OUxl6CDaxmUpA","Beachcomber Bar & Grill","FALSE","https://www.yelp.com/biz/beachcomber-bar-and-grill-oshkosh?adjust_creative=QNZpjiWMh-xtTiixb79gYw&utm_campaign=yelp_api_v3&utm_medium=api_v3_business_search&utm_source=QNZpjiWMh-xtTiixb79gYw","10","Bars | American (Traditional) | Burgers","4.5","43.9860156923532","-88.5336980223656","$$","2836 Fond Du Lac Rd"
"98cECwtL1XS6RIRsDjDdNw","Chester V's","FALSE","https://www.yelp.com/biz/chester-vs-oshkosh?adjust_creative=QNZpjiWMh-xtTiixb79gYw&utm_campaign=yelp_api_v3&utm_medium=api_v3_business_search&utm_source=QNZpjiWMh-xtTiixb79gYw","33","Gastropubs | Beer Bar","3.5","43.9916427069251","-88.542663641274","$$","2505 Oregon St"
"nPIJgjUQJZiIq_xCy1BZVQ","Friar Tuck's","FALSE","https://www.yelp.com/biz/friar-tucks-oshkosh?adjust_creative=QNZpjiWMh-xtTiixb79gYw&utm_campaign=yelp_api_v3&utm_medium=api_v3_business_search&utm_source=QNZpjiWMh-xtTiixb79gYw","53","American (New) | Burgers | Sandwiches","3.5","43.99383","-88.57643","$$","1651 W South Park Ave"
"DbNxCPKN_VSIhdtCJBClSQ","Planeview Travel Plaza","FALSE","https://www.yelp.com/biz/planeview-travel-plaza-oshkosh?adjust_creative=QNZpjiWMh-xtTiixb79gYw&utm_campaign=yelp_api_v3&utm_medium=api_v3_business_search&utm_source=QNZpjiWMh-xtTiixb79gYw","7","Diners","3.5","43.94786","-88.58519","$","1500 Planeview Dr"
"FE17_4bgM3aWwC25pFt4UA","Parnell's Place","FALSE","https://www.yelp.com/biz/parnells-place-oshkosh?adjust_creative=QNZpjiWMh-xtTiixb79gYw&utm_campaign=yelp_api_v3&utm_medium=api_v3_business_search&utm_source=QNZpjiWMh-xtTiixb79gYw","16","American (New)","3.5","43.98434","-88.53241","$$","2932 Fond Du Lac Rd"
"5kggHLIsU5hriGxJL7S2_g","Ardy & Ed's Drive In","FALSE","https://www.yelp.com/biz/ardy-and-eds-drive-in-oshkosh?adjust_creative=QNZpjiWMh-xtTiixb79gYw&utm_campaign=yelp_api_v3&utm_medium=api_v3_business_search&utm_source=QNZpjiWMh-xtTiixb79gYw","51","Ice Cream & Frozen Yogurt | Burgers | Hot Dogs","4","43.9924096482744","-88.5369074613769","$","2413 S Main St"
"f81QdLJrb_Pc7wJOb97xJg","Ichiban Sushi House","FALSE","https://www.yelp.com/biz/ichiban-sushi-house-oshkosh?adjust_creative=QNZpjiWMh-xtTiixb79gYw&utm_campaign=yelp_api_v3&utm_medium=api_v3_business_search&utm_source=QNZpjiWMh-xtTiixb79gYw","29","Sushi Bars | Chinese | Thai","4","43.99731","-88.57578","$$","1600 Capital Dr"
"5zW4pSca_5PejG70W1TTOQ","West End Pizza","FALSE","https://www.yelp.com/biz/west-end-pizza-oshkosh?adjust_creative=QNZpjiWMh-xtTiixb79gYw&utm_campaign=yelp_api_v3&utm_medium=api_v3_business_search&utm_source=QNZpjiWMh-xtTiixb79gYw","25","Pizza","4","43.99619","-88.57237","$","1414 W 20th Ave"
"9pwcz44n79Fx_4XsgmCEtA","The Hangar","FALSE","https://www.yelp.com/biz/the-hangar-oshkosh?adjust_creative=QNZpjiWMh-xtTiixb79gYw&utm_campaign=yelp_api_v3&utm_medium=api_v3_business_search&utm_source=QNZpjiWMh-xtTiixb79gYw","3","Bars | American (Traditional)","3.5","43.9957984443595","-88.5729970785104","","1485 W 20th Ave"
"nF7b-1Ks95EPe24VNJEgEw","Johnny Rockets","FALSE","https://www.yelp.com/biz/johnny-rockets-oshkosh?adjust_creative=QNZpjiWMh-xtTiixb79gYw&utm_campaign=yelp_api_v3&utm_medium=api_v3_business_search&utm_source=QNZpjiWMh-xtTiixb79gYw","33","Burgers | American (Traditional) | Sandwiches","2","43.9834539785846","-88.5836108672036","$$","3015 S Washburn St"
"vfSbZjzICK8khSufz0kTAA","Noodles & Company","FALSE","https://www.yelp.com/biz/noodles-and-company-oshkosh?adjust_creative=QNZpjiWMh-xtTiixb79gYw&utm_campaign=yelp_api_v3&utm_medium=api_v3_business_search&utm_source=QNZpjiWMh-xtTiixb79gYw","6","Noodles | Salad | Gluten-Free","4","44.0043616","-88.5816967","$$","1560 S Koeller St"
"ABjormf278IS-7MDXRzBTQ","Durango's Mexican Restaurant","FALSE","https://www.yelp.com/biz/durangos-mexican-restaurant-oshkosh?adjust_creative=QNZpjiWMh-xtTiixb79gYw&utm_campaign=yelp_api_v3&utm_medium=api_v3_business_search&utm_source=QNZpjiWMh-xtTiixb79gYw","37","Mexican","3.5","43.9949414134026","-88.5790575295687","$","2070 S Koeller St"
"fFBtYGLdsyPNQuE-PTHAcQ","Firehouse Subs","FALSE","https://www.yelp.com/biz/firehouse-subs-oshkosh?adjust_creative=QNZpjiWMh-xtTiixb79gYw&utm_campaign=yelp_api_v3&utm_medium=api_v3_business_search&utm_source=QNZpjiWMh-xtTiixb79gYw","12","Sandwiches","4","43.99857","-88.57951","$","1890 S Koeller St"
"EV2o-29EfJxe7ZhqtLzz8Q","Christianos Pizza","FALSE","https://www.yelp.com/biz/christianos-pizza-oshkosh?adjust_creative=QNZpjiWMh-xtTiixb79gYw&utm_campaign=yelp_api_v3&utm_medium=api_v3_business_search&utm_source=QNZpjiWMh-xtTiixb79gYw","29","Pizza | Italian","3.5","43.9984899","-88.57546","$$","1964 S Koeller St"
"QE1jQbQ3PScU56f105E0XQ","IHOP","FALSE","https://www.yelp.com/biz/ihop-oshkosh?adjust_creative=QNZpjiWMh-xtTiixb79gYw&utm_campaign=yelp_api_v3&utm_medium=api_v3_business_search&utm_source=QNZpjiWMh-xtTiixb79gYw","12","Breakfast & Brunch | American (Traditional) | Burgers","3","44.00603","-88.58149","$","1400 S Koeller St"
"7qU_TxKUjwl0Bw6qiSkhCw","Applebee's Grill + Bar","FALSE","https://www.yelp.com/biz/applebees-grill-bar-oshkosh?adjust_creative=QNZpjiWMh-xtTiixb79gYw&utm_campaign=yelp_api_v3&utm_medium=api_v3_business_search&utm_source=QNZpjiWMh-xtTiixb79gYw","30","Sports Bars | Burgers | American (Traditional)","2.5","44.0017","-88.58187","$$","1700 S Koeller Rd"
"CPM6hZ_CoLq-5UW7ax0lpw","Sliders & Treats","FALSE","https://www.yelp.com/biz/sliders-and-treats-oshkosh?adjust_creative=QNZpjiWMh-xtTiixb79gYw&utm_campaign=yelp_api_v3&utm_medium=api_v3_business_search&utm_source=QNZpjiWMh-xtTiixb79gYw","2","American (Traditional)","2.5","44.0045888006034","-88.5383560135961","","1429 S Main St"
"TKMv-PDEYemtUtzWMaiykA","Fazoli's","FALSE","https://www.yelp.com/biz/fazolis-oshkosh?adjust_creative=QNZpjiWMh-xtTiixb79gYw&utm_campaign=yelp_api_v3&utm_medium=api_v3_business_search&utm_source=QNZpjiWMh-xtTiixb79gYw","14","Italian","3","43.99841","-88.5799399","$","1875 S Koeller St"
"nA8ZHvJtpSFxwSzA_e6iig","Culver's","FALSE","https://www.yelp.com/biz/culvers-oshkosh-3?adjust_creative=QNZpjiWMh-xtTiixb79gYw&utm_campaign=yelp_api_v3&utm_medium=api_v3_business_search&utm_source=QNZpjiWMh-xtTiixb79gYw","10","Fast Food | Ice Cream & Frozen Yogurt | Burgers","3","44.00305","-88.58181","$","1580 S Koeller St"
"_Nmz5Op2_4TLa9b0cvp4kA","South Side Ice Yacht Club","FALSE","https://www.yelp.com/biz/south-side-ice-yacht-club-oshkosh?adjust_creative=QNZpjiWMh-xtTiixb79gYw&utm_campaign=yelp_api_v3&utm_medium=api_v3_business_search&utm_source=QNZpjiWMh-xtTiixb79gYw","2","Boating | Restaurants","4.5","43.9980202","-88.5370407","","1842 S Main St"
"nwJ7vU2UN6cdaAaZo3q6mA","Hardee's","FALSE","https://www.yelp.com/biz/hardees-oshkosh?adjust_creative=QNZpjiWMh-xtTiixb79gYw&utm_campaign=yelp_api_v3&utm_medium=api_v3_business_search&utm_source=QNZpjiWMh-xtTiixb79gYw","3","Burgers","3.5","43.9943667501211","-88.579068928957","$","2100 S Koeller St"
"mHYbT7miwGsMYu1zhm_G9Q","Eaton's Pizza & Subs","FALSE","https://www.yelp.com/biz/eatons-pizza-and-subs-oshkosh?adjust_creative=QNZpjiWMh-xtTiixb79gYw&utm_campaign=yelp_api_v3&utm_medium=api_v3_business_search&utm_source=QNZpjiWMh-xtTiixb79gYw","3","Pizza | Sandwiches","3.5","43.9949378967285","-88.5785140991211","$","2050 S Koeller"
"1UWwfmi3X6TP5RrumqluRA","QDOBA Mexican Eats","FALSE","https://www.yelp.com/biz/qdoba-mexican-eats-oshkosh?adjust_creative=QNZpjiWMh-xtTiixb79gYw&utm_campaign=yelp_api_v3&utm_medium=api_v3_business_search&utm_source=QNZpjiWMh-xtTiixb79gYw","16","Mexican | Fast Food","3","44.0057263357955","-88.5814493894577","$","1990 Menard Dr"
"i2sH9lwMhOXmWTy_hsaUJw","Witzke's Bar","FALSE","https://www.yelp.com/biz/witzkes-bar-oshkosh?adjust_creative=QNZpjiWMh-xtTiixb79gYw&utm_campaign=yelp_api_v3&utm_medium=api_v3_business_search&utm_source=QNZpjiWMh-xtTiixb79gYw","2","Sports Bars | Pizza | Burgers","2.5","44.0011332929134","-88.5424172133207","","1700 Oregon St"
"Cj5jYAIndkxViWuseFcdoQ","Arby's","FALSE","https://www.yelp.com/biz/arbys-oshkosh?adjust_creative=QNZpjiWMh-xtTiixb79gYw&utm_campaign=yelp_api_v3&utm_medium=api_v3_business_search&utm_source=QNZpjiWMh-xtTiixb79gYw","4","Fast Food | Sandwiches","2","43.9952316","-88.5787964","","2040 S Koeller St"
"4KwC1PO2NUaOJE6nkfcQaQ","McDonald's","FALSE","https://www.yelp.com/biz/mcdonalds-oshkosh-3?adjust_creative=QNZpjiWMh-xtTiixb79gYw&utm_campaign=yelp_api_v3&utm_medium=api_v3_business_search&utm_source=QNZpjiWMh-xtTiixb79gYw","3","Burgers | Fast Food | Coffee & Tea","2","44.0052130592264","-88.581435820106","","1995 Menard Dr"
"wd_dvkHlgsroHIrz80dbEA","Mama De Luca's Pizza","FALSE","https://www.yelp.com/biz/mama-de-lucas-pizza-oshkosh?adjust_creative=QNZpjiWMh-xtTiixb79gYw&utm_campaign=yelp_api_v3&utm_medium=api_v3_business_search&utm_source=QNZpjiWMh-xtTiixb79gYw","1","Pizza","1","43.996277153492","-88.5771954059601","","1635 W 20th Ave"
"MVH7ohklfOKVWzg-yPKXGg","Subway","FALSE","https://www.yelp.com/biz/subway-oshkosh-4?adjust_creative=QNZpjiWMh-xtTiixb79gYw&utm_campaign=yelp_api_v3&utm_medium=api_v3_business_search&utm_source=QNZpjiWMh-xtTiixb79gYw","1","Sandwiches | Fast Food","5","43.996277153492","-88.5771954059601","","1635 W 20th Ave"
"8sBscayB8uLR2mD1OCEqqw","Leahys Rustic Inn","FALSE","https://www.yelp.com/biz/leahys-rustic-inn-fairwater?adjust_creative=QNZpjiWMh-xtTiixb79gYw&utm_campaign=yelp_api_v3&utm_medium=api_v3_business_search&utm_source=QNZpjiWMh-xtTiixb79gYw","3","American (Traditional)","4","43.739645","-88.86717","$$","216 N Washington St"
"FkK1716_hZItyhFCBJ_RUw","Mel's Bar & Grill","FALSE","https://www.yelp.com/biz/mels-bar-and-grill-brandon?adjust_creative=QNZpjiWMh-xtTiixb79gYw&utm_campaign=yelp_api_v3&utm_medium=api_v3_business_search&utm_source=QNZpjiWMh-xtTiixb79gYw","1","Bars | American (Traditional)","5","43.7350890851299","-88.7819837406278","$","137 E Main St"
"wZf7ZWl32rMExfaGWfu9Ow","Lori's Bar & Grill","FALSE","https://www.yelp.com/biz/loris-bar-and-grill-oakfield?adjust_creative=QNZpjiWMh-xtTiixb79gYw&utm_campaign=yelp_api_v3&utm_medium=api_v3_business_search&utm_source=QNZpjiWMh-xtTiixb79gYw","3","Bars | Burgers","4.5","43.73374","-88.56541","$$","W8147 Co Rd Y"
"wlFXjGs3FpvZ0kRTgxY9Fg","Wendt's On the Lake","FALSE","https://www.yelp.com/biz/wendts-on-the-lake-van-dyne?adjust_creative=QNZpjiWMh-xtTiixb79gYw&utm_campaign=yelp_api_v3&utm_medium=api_v3_business_search&utm_source=QNZpjiWMh-xtTiixb79gYw","47","American (Traditional) | Seafood","4.5","43.893257","-88.468162","$$","N9699 Lakeshore Dr"
"3GQyEA6_GVJHeP3f4fogqg","TJ's Harbor Restaurant","FALSE","https://www.yelp.com/biz/tjs-harbor-restaurant-oshkosh?adjust_creative=QNZpjiWMh-xtTiixb79gYw&utm_campaign=yelp_api_v3&utm_medium=api_v3_business_search&utm_source=QNZpjiWMh-xtTiixb79gYw","70","American (New) | American (Traditional)","4","43.90826","-88.4718","$$","7098 S US Hwy 45"
"cLpKqU9u9xcf_HBOe4WVQA","Trepanier's Backyard Grill & Bar","FALSE","https://www.yelp.com/biz/trepaniers-backyard-grill-and-bar-fond-du-lac?adjust_creative=QNZpjiWMh-xtTiixb79gYw&utm_campaign=yelp_api_v3&utm_medium=api_v3_business_search&utm_source=QNZpjiWMh-xtTiixb79gYw","55","American (New) | Sandwiches | American (Traditional)","4","43.78335","-88.41447","$$","838 E Johnson St"
"a-F9RRsDwZueFFbWTOwB9g","Blanck's Lake Aire Supper Club","FALSE","https://www.yelp.com/biz/blancks-lake-aire-supper-club-fond-du-lac-2?adjust_creative=QNZpjiWMh-xtTiixb79gYw&utm_campaign=yelp_api_v3&utm_medium=api_v3_business_search&utm_source=QNZpjiWMh-xtTiixb79gYw","14","Seafood | Steakhouses","2.5","43.858679","-88.462419","$$","N8751 Lakeshore Dr"
"ln2XN1EUb4H0bLLo2sk9Sg","Annie's Fountain City Cafe","FALSE","https://www.yelp.com/biz/annies-fountain-city-cafe-fond-du-lac?adjust_creative=QNZpjiWMh-xtTiixb79gYw&utm_campaign=yelp_api_v3&utm_medium=api_v3_business_search&utm_source=QNZpjiWMh-xtTiixb79gYw","22","American (Traditional) | Coffee & Tea | Breakfast & Brunch","4.5","43.7768","-88.44728","","72 S Main St"
"YpPLVhMaLS-FZoJ6i8dETQ","Sunset On the Water","FALSE","https://www.yelp.com/biz/sunset-on-the-water-fond-du-lac?adjust_creative=QNZpjiWMh-xtTiixb79gYw&utm_campaign=yelp_api_v3&utm_medium=api_v3_business_search&utm_source=QNZpjiWMh-xtTiixb79gYw","16","Steakhouses | Burgers | Sandwiches","4","43.807859","-88.398594","$$","N7364 Winnebago Dr"
"sGASmfy_zNxH8jbCpbR8gQ","Schmitty's Bar & Grill","FALSE","https://www.yelp.com/biz/schmittys-bar-and-grill-fond-du-lac?adjust_creative=QNZpjiWMh-xtTiixb79gYw&utm_campaign=yelp_api_v3&utm_medium=api_v3_business_search&utm_source=QNZpjiWMh-xtTiixb79gYw","27","American (Traditional) | Pizza","4.5","43.79943","-88.42319","$$","N7044 Winnebago Dr"
"6M642jk9DL44cOAvARRRdQ","Theo's 24 Prime Steak's Seafood And Wine Bar","FALSE","https://www.yelp.com/biz/theos-24-prime-steaks-seafood-and-wine-bar-fond-du-lac?adjust_creative=QNZpjiWMh-xtTiixb79gYw&utm_campaign=yelp_api_v3&utm_medium=api_v3_business_search&utm_source=QNZpjiWMh-xtTiixb79gYw","18","Steakhouses | Wine Bars | Seafood","4","43.7795849","-88.4473072","$$$","24 N Main St"
"WTmF2d1Bjnzt_gYItCSFWQ","Salty's Seafood & Spirits","FALSE","https://www.yelp.com/biz/saltys-seafood-and-spirits-fond-du-lac?adjust_creative=QNZpjiWMh-xtTiixb79gYw&utm_campaign=yelp_api_v3&utm_medium=api_v3_business_search&utm_source=QNZpjiWMh-xtTiixb79gYw","33","Seafood","4","43.7925338745117","-88.4390487670898","$$","503 N Park Ave"
"ZuMudQ_2KyfrVorPGfvUgQ","Schreiner's Restaurant","FALSE","https://www.yelp.com/biz/schreiners-restaurant-fond-du-lac?adjust_creative=QNZpjiWMh-xtTiixb79gYw&utm_campaign=yelp_api_v3&utm_medium=api_v3_business_search&utm_source=QNZpjiWMh-xtTiixb79gYw","72","Bakeries | American (Traditional)","3.5","43.78345","-88.48082","$$","168 N Pioneer Rd"
"Ra90QpHjSSW8hQ2nuPIRCw","Casa Del Tequila","FALSE","https://www.yelp.com/biz/casa-del-tequila-fond-du-lac?adjust_creative=QNZpjiWMh-xtTiixb79gYw&utm_campaign=yelp_api_v3&utm_medium=api_v3_business_search&utm_source=QNZpjiWMh-xtTiixb79gYw","62","Mexican","4","43.7926483154297","-88.4734497070312","$$","525 N Peters Ave"
"E7ViiurCIRZpy0cHWDBh7A","Pamela's Bar & Grille","FALSE","https://www.yelp.com/biz/pamelas-bar-and-grille-fond-du-lac?adjust_creative=QNZpjiWMh-xtTiixb79gYw&utm_campaign=yelp_api_v3&utm_medium=api_v3_business_search&utm_source=QNZpjiWMh-xtTiixb79gYw","7","Bars | American (New)","3.5","43.8168603650614","-88.3769242908052","$$","N7640 County Road Wh"
"-jgX3aIam7g6mm_qDnYIzQ","Fat Joes","FALSE","https://www.yelp.com/biz/fat-joes-fond-du-lac?adjust_creative=QNZpjiWMh-xtTiixb79gYw&utm_campaign=yelp_api_v3&utm_medium=api_v3_business_search&utm_source=QNZpjiWMh-xtTiixb79gYw","42","Burgers | Sports Bars","4","43.7787395320047","-88.4476828862365","$$","15 W Division St"
"L8CGhTJIbY370S26KukcnA","Eden Grill","FALSE","https://www.yelp.com/biz/eden-grill-fond-du-lac?adjust_creative=QNZpjiWMh-xtTiixb79gYw&utm_campaign=yelp_api_v3&utm_medium=api_v3_business_search&utm_source=QNZpjiWMh-xtTiixb79gYw","9","American (Traditional) | Burgers | Salad","4","43.8170538263233","-88.3854115702915","$","N7591 Taycheedah Way"
"1SOl1c83VTojkT_HnQks0Q","Coliseum","FALSE","https://www.yelp.com/biz/coliseum-fond-du-lac-2?adjust_creative=QNZpjiWMh-xtTiixb79gYw&utm_campaign=yelp_api_v3&utm_medium=api_v3_business_search&utm_source=QNZpjiWMh-xtTiixb79gYw","29","American (Traditional) | Sports Bars","3.5","43.7762985229492","-88.4466247558594","$","91 S Main St"
"RLPoyNLY4C6fTNfBaF_s6Q","Ala Roma Pizzeria & Pub","FALSE","https://www.yelp.com/biz/ala-roma-pizzeria-and-pub-fond-du-lac?adjust_creative=QNZpjiWMh-xtTiixb79gYw&utm_campaign=yelp_api_v3&utm_medium=api_v3_business_search&utm_source=QNZpjiWMh-xtTiixb79gYw","70","Pizza | Pubs | Italian","4","43.7833700312964","-88.4794743060498","$$","171 N Pioneer Rd"
"mLFRelXhj7Knb64vDwqzlg","King's Chef","FALSE","https://www.yelp.com/biz/kings-chef-fond-du-lac-2?adjust_creative=QNZpjiWMh-xtTiixb79gYw&utm_campaign=yelp_api_v3&utm_medium=api_v3_business_search&utm_source=QNZpjiWMh-xtTiixb79gYw","13","Chinese | Seafood","4","43.7836767333753","-88.4034166259775","$","1151 E Johnson St"
"F0xZzbwsxE8nmBD5l1a2Tw","Oasis Family Restaurant","FALSE","https://www.yelp.com/biz/oasis-family-restaurant-fond-du-lac?adjust_creative=QNZpjiWMh-xtTiixb79gYw&utm_campaign=yelp_api_v3&utm_medium=api_v3_business_search&utm_source=QNZpjiWMh-xtTiixb79gYw","8","American (New) | American (Traditional) | Mexican","4","43.78807","-88.44649","$","339 N Main St"
"-0BsXQQa6K9kdBOVgqd4Qw","Fuji Yummy","FALSE","https://www.yelp.com/biz/fuji-yummy-fond-du-lac-2?adjust_creative=QNZpjiWMh-xtTiixb79gYw&utm_campaign=yelp_api_v3&utm_medium=api_v3_business_search&utm_source=QNZpjiWMh-xtTiixb79gYw","27","Japanese | Steakhouses | Salad","3.5","43.7846122180098","-88.472611034249","$$","221 N Peters Ave"
"jApZL7e-RTF4nzc6--kiUw","2.0 Ale House","FALSE","https://www.yelp.com/biz/2-0-ale-house-fond-du-lac?adjust_creative=QNZpjiWMh-xtTiixb79gYw&utm_campaign=yelp_api_v3&utm_medium=api_v3_business_search&utm_source=QNZpjiWMh-xtTiixb79gYw","5","American (Traditional) | Beer Bar | Karaoke","3.5","43.780630097646","-88.4466398879886","$","65 N Main St"
"SLfCUodsTy0R9Kh_Xa9SDQ","Downtown Deli To Go","FALSE","https://www.yelp.com/biz/downtown-deli-to-go-fond-du-lac?adjust_creative=QNZpjiWMh-xtTiixb79gYw&utm_campaign=yelp_api_v3&utm_medium=api_v3_business_search&utm_source=QNZpjiWMh-xtTiixb79gYw","7","Delis | Breakfast & Brunch | Sandwiches","4.5","43.77666","-88.44729","$","74 S Main St"
"offAFGrDSYNKN1jDy9XaJg","Friar Tuck's","FALSE","https://www.yelp.com/biz/friar-tucks-fond-du-lac?adjust_creative=QNZpjiWMh-xtTiixb79gYw&utm_campaign=yelp_api_v3&utm_medium=api_v3_business_search&utm_source=QNZpjiWMh-xtTiixb79gYw","35","Burgers | Sandwiches | Soup","3","43.78426","-88.46906","$","570 W Johnson St"
"HorcLWx3qs5jaIHoHRU1CA","Gino's Italian Restaurant","FALSE","https://www.yelp.com/biz/ginos-italian-restaurant-fond-du-lac-4?adjust_creative=QNZpjiWMh-xtTiixb79gYw&utm_campaign=yelp_api_v3&utm_medium=api_v3_business_search&utm_source=QNZpjiWMh-xtTiixb79gYw","25","Italian","3.5","43.783883","-88.4693677","$$","584 W Johnson St"
"LiNtg-RE4rAGjgL1sSlPPA","Mad Max's The Stretch Restaurant","FALSE","https://www.yelp.com/biz/mad-maxs-the-stretch-restaurant-fond-du-lac?adjust_creative=QNZpjiWMh-xtTiixb79gYw&utm_campaign=yelp_api_v3&utm_medium=api_v3_business_search&utm_source=QNZpjiWMh-xtTiixb79gYw","4","Sandwiches | Breakfast & Brunch | Burgers","2.5","43.80502","-88.49532","$$","565 N Pioneer Rd"
"aBbctxnpEAhi5VxpdMBvew","Panera Bread","FALSE","https://www.yelp.com/biz/panera-bread-fond-du-lac-2?adjust_creative=QNZpjiWMh-xtTiixb79gYw&utm_campaign=yelp_api_v3&utm_medium=api_v3_business_search&utm_source=QNZpjiWMh-xtTiixb79gYw","14","Salad | Soup | Sandwiches","3","43.7848967","-88.4751867","$$","771 W Johnson St"
"hZbfnub3Dny-lwv7AxuBxg","Tucker's Hamburgers","FALSE","https://www.yelp.com/biz/tuckers-hamburgers-fond-du-lac-2?adjust_creative=QNZpjiWMh-xtTiixb79gYw&utm_campaign=yelp_api_v3&utm_medium=api_v3_business_search&utm_source=QNZpjiWMh-xtTiixb79gYw","9","Hot Dogs | Burgers","3.5","43.783759","-88.463671","$","444 W Johnson St"
"xtGlhp_9j51FR0HLvsyTJQ","La Mexicana Minimart & Restaurant","FALSE","https://www.yelp.com/biz/la-mexicana-minimart-and-restaurant-fond-du-lac-2?adjust_creative=QNZpjiWMh-xtTiixb79gYw&utm_campaign=yelp_api_v3&utm_medium=api_v3_business_search&utm_source=QNZpjiWMh-xtTiixb79gYw","1","Mexican | Bakeries | Breakfast & Brunch","5","43.77855","-88.45372","","174 W Division St"
"dV-45o8zVj_wyalbqwnwuA","Faros Family Restaurant","FALSE","https://www.yelp.com/biz/faros-family-restaurant-fond-du-lac?adjust_creative=QNZpjiWMh-xtTiixb79gYw&utm_campaign=yelp_api_v3&utm_medium=api_v3_business_search&utm_source=QNZpjiWMh-xtTiixb79gYw","19","American (New) | Greek | Mexican","3","43.7820167541504","-88.4811401367188","$$","131 N Pioneer Rd"
"qdSDdKDi6yfJ8LyOEMsbsQ","Riviera Maya Mexican Bar & Grill","FALSE","https://www.yelp.com/biz/riviera-maya-mexican-bar-and-grill-fond-du-lac-3?adjust_creative=QNZpjiWMh-xtTiixb79gYw&utm_campaign=yelp_api_v3&utm_medium=api_v3_business_search&utm_source=QNZpjiWMh-xtTiixb79gYw","9","American (New) | Mexican","3.5","43.78475","-88.46998","$$","609 W Johnson St"
"w4THYLB9xYBhin3jlxuwFw","Applebee's Grill + Bar","FALSE","https://www.yelp.com/biz/applebees-grill-bar-fond-du-lac?adjust_creative=QNZpjiWMh-xtTiixb79gYw&utm_campaign=yelp_api_v3&utm_medium=api_v3_business_search&utm_source=QNZpjiWMh-xtTiixb79gYw","16","Sports Bars | Burgers | American (Traditional)","3","43.7849928","-88.477944","$$","841 W Johnson St"
"k-KMlF-YXftSEOq-9gkwlQ","Yummy Chinese Restaurant","FALSE","https://www.yelp.com/biz/yummy-chinese-restaurant-fond-du-lac?adjust_creative=QNZpjiWMh-xtTiixb79gYw&utm_campaign=yelp_api_v3&utm_medium=api_v3_business_search&utm_source=QNZpjiWMh-xtTiixb79gYw","11","Chinese","3.5","43.78224","-88.41448","$$","129 University Dr"
"x-XGAGKqf-ueK1g8_KhTgQ","Eaton's Fresh Pizza","FALSE","https://www.yelp.com/biz/eatons-fresh-pizza-fond-du-lac-5?adjust_creative=QNZpjiWMh-xtTiixb79gYw&utm_campaign=yelp_api_v3&utm_medium=api_v3_business_search&utm_source=QNZpjiWMh-xtTiixb79gYw","3","Pizza","3.5","43.7836659","-88.4628285","$","196 N Hickory St"
"nRQgQaDEPzdhSUyHC3d3nw","Press Box","FALSE","https://www.yelp.com/biz/press-box-fond-du-lac?adjust_creative=QNZpjiWMh-xtTiixb79gYw&utm_campaign=yelp_api_v3&utm_medium=api_v3_business_search&utm_source=QNZpjiWMh-xtTiixb79gYw","8","Sports Bars | Sandwiches","4","43.7777","-88.45592","","251 Forest Ave"
"w_EWgyztkjeedKFqNPJiIA","Buffalo Wild Wings","FALSE","https://www.yelp.com/biz/buffalo-wild-wings-fond-du-lac?adjust_creative=QNZpjiWMh-xtTiixb79gYw&utm_campaign=yelp_api_v3&utm_medium=api_v3_business_search&utm_source=QNZpjiWMh-xtTiixb79gYw","16","American (Traditional) | Chicken Wings | Sports Bars","2.5","43.78187","-88.48175","$$","121 N. Pioneer Road"
"NuDiaGzXGJHKTTCETXjn_Q","Joe's Fox Hut","FALSE","https://www.yelp.com/biz/joes-fox-hut-fond-du-lac?adjust_creative=QNZpjiWMh-xtTiixb79gYw&utm_campaign=yelp_api_v3&utm_medium=api_v3_business_search&utm_source=QNZpjiWMh-xtTiixb79gYw","21","Pizza | Burgers | Chicken Wings","4","43.78011","-88.44669","$","41 N Main St"
"lPo0Ib3mJMxeScNcz0FphA","Jet's Pizza","FALSE","https://www.yelp.com/biz/jets-pizza-fond-du-lac?adjust_creative=QNZpjiWMh-xtTiixb79gYw&utm_campaign=yelp_api_v3&utm_medium=api_v3_business_search&utm_source=QNZpjiWMh-xtTiixb79gYw","6","Pizza","4","43.7856014420371","-88.4030430066262","$$","1111 E Johnson St"
"9PmnzCxVGd_-pAnsTWu7JA","Fazoli's","FALSE","https://www.yelp.com/biz/fazolis-fond-du-lac?adjust_creative=QNZpjiWMh-xtTiixb79gYw&utm_campaign=yelp_api_v3&utm_medium=api_v3_business_search&utm_source=QNZpjiWMh-xtTiixb79gYw","8","Italian","3","43.7851486206055","-88.4809722900391","$","256 N Pioneer Rd"
"BiGDARDjV49GoYcqwuD7sw","Hardee's","FALSE","https://www.yelp.com/biz/hardees-fond-du-lac?adjust_creative=QNZpjiWMh-xtTiixb79gYw&utm_campaign=yelp_api_v3&utm_medium=api_v3_business_search&utm_source=QNZpjiWMh-xtTiixb79gYw","8","Fast Food | American (Traditional)","3.5","43.784767","-88.4746","$","775 W Johnson St"
"xISx4alpRyj6ZnLBWGcmRg","Noodles & Company","FALSE","https://www.yelp.com/biz/noodles-and-company-fond-du-lac?adjust_creative=QNZpjiWMh-xtTiixb79gYw&utm_campaign=yelp_api_v3&utm_medium=api_v3_business_search&utm_source=QNZpjiWMh-xtTiixb79gYw","3","Noodles | Salad | Soup","4.5","43.7848236858619","-88.4739179905119","","729 West Johnson St"
"u6Ozh8GkMw5V3qR8FH8nww","Chinatown Kitchen","FALSE","https://www.yelp.com/biz/chinatown-kitchen-fond-du-lac?adjust_creative=QNZpjiWMh-xtTiixb79gYw&utm_campaign=yelp_api_v3&utm_medium=api_v3_business_search&utm_source=QNZpjiWMh-xtTiixb79gYw","14","Chinese","2.5","43.7794189453125","-88.4473342895508","$","18 N Main St"
"wD8SiZb6hwl-MGn9xMbTqg","Pizza Ranch","FALSE","https://www.yelp.com/biz/pizza-ranch-fond-du-lac?adjust_creative=QNZpjiWMh-xtTiixb79gYw&utm_campaign=yelp_api_v3&utm_medium=api_v3_business_search&utm_source=QNZpjiWMh-xtTiixb79gYw","16","Pizza","3.5","43.78515","-88.49118","$$","1235 W Johnson St"
"RLSKnRBysLpcFj39IQJmnA","Sub King","FALSE","https://www.yelp.com/biz/sub-king-fond-du-lac?adjust_creative=QNZpjiWMh-xtTiixb79gYw&utm_campaign=yelp_api_v3&utm_medium=api_v3_business_search&utm_source=QNZpjiWMh-xtTiixb79gYw","1","Sandwiches","5","43.7844892591238","-88.4754846990108","$","835 W Johnson St"
"TZ0TMNChgsIS83JZkOz4FA","Back Stage Bar and Grill","FALSE","https://www.yelp.com/biz/back-stage-bar-and-grill-fond-du-lac?adjust_creative=QNZpjiWMh-xtTiixb79gYw&utm_campaign=yelp_api_v3&utm_medium=api_v3_business_search&utm_source=QNZpjiWMh-xtTiixb79gYw","3","Bars | American (Traditional)","4.5","43.78167","-88.44691","","101 North Main St"
"87ZiMhTSX4J2iBNkDejD2A","Sombrero's Restaurant","FALSE","https://www.yelp.com/biz/sombreros-restaurant-fond-du-lac?adjust_creative=QNZpjiWMh-xtTiixb79gYw&utm_campaign=yelp_api_v3&utm_medium=api_v3_business_search&utm_source=QNZpjiWMh-xtTiixb79gYw","13","Mexican | American (Traditional)","2.5","43.789410465723","-88.4817846059971","$$","445 N Pioneer Rd"
"PXFGwHmiQqL5P7fGWt969Q","Rocky Rococo Pan Style Pizza","FALSE","https://www.yelp.com/biz/rocky-rococo-pan-style-pizza-fond-du-lac?adjust_creative=QNZpjiWMh-xtTiixb79gYw&utm_campaign=yelp_api_v3&utm_medium=api_v3_business_search&utm_source=QNZpjiWMh-xtTiixb79gYw","7","Pizza","3.5","43.7839","-88.47624","$","774 W Johnson St"
"PSVqh2AjzqlZe8QRs-U1jA","Panda Express","FALSE","https://www.yelp.com/biz/panda-express-fond-du-lac?adjust_creative=QNZpjiWMh-xtTiixb79gYw&utm_campaign=yelp_api_v3&utm_medium=api_v3_business_search&utm_source=QNZpjiWMh-xtTiixb79gYw","11","Chinese | Fast Food","3","43.78494","-88.47853","$$","859 W Johnson St"
"YDIjY6UqTvZqIHkWrjzhvg","A&W Drive In","FALSE","https://www.yelp.com/biz/a-and-w-drive-in-fond-du-lac?adjust_creative=QNZpjiWMh-xtTiixb79gYw&utm_campaign=yelp_api_v3&utm_medium=api_v3_business_search&utm_source=QNZpjiWMh-xtTiixb79gYw","7","Fast Food","4","43.7929649353027","-88.4372406005859","","269 Winnebago Dr"
"skqoG3mk2tFNWaKTFI_49w","Culver's","FALSE","https://www.yelp.com/biz/culvers-fond-du-lac?adjust_creative=QNZpjiWMh-xtTiixb79gYw&utm_campaign=yelp_api_v3&utm_medium=api_v3_business_search&utm_source=QNZpjiWMh-xtTiixb79gYw","4","Fast Food | Ice Cream & Frozen Yogurt | Burgers","3.5","43.7840500773526","-88.4876276372624","$","W6606 Hwy 23"
"EReYXOwkwfk146rTCtj9uQ","QDOBA Mexican Eats","FALSE","https://www.yelp.com/biz/qdoba-mexican-eats-fond-du-lac?adjust_creative=QNZpjiWMh-xtTiixb79gYw&utm_campaign=yelp_api_v3&utm_medium=api_v3_business_search&utm_source=QNZpjiWMh-xtTiixb79gYw","5","Mexican | Fast Food","3","43.7838814293681","-88.4791131914153","$","187 N Pioneer Rd"
"Z7rkS9tdg_IiN7SOKeVLvA","Taco John's","FALSE","https://www.yelp.com/biz/taco-johns-fond-du-lac?adjust_creative=QNZpjiWMh-xtTiixb79gYw&utm_campaign=yelp_api_v3&utm_medium=api_v3_business_search&utm_source=QNZpjiWMh-xtTiixb79gYw","7","Mexican | Fast Food","2.5","43.7815915816746","-88.4473805129528","$","84 N Main St"
"WlcZenSyjhCskghZLFpS3w","Dale & Candi's Cedar Lodge Restaurant","FALSE","https://www.yelp.com/biz/dale-and-candis-cedar-lodge-restaurant-malone?adjust_creative=QNZpjiWMh-xtTiixb79gYw&utm_campaign=yelp_api_v3&utm_medium=api_v3_business_search&utm_source=QNZpjiWMh-xtTiixb79gYw","27","Breakfast & Brunch | Bars","5","43.936484","-88.303547","$$","N10872 US Hwy 151"
"nhbI-VAzPPtt2WsadWfZWg","LaClare Family Creamery","FALSE","https://www.yelp.com/biz/laclare-family-creamery-malone?adjust_creative=QNZpjiWMh-xtTiixb79gYw&utm_campaign=yelp_api_v3&utm_medium=api_v3_business_search&utm_source=QNZpjiWMh-xtTiixb79gYw","16","Specialty Food | Burgers | Ice Cream & Frozen Yogurt","4.5","43.9505","-88.31676","$$","W 2994 Country Rd Hh"
"Q3JLO-YLVqkrTz8Nbcr7uA","Blanck""s Supper Club","FALSE","https://www.yelp.com/biz/blanck-s-supper-club-malone?adjust_creative=QNZpjiWMh-xtTiixb79gYw&utm_campaign=yelp_api_v3&utm_medium=api_v3_business_search&utm_source=QNZpjiWMh-xtTiixb79gYw","12","Seafood | Sandwiches | Steakhouses","4","43.87788","-88.2898","$$","W2655 County Rd Q"
"8gC04S9CEQirE25MYnAXMw","Roepke's Village Inn","FALSE","https://www.yelp.com/biz/roepkes-village-inn-chilton?adjust_creative=QNZpjiWMh-xtTiixb79gYw&utm_campaign=yelp_api_v3&utm_medium=api_v3_business_search&utm_source=QNZpjiWMh-xtTiixb79gYw","10","Seafood | Steakhouses | German","4.5","43.970638","-88.171157","$$","W2686 Saint Charles Rd"
"hprooA5_lnChx163ezhs1Q","Café At LeClare Farm","FALSE","https://www.yelp.com/biz/caf%C3%A9-at-leclare-farm-malone?adjust_creative=QNZpjiWMh-xtTiixb79gYw&utm_campaign=yelp_api_v3&utm_medium=api_v3_business_search&utm_source=QNZpjiWMh-xtTiixb79gYw","1","Cafes | Breakfast & Brunch","5","43.916130065918","-88.2435836791992","","W2994 County Rd Hh"
"eaWqKXEHrM31Blrx40Wt7Q","Idlewile Inn","FALSE","https://www.yelp.com/biz/idlewile-inn-saint-cloud?adjust_creative=QNZpjiWMh-xtTiixb79gYw&utm_campaign=yelp_api_v3&utm_medium=api_v3_business_search&utm_source=QNZpjiWMh-xtTiixb79gYw","10","American (New)","4.5","43.82367","-88.16687","$$$","1306 Main St"
"x9YrSPiwAi3dF2ejGmh_6w","Big Al Capone's","FALSE","https://www.yelp.com/biz/big-al-capones-malone?adjust_creative=QNZpjiWMh-xtTiixb79gYw&utm_campaign=yelp_api_v3&utm_medium=api_v3_business_search&utm_source=QNZpjiWMh-xtTiixb79gYw","21","Pizza | Sandwiches | Bars","3","43.91431","-88.31333","$","N10302  Hwy 151"
"RbJQRY-A9U32htc9izhenQ","What About Bob's Bar And Grill","FALSE","https://www.yelp.com/biz/what-about-bobs-bar-and-grill-saint-cloud?adjust_creative=QNZpjiWMh-xtTiixb79gYw&utm_campaign=yelp_api_v3&utm_medium=api_v3_business_search&utm_source=QNZpjiWMh-xtTiixb79gYw","1","Bars | American (Traditional) | Steakhouses","5","43.82322","-88.16608","$","1205 Main St"
"Ab221PNV8GWOu0eLSvyVNQ","Tanner's Pins & Pints","FALSE","https://www.yelp.com/biz/tanners-pins-and-pints-mount-calvary?adjust_creative=QNZpjiWMh-xtTiixb79gYw&utm_campaign=yelp_api_v3&utm_medium=api_v3_business_search&utm_source=QNZpjiWMh-xtTiixb79gYw","1","Bowling | Beer Bar | Pizza","5","43.82655","-88.24882","","113 Kommers St"
"3NrpDfEfUpebVOk9t-83-w","Schrage's Talk of the Town Sandwich & Pizza Pub","FALSE","https://www.yelp.com/biz/schrages-talk-of-the-town-sandwich-and-pizza-pub-malone?adjust_creative=QNZpjiWMh-xtTiixb79gYw&utm_campaign=yelp_api_v3&utm_medium=api_v3_business_search&utm_source=QNZpjiWMh-xtTiixb79gYw","1","Pizza | Sandwiches","4","43.935161","-88.303222","","N10847 US Hwy 151"
"TO_MW-i4BAKR03CebPHPzw","The Green Dragon","FALSE","https://www.yelp.com/biz/the-green-dragon-fond-du-lac?adjust_creative=QNZpjiWMh-xtTiixb79gYw&utm_campaign=yelp_api_v3&utm_medium=api_v3_business_search&utm_source=QNZpjiWMh-xtTiixb79gYw","84","American (New) | Salad | Sandwiches","4","43.7730598449707","-88.4531097412109","$$","156 Western Ave"
"CF0286SzskOYtlL1OfCQrw","The Sweet And Salty Pig","FALSE","https://www.yelp.com/biz/the-sweet-and-salty-pig-fond-du-lac?adjust_creative=QNZpjiWMh-xtTiixb79gYw&utm_campaign=yelp_api_v3&utm_medium=api_v3_business_search&utm_source=QNZpjiWMh-xtTiixb79gYw","8","Cuban","4","43.75422","-88.45284","$$","99 W Pioneer Rd"
"AIxrjhfrPE3q2WEu6HHecg","11:11 Burgers & Beignets ","FALSE","https://www.yelp.com/biz/11-11-burgers-and-beignets-fond-du-lac-2?adjust_creative=QNZpjiWMh-xtTiixb79gYw&utm_campaign=yelp_api_v3&utm_medium=api_v3_business_search&utm_source=QNZpjiWMh-xtTiixb79gYw","32","Burgers","4.5","43.7673454284668","-88.4470977783203","$","417 S Main St"
"mE5TncWtXbeTf3wEAOv8iQ","Connie's Diner","FALSE","https://www.yelp.com/biz/connies-diner-fond-du-lac?adjust_creative=QNZpjiWMh-xtTiixb79gYw&utm_campaign=yelp_api_v3&utm_medium=api_v3_business_search&utm_source=QNZpjiWMh-xtTiixb79gYw","18","Diners | Burgers | Breakfast & Brunch","4.5","43.77403","-88.4467","$","175 S Main St"
"mDm7dwggp-ahQwvPG6e2Tw","Sebastian's Steak House","FALSE","https://www.yelp.com/biz/sebastians-steak-house-fond-du-lac?adjust_creative=QNZpjiWMh-xtTiixb79gYw&utm_campaign=yelp_api_v3&utm_medium=api_v3_business_search&utm_source=QNZpjiWMh-xtTiixb79gYw","28","Steakhouses | Lounges","4","43.7577705383301","-88.4490203857422","$$","770 S Main St"
"Cl2gfARvMpR6iXnyB2Ejtg","Ang an Eddies","FALSE","https://www.yelp.com/biz/ang-an-eddies-fond-du-lac?adjust_creative=QNZpjiWMh-xtTiixb79gYw&utm_campaign=yelp_api_v3&utm_medium=api_v3_business_search&utm_source=QNZpjiWMh-xtTiixb79gYw","37","Pizza | Sandwiches | Italian","4.5","43.7641349","-88.4473934","$$","7 14th St"
"fNTFJ_PLW5HxgeAUJSYBcA","Benvenuto's Italian Grill","FALSE","https://www.yelp.com/biz/benvenutos-italian-grill-fond-du-lac?adjust_creative=QNZpjiWMh-xtTiixb79gYw&utm_campaign=yelp_api_v3&utm_medium=api_v3_business_search&utm_source=QNZpjiWMh-xtTiixb79gYw","15","Italian | Wine Bars","3","43.7562785","-88.4764147","$$$","625 Rolling Meadows Dr"
"YmXbEf4zuh5jQ-AvQd_IWg","Las Islas Restaurant & Bar","FALSE","https://www.yelp.com/biz/las-islas-restaurant-and-bar-fond-du-lac?adjust_creative=QNZpjiWMh-xtTiixb79gYw&utm_campaign=yelp_api_v3&utm_medium=api_v3_business_search&utm_source=QNZpjiWMh-xtTiixb79gYw","11","Caribbean | Bars | Latin American","4","43.775481","-88.446738","","119 S Main St"
"wjjvxIG1jEO7vp4-6ayaoA","Ziggy's Pub","FALSE","https://www.yelp.com/biz/ziggys-pub-fond-du-lac?adjust_creative=QNZpjiWMh-xtTiixb79gYw&utm_campaign=yelp_api_v3&utm_medium=api_v3_business_search&utm_source=QNZpjiWMh-xtTiixb79gYw","11","Pubs | Comedy Clubs | Burgers","4.5","43.7729501","-88.4467943","$$","213 S Main St"
"P0BiR5DvnX2zMMfWUYvESg","The Bagelmeister","FALSE","https://www.yelp.com/biz/the-bagelmeister-fond-du-lac?adjust_creative=QNZpjiWMh-xtTiixb79gYw&utm_campaign=yelp_api_v3&utm_medium=api_v3_business_search&utm_source=QNZpjiWMh-xtTiixb79gYw","11","Bagels | Breakfast & Brunch | Sandwiches","4.5","43.7758","-88.44733","$","110 S Main St"
"00izQCCY5e126DNm8YzuzQ","Gilles Frozen Custard","FALSE","https://www.yelp.com/biz/gilles-frozen-custard-fond-du-lac?adjust_creative=QNZpjiWMh-xtTiixb79gYw&utm_campaign=yelp_api_v3&utm_medium=api_v3_business_search&utm_source=QNZpjiWMh-xtTiixb79gYw","30","Burgers | American (Traditional) | Ice Cream & Frozen Yogurt","4.5","43.756343","-88.4479866","$","819 S Main St"
"nVHc-6RNGIQMMhINxnfmIg","Rolling Meadows Restaurant","FALSE","https://www.yelp.com/biz/rolling-meadows-restaurant-fond-du-lac?adjust_creative=QNZpjiWMh-xtTiixb79gYw&utm_campaign=yelp_api_v3&utm_medium=api_v3_business_search&utm_source=QNZpjiWMh-xtTiixb79gYw","13","Seafood | Italian | American (Traditional)","3","43.7571063","-88.4782834","$$","947 S Rolling Meadows Dr"
"2kWgp7AR0VixTZCvr0sy1g","Sal's Pizza","FALSE","https://www.yelp.com/biz/sals-pizza-fond-du-lac?adjust_creative=QNZpjiWMh-xtTiixb79gYw&utm_campaign=yelp_api_v3&utm_medium=api_v3_business_search&utm_source=QNZpjiWMh-xtTiixb79gYw","13","Pizza","4","43.7759132385254","-88.4466247558594","$","105 S Main St"
"iKzLCVkCEfVJ8cTEiwbnXA","Boda's Restaurant","FALSE","https://www.yelp.com/biz/bodas-restaurant-fond-du-lac?adjust_creative=QNZpjiWMh-xtTiixb79gYw&utm_campaign=yelp_api_v3&utm_medium=api_v3_business_search&utm_source=QNZpjiWMh-xtTiixb79gYw","1","American (New)","4","43.7696228027344","-88.4804153442383","","277 S Pioneer Rd"
"0L_Q_EZtXpqaLZNYlip_XQ","Sully's of Fond Du Lac","FALSE","https://www.yelp.com/biz/sullys-of-fond-du-lac-fond-du-lac?adjust_creative=QNZpjiWMh-xtTiixb79gYw&utm_campaign=yelp_api_v3&utm_medium=api_v3_business_search&utm_source=QNZpjiWMh-xtTiixb79gYw","1","Bars | Burgers","3","43.7683334350586","-88.4477081298828","","384 S Main St"
"TJ1YUE5mXdMvSOdckNDY_w","Entrees On-Trays","FALSE","https://www.yelp.com/biz/entrees-on-trays-north-fond-du-lac?adjust_creative=QNZpjiWMh-xtTiixb79gYw&utm_campaign=yelp_api_v3&utm_medium=api_v3_business_search&utm_source=QNZpjiWMh-xtTiixb79gYw","1","Restaurants","1","43.80622","-88.48312","","550 Prospect Ave"
"eGinLNux1X5G9dCYRgk02Q","Burger King Restaurants","FALSE","https://www.yelp.com/biz/burger-king-restaurants-fond-du-lac?adjust_creative=QNZpjiWMh-xtTiixb79gYw&utm_campaign=yelp_api_v3&utm_medium=api_v3_business_search&utm_source=QNZpjiWMh-xtTiixb79gYw","5","Restaurants","1","43.78386","-88.47694","$","790 W Johnson St"
"QbexC2kblu32ReDEcGbTzg","KFC","FALSE","https://www.yelp.com/biz/kfc-fond-du-lac-2?adjust_creative=QNZpjiWMh-xtTiixb79gYw&utm_campaign=yelp_api_v3&utm_medium=api_v3_business_search&utm_source=QNZpjiWMh-xtTiixb79gYw","8","Fast Food | Chicken Wings | Chicken Shop","1.5","43.7841","-88.4795","","147 N Pioneer Rd"
"rk06spoQW2B92dCV4wDO4g","Subway","FALSE","https://www.yelp.com/biz/subway-fond-du-lac-4?adjust_creative=QNZpjiWMh-xtTiixb79gYw&utm_campaign=yelp_api_v3&utm_medium=api_v3_business_search&utm_source=QNZpjiWMh-xtTiixb79gYw","1","Sandwiches | Fast Food","1","43.78735","-88.4845799","","377 N Rolling Meadows Dr"
"gnXX1EaNuMYVauRyDCmfVA","Subway","FALSE","https://www.yelp.com/biz/subway-fond-du-lac?adjust_creative=QNZpjiWMh-xtTiixb79gYw&utm_campaign=yelp_api_v3&utm_medium=api_v3_business_search&utm_source=QNZpjiWMh-xtTiixb79gYw","2","Sandwiches | Fast Food","2","43.7852363586426","-88.4889450073242","","1177 W Johnson St"
"SeHaq9k3PJGBjntpkAEg-g","McDonald's","FALSE","https://www.yelp.com/biz/mcdonalds-fond-du-lac-3?adjust_creative=QNZpjiWMh-xtTiixb79gYw&utm_campaign=yelp_api_v3&utm_medium=api_v3_business_search&utm_source=QNZpjiWMh-xtTiixb79gYw","2","Burgers | Coffee & Tea | Fast Food","1","43.7838970931903","-88.4750948109581","$$","770 W Johnson St"
"FM_mOahsmxKvAUjPvpJEVw","Jimmy John's","FALSE","https://www.yelp.com/biz/jimmy-johns-fond-du-lac?adjust_creative=QNZpjiWMh-xtTiixb79gYw&utm_campaign=yelp_api_v3&utm_medium=api_v3_business_search&utm_source=QNZpjiWMh-xtTiixb79gYw","3","Sandwiches | Delis | Fast Food","2.5","43.784","-88.44838","","180 N Main St"
"GB_iic_bEjFMdOlFief_sw","Little Caesar's Pizza","FALSE","https://www.yelp.com/biz/little-caesars-pizza-fond-du-lac?adjust_creative=QNZpjiWMh-xtTiixb79gYw&utm_campaign=yelp_api_v3&utm_medium=api_v3_business_search&utm_source=QNZpjiWMh-xtTiixb79gYw","1","Pizza","3","43.79258","-88.44717","$$","7 W Scott St"
"0modaT0OtwW2Of7UZVmTBQ","Taco Bell","FALSE","https://www.yelp.com/biz/taco-bell-fond-du-lac-5?adjust_creative=QNZpjiWMh-xtTiixb79gYw&utm_campaign=yelp_api_v3&utm_medium=api_v3_business_search&utm_source=QNZpjiWMh-xtTiixb79gYw","4","Mexican | Tex-Mex | Fast Food","3","43.783887","-88.462831","","427 W Johnson Ave"
"7wHnJ59QLchoVMJcnF8dOw","Subway","FALSE","https://www.yelp.com/biz/subway-fond-du-lac-5?adjust_creative=QNZpjiWMh-xtTiixb79gYw&utm_campaign=yelp_api_v3&utm_medium=api_v3_business_search&utm_source=QNZpjiWMh-xtTiixb79gYw","3","Sandwiches | Fast Food","2.5","43.791938417487","-88.4585022926331","","295 W Scott St"
"kxL1012zNzpvV9f905wLPA","Marco's Pizza","FALSE","https://www.yelp.com/biz/marcos-pizza-fond-du-lac?adjust_creative=QNZpjiWMh-xtTiixb79gYw&utm_campaign=yelp_api_v3&utm_medium=api_v3_business_search&utm_source=QNZpjiWMh-xtTiixb79gYw","2","Pizza","5","43.7835296988487","-88.445980399847","","30 E Johnson St"
"XnMkzo_9y2eyDb66LtdC9w","Papa Murphy's","FALSE","https://www.yelp.com/biz/papa-murphys-fond-du-lac-2?adjust_creative=QNZpjiWMh-xtTiixb79gYw&utm_campaign=yelp_api_v3&utm_medium=api_v3_business_search&utm_source=QNZpjiWMh-xtTiixb79gYw","3","Pizza","2.5","43.784","-88.44838","","186 N Main St"
"Oj2JoWN-EVswCYFaneH-6w","Bob's Pizza","FALSE","https://www.yelp.com/biz/bobs-pizza-fond-du-lac?adjust_creative=QNZpjiWMh-xtTiixb79gYw&utm_campaign=yelp_api_v3&utm_medium=api_v3_business_search&utm_source=QNZpjiWMh-xtTiixb79gYw","2","Pizza | Sandwiches","3","43.78097","-88.446","","25 E Merrill Ave"
"lh9CwFc1tVb1SvudlmngiQ","Culver's","FALSE","https://www.yelp.com/biz/culvers-fond-du-lac-2?adjust_creative=QNZpjiWMh-xtTiixb79gYw&utm_campaign=yelp_api_v3&utm_medium=api_v3_business_search&utm_source=QNZpjiWMh-xtTiixb79gYw","4","Ice Cream & Frozen Yogurt | Burgers | Fast Food","3.5","43.78417","-88.40909","","969 E Johnson St"
"GUCm9gkG0kz3rBRM9OtdZA","McDonald's","FALSE","https://www.yelp.com/biz/mcdonalds-fond-du-lac?adjust_creative=QNZpjiWMh-xtTiixb79gYw&utm_campaign=yelp_api_v3&utm_medium=api_v3_business_search&utm_source=QNZpjiWMh-xtTiixb79gYw","2","Fast Food | Burgers | Coffee & Tea","2.5","43.7842513164559","-88.4109748899937","$","929 E Johnson St"
"-LPwzaQkR5_PClTzNJLw4g","Taco Bell","FALSE","https://www.yelp.com/biz/taco-bell-fond-du-lac-4?adjust_creative=QNZpjiWMh-xtTiixb79gYw&utm_campaign=yelp_api_v3&utm_medium=api_v3_business_search&utm_source=QNZpjiWMh-xtTiixb79gYw","1","Mexican | Tex-Mex | Fast Food","2","43.78308","-88.412068","","892 East Johnson Street"
"Lswh35HGt112w8meYXeRZQ","Subway","FALSE","https://www.yelp.com/biz/subway-fond-du-lac-2?adjust_creative=QNZpjiWMh-xtTiixb79gYw&utm_campaign=yelp_api_v3&utm_medium=api_v3_business_search&utm_source=QNZpjiWMh-xtTiixb79gYw","1","Sandwiches | Fast Food","5","43.7829818725586","-88.4092025756836","","976 E Johnson St"
"mGPkCXanu8X1TTeqZB0ceA","Mancino's Pizza & Grinders","FALSE","https://www.yelp.com/biz/mancinos-pizza-and-grinders-fond-du-lac-2?adjust_creative=QNZpjiWMh-xtTiixb79gYw&utm_campaign=yelp_api_v3&utm_medium=api_v3_business_search&utm_source=QNZpjiWMh-xtTiixb79gYw","13","Pizza | Italian | Sandwiches","3","43.756353","-88.449624","$$","818 S Main St"
"K3g78gqNmJf7tDRSVby9dA","Tucker's Hamburgers","FALSE","https://www.yelp.com/biz/tuckers-hamburgers-fond-du-lac?adjust_creative=QNZpjiWMh-xtTiixb79gYw&utm_campaign=yelp_api_v3&utm_medium=api_v3_business_search&utm_source=QNZpjiWMh-xtTiixb79gYw","6","Burgers | American (Traditional)","3","43.7535057067871","-88.4488830566406","$$","927 S Main St"
"wvOcA7wO424CFQr6FDJE3w","Cousins Subs","FALSE","https://www.yelp.com/biz/cousins-subs-fond-du-lac-2?adjust_creative=QNZpjiWMh-xtTiixb79gYw&utm_campaign=yelp_api_v3&utm_medium=api_v3_business_search&utm_source=QNZpjiWMh-xtTiixb79gYw","3","Sandwiches | Delis","4.5","43.75344","-88.44959","","928 S Main St"
"MozCaP0g3Iwfm-RpoTeFig","Culvers Restaurant","FALSE","https://www.yelp.com/biz/culvers-restaurant-fond-du-lac?adjust_creative=QNZpjiWMh-xtTiixb79gYw&utm_campaign=yelp_api_v3&utm_medium=api_v3_business_search&utm_source=QNZpjiWMh-xtTiixb79gYw","4","Burgers | Fast Food | Ice Cream & Frozen Yogurt","4.5","43.75425","-88.45226","$","81 W Pioneer Rd"
"JRwacA7kVVeP_L42hM8hlQ","Eaton's Fresh Pizza & Catering","FALSE","https://www.yelp.com/biz/eatons-fresh-pizza-and-catering-fond-du-lac-2?adjust_creative=QNZpjiWMh-xtTiixb79gYw&utm_campaign=yelp_api_v3&utm_medium=api_v3_business_search&utm_source=QNZpjiWMh-xtTiixb79gYw","3","Pizza | Delis","4","43.76847","-88.43929","$","368 S Park Ave"
"UlPXslVxcU-cbI7Sew7Mow","Christianos Brick Oven Pizza","FALSE","https://www.yelp.com/biz/christianos-brick-oven-pizza-fond-du-lac?adjust_creative=QNZpjiWMh-xtTiixb79gYw&utm_campaign=yelp_api_v3&utm_medium=api_v3_business_search&utm_source=QNZpjiWMh-xtTiixb79gYw","1","Pizza | Sandwiches","2","43.75344","-88.44959","","928 S Main St"
"WgGnN8-gJLsSxxdyOrlOgA","McDonald's","FALSE","https://www.yelp.com/biz/mcdonalds-fond-du-lac-2?adjust_creative=QNZpjiWMh-xtTiixb79gYw&utm_campaign=yelp_api_v3&utm_medium=api_v3_business_search&utm_source=QNZpjiWMh-xtTiixb79gYw","6","Burgers | Fast Food | Coffee & Tea","3","43.763671355124","-88.4661492705345","$","699 S Military Rd"
"jBi0gTnx62Ka1dO5sX8VVQ","Dairy Queen","FALSE","https://www.yelp.com/biz/dairy-queen-fond-du-lac?adjust_creative=QNZpjiWMh-xtTiixb79gYw&utm_campaign=yelp_api_v3&utm_medium=api_v3_business_search&utm_source=QNZpjiWMh-xtTiixb79gYw","6","Restaurants","3.5","43.76904296875","-88.4303588867188","$","387 Fond Du Lac Ave"
"lb2WQbCyiNaJi_GyIrllcw","Domino's Pizza","FALSE","https://www.yelp.com/biz/dominos-pizza-fond-du-lac-2?adjust_creative=QNZpjiWMh-xtTiixb79gYw&utm_campaign=yelp_api_v3&utm_medium=api_v3_business_search&utm_source=QNZpjiWMh-xtTiixb79gYw","4","Pizza | Chicken Wings | Sandwiches","4","43.7705192565918","-88.4469223022461","","301 S Main St"
"R3ZRgrro4l4Xhr2coF4rXg","Subway","FALSE","https://www.yelp.com/biz/subway-fond-du-lac-7?adjust_creative=QNZpjiWMh-xtTiixb79gYw&utm_campaign=yelp_api_v3&utm_medium=api_v3_business_search&utm_source=QNZpjiWMh-xtTiixb79gYw","1","Sandwiches | Fast Food","3","43.75256","-88.45105","","34 W Pioneer Rd"
"rQ37hdEw-dX4DB7DTFMz4Q","Subway","FALSE","https://www.yelp.com/biz/subway-fond-du-lac-3?adjust_creative=QNZpjiWMh-xtTiixb79gYw&utm_campaign=yelp_api_v3&utm_medium=api_v3_business_search&utm_source=QNZpjiWMh-xtTiixb79gYw","1","Sandwiches | Fast Food","2","43.7694244384766","-88.430793762207","$","365 Fond Du Lac Ave"
"LckJeQNHlpMiBdkcRjv24Q","Dairy Queen","FALSE","https://www.yelp.com/biz/dairy-queen-fond-du-lac-2?adjust_creative=QNZpjiWMh-xtTiixb79gYw&utm_campaign=yelp_api_v3&utm_medium=api_v3_business_search&utm_source=QNZpjiWMh-xtTiixb79gYw","3","Fast Food | Ice Cream & Frozen Yogurt","2.5","43.7849578857422","-88.4711532592773","","635 W Johnson St"
"XRdmCvFmoMEzORMb2Bd33w","Red Cabin At Green Acres","FALSE","https://www.yelp.com/biz/red-cabin-at-green-acres-fond-du-lac?adjust_creative=QNZpjiWMh-xtTiixb79gYw&utm_campaign=yelp_api_v3&utm_medium=api_v3_business_search&utm_source=QNZpjiWMh-xtTiixb79gYw","22","Bars | American (New)","4.5","43.7550079","-88.292271","$$","W2701 4th Street Rd"
"5gEA1sMwHAN1oqoO_qZmdg","Party Palace","FALSE","https://www.yelp.com/biz/party-palace-fond-du-lac?adjust_creative=QNZpjiWMh-xtTiixb79gYw&utm_campaign=yelp_api_v3&utm_medium=api_v3_business_search&utm_source=QNZpjiWMh-xtTiixb79gYw","2","Pubs | American (Traditional)","5","43.75389","-88.26149","","W2104 4th St Rd"
"cfQmrYZYXo9MgMocMvlBxA","Benson's Holiday Hide-A-Way Resort","FALSE","https://www.yelp.com/biz/bensons-holiday-hide-a-way-resort-campbellsport?adjust_creative=QNZpjiWMh-xtTiixb79gYw&utm_campaign=yelp_api_v3&utm_medium=api_v3_business_search&utm_source=QNZpjiWMh-xtTiixb79gYw","6","American (Traditional)","4.5","43.693508","-88.171447","$","N4241 Boy Scout Dr"
"HjzorSrh4xWaAYzvwTUXcw","Jim & Linda's Lakeview Club","FALSE","https://www.yelp.com/biz/jim-and-lindas-lakeview-club-malone?adjust_creative=QNZpjiWMh-xtTiixb79gYw&utm_campaign=yelp_api_v3&utm_medium=api_v3_business_search&utm_source=QNZpjiWMh-xtTiixb79gYw","35","Seafood","3.5","43.914222","-88.332618","$$","W3496 County Rd W"
"B4vpUy6s_xx7Ey3zNsswTQ","Helen's Kitchen","FALSE","https://www.yelp.com/biz/helens-kitchen-waupun?adjust_creative=QNZpjiWMh-xtTiixb79gYw&utm_campaign=yelp_api_v3&utm_medium=api_v3_business_search&utm_source=QNZpjiWMh-xtTiixb79gYw","19","Diners | Cafes","3.5","43.6332249","-88.7616349","$","1116 W Main St"
"J5izUTU69C6RmeE_5UP9Jw","Brittain House Supper Club","FALSE","https://www.yelp.com/biz/brittain-house-supper-club-waupun?adjust_creative=QNZpjiWMh-xtTiixb79gYw&utm_campaign=yelp_api_v3&utm_medium=api_v3_business_search&utm_source=QNZpjiWMh-xtTiixb79gYw","8","American (Traditional)","4.5","43.6225300133431","-88.7243001535535","$$","735 S Watertown St"
"6wwbPHZBK3MrUaJDTHE5hg","The Other Bar","FALSE","https://www.yelp.com/biz/the-other-bar-waupun?adjust_creative=QNZpjiWMh-xtTiixb79gYw&utm_campaign=yelp_api_v3&utm_medium=api_v3_business_search&utm_source=QNZpjiWMh-xtTiixb79gYw","5","Bars | American (Traditional) | Sandwiches","4.5","43.6329574584961","-88.7331771850586","$","105 E Main St"
"Dedpl-qY0uCwIakg1-O6Tw","Golden Cup Cafe","FALSE","https://www.yelp.com/biz/golden-cup-cafe-waupun?adjust_creative=QNZpjiWMh-xtTiixb79gYw&utm_campaign=yelp_api_v3&utm_medium=api_v3_business_search&utm_source=QNZpjiWMh-xtTiixb79gYw","4","Coffee & Tea | Breakfast & Brunch | Sandwiches","2.5","43.63338","-88.72959","","400 E Main St"
"BF7KwRuEYI3D8b5EoHluSQ","Tony's Pizza","FALSE","https://www.yelp.com/biz/tonys-pizza-waupun?adjust_creative=QNZpjiWMh-xtTiixb79gYw&utm_campaign=yelp_api_v3&utm_medium=api_v3_business_search&utm_source=QNZpjiWMh-xtTiixb79gYw","9","Pizza","4.5","43.6410484313965","-88.7207183837891","$$","420 Fond Du Lac St"
"4GXSsRk1ausq4oHqsRDkPg","Chang Jiang","FALSE","https://www.yelp.com/biz/chang-jiang-waupun?adjust_creative=QNZpjiWMh-xtTiixb79gYw&utm_campaign=yelp_api_v3&utm_medium=api_v3_business_search&utm_source=QNZpjiWMh-xtTiixb79gYw","5","Chinese","4","43.6332249","-88.7618232","$","1118 W Main St"
"HKf2HmW5mFiODbXr7Mt2VA","Don Ramon Mexican Restaurant","FALSE","https://www.yelp.com/biz/don-ramon-mexican-restaurant-waupun?adjust_creative=QNZpjiWMh-xtTiixb79gYw&utm_campaign=yelp_api_v3&utm_medium=api_v3_business_search&utm_source=QNZpjiWMh-xtTiixb79gYw","12","Mexican","3.5","43.63291","-88.72947","$","405 E Main St"
"4fokSVyZKDIZjUStmIfNeQ","From Scratch Kitchen And Bakery","FALSE","https://www.yelp.com/biz/from-scratch-kitchen-and-bakery-waupun?adjust_creative=QNZpjiWMh-xtTiixb79gYw&utm_campaign=yelp_api_v3&utm_medium=api_v3_business_search&utm_source=QNZpjiWMh-xtTiixb79gYw","1","Barbeque | Bakeries | Fish & Chips","3","43.63277","-88.75083","","815 W Main St"
"GVkZ_EElIHtrWta2rlyNJw","Pizza Ranch","FALSE","https://www.yelp.com/biz/pizza-ranch-waupun?adjust_creative=QNZpjiWMh-xtTiixb79gYw&utm_campaign=yelp_api_v3&utm_medium=api_v3_business_search&utm_source=QNZpjiWMh-xtTiixb79gYw","7","Pizza","3.5","43.63358","-88.7519","$","900 W Main St"
"VxCsvVU1K_XFkuEBslW3bQ","Culver's","FALSE","https://www.yelp.com/biz/culvers-waupun?adjust_creative=QNZpjiWMh-xtTiixb79gYw&utm_campaign=yelp_api_v3&utm_medium=api_v3_business_search&utm_source=QNZpjiWMh-xtTiixb79gYw","6","Fast Food | Burgers","3.5","43.63511","-88.71775","$","900 Kelly Ave"
"_xQ40nvOhlhZaKdcWt-JDA","A & W Restaurant","FALSE","https://www.yelp.com/biz/a-and-w-restaurant-waupun?adjust_creative=QNZpjiWMh-xtTiixb79gYw&utm_campaign=yelp_api_v3&utm_medium=api_v3_business_search&utm_source=QNZpjiWMh-xtTiixb79gYw","6","Burgers | Fast Food | Chicken Wings","4","43.63296","-88.74732","$","715 W Main St"
"HLteB5f6Y-1owm45wmyJoQ","Taco Bell","FALSE","https://www.yelp.com/biz/taco-bell-waupun?adjust_creative=QNZpjiWMh-xtTiixb79gYw&utm_campaign=yelp_api_v3&utm_medium=api_v3_business_search&utm_source=QNZpjiWMh-xtTiixb79gYw","3","Tex-Mex | Fast Food | Mexican","5","43.63243","-88.71723","","114 Shaler"
"oE4oh_vFYcTE3wR0DMZ42w","McDonald's","FALSE","https://www.yelp.com/biz/mcdonalds-waupun-3?adjust_creative=QNZpjiWMh-xtTiixb79gYw&utm_campaign=yelp_api_v3&utm_medium=api_v3_business_search&utm_source=QNZpjiWMh-xtTiixb79gYw","12","Burgers | Coffee & Tea | Fast Food","2.5","43.6336233510494","-88.7176117300987","$","932 E Main St"
"azM4281i40ZQTnqm8vULgQ","Domino's Pizza","FALSE","https://www.yelp.com/biz/dominos-pizza-waupun?adjust_creative=QNZpjiWMh-xtTiixb79gYw&utm_campaign=yelp_api_v3&utm_medium=api_v3_business_search&utm_source=QNZpjiWMh-xtTiixb79gYw","4","Pizza | Chicken Wings | Sandwiches","3","43.6334066323562","-88.7282714205764","$$","106 Shaler Dr"
"u5YVexQogL_XX7Q4wrDPQw","Cantafio's Buckhorn Steakhouse","FALSE","https://www.yelp.com/biz/cantafios-buckhorn-steakhouse-beaver-dam-2?adjust_creative=QNZpjiWMh-xtTiixb79gYw&utm_campaign=yelp_api_v3&utm_medium=api_v3_business_search&utm_source=QNZpjiWMh-xtTiixb79gYw","13","Steakhouses | Desserts | Seafood","3","43.51371","-88.81013","$$","N8802 County Rd A"
"OBkXDji8PNPBT3MMoya36w","Chang Jiang Buffet","FALSE","https://www.yelp.com/biz/chang-jiang-buffet-beaver-dam?adjust_creative=QNZpjiWMh-xtTiixb79gYw&utm_campaign=yelp_api_v3&utm_medium=api_v3_business_search&utm_source=QNZpjiWMh-xtTiixb79gYw","6","Chinese | Buffets","3","43.48705","-88.81187","$","106 Frances Ln"
"T7oOsM_MK7GQKgxK8uUYMw","Papa Murphy's","FALSE","https://www.yelp.com/biz/papa-murphys-beaver-dam?adjust_creative=QNZpjiWMh-xtTiixb79gYw&utm_campaign=yelp_api_v3&utm_medium=api_v3_business_search&utm_source=QNZpjiWMh-xtTiixb79gYw","4","Pizza","3","43.48705","-88.81187","$","106 Frances Lane"
"xKirpbXxqRwrNosHoKRk5Q","Wendy's","FALSE","https://www.yelp.com/biz/wendys-beaver-dam-2?adjust_creative=QNZpjiWMh-xtTiixb79gYw&utm_campaign=yelp_api_v3&utm_medium=api_v3_business_search&utm_source=QNZpjiWMh-xtTiixb79gYw","1","Fast Food | Burgers","3","43.48725","-88.80999","","102 Frances Ln"
"VSRh3mO3Q8yG3SIv6ChxDg","Arby's","FALSE","https://www.yelp.com/biz/arbys-beaver-dam-3?adjust_creative=QNZpjiWMh-xtTiixb79gYw&utm_campaign=yelp_api_v3&utm_medium=api_v3_business_search&utm_source=QNZpjiWMh-xtTiixb79gYw","1","Fast Food | Sandwiches","3","43.4883499","-88.80707","","121 Frances Ln"
"ssslLZ_LeWmKrS82c2mLeA","Taco Bell","FALSE","https://www.yelp.com/biz/taco-bell-beaver-dam-2?adjust_creative=QNZpjiWMh-xtTiixb79gYw&utm_campaign=yelp_api_v3&utm_medium=api_v3_business_search&utm_source=QNZpjiWMh-xtTiixb79gYw","2","Mexican | Tex-Mex | Fast Food","4.5","43.48319","-88.818937","$","1739 North Spring Street"
"NLSJECy72Ovou_wrKQXBYA","NOLA North Grille","FALSE","https://www.yelp.com/biz/nola-north-grille-mayville?adjust_creative=QNZpjiWMh-xtTiixb79gYw&utm_campaign=yelp_api_v3&utm_medium=api_v3_business_search&utm_source=QNZpjiWMh-xtTiixb79gYw","39","American (Traditional) | Cajun/Creole | Bars","4","43.496558","-88.544893","$$","45 N Main St"
"uCfjD5q4dVdtJmJo-yB4FQ","The Wisco An Old Fashioned Supper Club","FALSE","https://www.yelp.com/biz/the-wisco-an-old-fashioned-supper-club-mayville?adjust_creative=QNZpjiWMh-xtTiixb79gYw&utm_campaign=yelp_api_v3&utm_medium=api_v3_business_search&utm_source=QNZpjiWMh-xtTiixb79gYw","1","American (Traditional)","4","43.57343","-88.56084","","W3295 County Rd Y"
"OFzyqnyCumkIzVtq2bRGtg","Back Street Cafe","FALSE","https://www.yelp.com/biz/back-street-cafe-mayville?adjust_creative=QNZpjiWMh-xtTiixb79gYw&utm_campaign=yelp_api_v3&utm_medium=api_v3_business_search&utm_source=QNZpjiWMh-xtTiixb79gYw","12","American (Traditional)","4","43.49595","-88.54592","$","11 N School St"
"iTMV1AD7lt4QUilg0WNDKw","Kekoskee Cooper Shop","FALSE","https://www.yelp.com/biz/kekoskee-cooper-shop-mayville?adjust_creative=QNZpjiWMh-xtTiixb79gYw&utm_campaign=yelp_api_v3&utm_medium=api_v3_business_search&utm_source=QNZpjiWMh-xtTiixb79gYw","7","Pubs | American (Traditional)","3.5","43.52867","-88.5643","","30 Main St"
"piPTDhGI4KmEr-EVyUijfQ","The Marsh Inn","FALSE","https://www.yelp.com/biz/the-marsh-inn-mayville?adjust_creative=QNZpjiWMh-xtTiixb79gYw&utm_campaign=yelp_api_v3&utm_medium=api_v3_business_search&utm_source=QNZpjiWMh-xtTiixb79gYw","3","Bars | Burgers | Pizza","4.5","43.49342","-88.52838","$","23 County Rd"
"dXB3WJShYclqhRbuzhgCcQ","Don Ramon","FALSE","https://www.yelp.com/biz/don-ramon-mayville?adjust_creative=QNZpjiWMh-xtTiixb79gYw&utm_campaign=yelp_api_v3&utm_medium=api_v3_business_search&utm_source=QNZpjiWMh-xtTiixb79gYw","21","Mexican","4.5","43.49495","-88.54453","$$","39 S Main St"
"fwAzwreCAIBFz7sdY1cUCQ","Bridge Street Eatery","FALSE","https://www.yelp.com/biz/bridge-street-eatery-mayville?adjust_creative=QNZpjiWMh-xtTiixb79gYw&utm_campaign=yelp_api_v3&utm_medium=api_v3_business_search&utm_source=QNZpjiWMh-xtTiixb79gYw","1","Sandwiches | Ice Cream & Frozen Yogurt | Hot Dogs","4","43.49589","-88.54448","","1 N Main St"
"q5CUgk-AiZQfv-0hG-tLvg","Richies Up Ur Alley","FALSE","https://www.yelp.com/biz/richies-up-ur-alley-mayville?adjust_creative=QNZpjiWMh-xtTiixb79gYw&utm_campaign=yelp_api_v3&utm_medium=api_v3_business_search&utm_source=QNZpjiWMh-xtTiixb79gYw","1","American (Traditional) | Bowling","5","43.4952714840417","-88.5445053130388","","25 S Main St"
"234KJvTJ6Qy--UiDJgif0A","Lee's Chinese Restaurant","FALSE","https://www.yelp.com/biz/lees-chinese-restaurant-mayville?adjust_creative=QNZpjiWMh-xtTiixb79gYw&utm_campaign=yelp_api_v3&utm_medium=api_v3_business_search&utm_source=QNZpjiWMh-xtTiixb79gYw","4","Chinese","4.5","43.4946899","-88.5444717","","101 S Main St"
"xwj7-mlhkvbspZ_Q8GviXg","Sidelines Tap","FALSE","https://www.yelp.com/biz/sidelines-tap-mayville?adjust_creative=QNZpjiWMh-xtTiixb79gYw&utm_campaign=yelp_api_v3&utm_medium=api_v3_business_search&utm_source=QNZpjiWMh-xtTiixb79gYw","1","Sports Bars | American (Traditional)","5","43.4944892422932","-88.544411930859","","111 S Main St"
"6ADWlApzkKqooUWmZhZWIw","Sherwood Family Restraunt","FALSE","https://www.yelp.com/biz/sherwood-family-restraunt-mayville?adjust_creative=QNZpjiWMh-xtTiixb79gYw&utm_campaign=yelp_api_v3&utm_medium=api_v3_business_search&utm_source=QNZpjiWMh-xtTiixb79gYw","1","Restaurants","5","43.493579864502","-88.5591735839844","","1145 Horicon St"
"hpcEu74gT0SRniSo9VO2Fw","New China Restaurant","FALSE","https://www.yelp.com/biz/new-china-restaurant-mayville?adjust_creative=QNZpjiWMh-xtTiixb79gYw&utm_campaign=yelp_api_v3&utm_medium=api_v3_business_search&utm_source=QNZpjiWMh-xtTiixb79gYw","4","Chinese","2.5","43.4946937561035","-88.5444717407227","","101 S Main St"
"4ZuFQYT2OUw37klXHXxQ7w","McDonald's","FALSE","https://www.yelp.com/biz/mcdonalds-mayville?adjust_creative=QNZpjiWMh-xtTiixb79gYw&utm_campaign=yelp_api_v3&utm_medium=api_v3_business_search&utm_source=QNZpjiWMh-xtTiixb79gYw","1","Fast Food | Burgers | Coffee & Tea","3","43.4935494163388","-88.5596703691476","","1157 Horicon St"
"oRN8bmUB0gWE617SCsba1g","Subway","FALSE","https://www.yelp.com/biz/subway-mayville?adjust_creative=QNZpjiWMh-xtTiixb79gYw&utm_campaign=yelp_api_v3&utm_medium=api_v3_business_search&utm_source=QNZpjiWMh-xtTiixb79gYw","1","Sandwiches | Fast Food","3","43.4942932128906","-88.5569305419922","","1030 Horicon St"
"4wu-i3rWGzxuBfTKQtLgZg","Diner 67","FALSE","https://www.yelp.com/biz/diner-67-lomira-2?adjust_creative=QNZpjiWMh-xtTiixb79gYw&utm_campaign=yelp_api_v3&utm_medium=api_v3_business_search&utm_source=QNZpjiWMh-xtTiixb79gYw","32","Burgers | Breakfast & Brunch","4","43.5868759155273","-88.4465408325195","$","1007 Church St"
"c5PyRpJk-l6LLjkS-XphRA","Rock the House Pub & Grill","FALSE","https://www.yelp.com/biz/rock-the-house-pub-and-grill-brownsville?adjust_creative=QNZpjiWMh-xtTiixb79gYw&utm_campaign=yelp_api_v3&utm_medium=api_v3_business_search&utm_source=QNZpjiWMh-xtTiixb79gYw","17","Sports Bars | American (Traditional)","4.5","43.6165499","-88.4501499","$","N11710 State Rd 175"
"cSbSAB6QMzosYN_GCRq3Bg","Guido's Spirits & Sandwich","FALSE","https://www.yelp.com/biz/guidos-spirits-and-sandwich-byron?adjust_creative=QNZpjiWMh-xtTiixb79gYw&utm_campaign=yelp_api_v3&utm_medium=api_v3_business_search&utm_source=QNZpjiWMh-xtTiixb79gYw","5","American (Traditional) | Bars | Sandwiches","5","43.65128","-88.45061","$","N3041 Hwy 175"
"8NTFys7z_3Js8cagsijH2A","Eden Cafe","FALSE","https://www.yelp.com/biz/eden-cafe-eden?adjust_creative=QNZpjiWMh-xtTiixb79gYw&utm_campaign=yelp_api_v3&utm_medium=api_v3_business_search&utm_source=QNZpjiWMh-xtTiixb79gYw","4","American (Traditional) | Breakfast & Brunch | Pizza","3.5","43.69131","-88.36942","$$","303 W Main St"
"bIBVJsSnl1ESOZkksiY14w","Bublitz's Restaurant & Alehouse","FALSE","https://www.yelp.com/biz/bublitzs-restaurant-and-alehouse-lomira?adjust_creative=QNZpjiWMh-xtTiixb79gYw&utm_campaign=yelp_api_v3&utm_medium=api_v3_business_search&utm_source=QNZpjiWMh-xtTiixb79gYw","42","American (Traditional) | Salad | Pizza","2.5","43.58834","-88.43244","$$","580 East Ave"
"iN_GOS4pn1Ymq4v3jkNfsA","The Outpost Bar and Grill of Eden","FALSE","https://www.yelp.com/biz/the-outpost-bar-and-grill-of-eden-eden?adjust_creative=QNZpjiWMh-xtTiixb79gYw&utm_campaign=yelp_api_v3&utm_medium=api_v3_business_search&utm_source=QNZpjiWMh-xtTiixb79gYw","2","Beer, Wine & Spirits | Sandwiches","4.5","43.701908","-88.364555","","N4456 Highway 45"
"2D6RFOkOS_mvVca6InJFxA","Paddy's Pizza Pub'n'restaurant","FALSE","https://www.yelp.com/biz/paddys-pizza-pubnrestaurant-eden?adjust_creative=QNZpjiWMh-xtTiixb79gYw&utm_campaign=yelp_api_v3&utm_medium=api_v3_business_search&utm_source=QNZpjiWMh-xtTiixb79gYw","6","Pizza","4","43.692066192627","-88.3695297241211","$","302 W Main St"
"8OBmq42QfPQw1UWoa9N7Rw","521 Pub and Grub","FALSE","https://www.yelp.com/biz/521-pub-and-grub-brownsville?adjust_creative=QNZpjiWMh-xtTiixb79gYw&utm_campaign=yelp_api_v3&utm_medium=api_v3_business_search&utm_source=QNZpjiWMh-xtTiixb79gYw","2","Burgers | Sandwiches | Barbeque","5","43.61609","-88.48927","","521 W Main St"
"kTS53Q6Bu5qLt_8EKE1ckA","Quitting Time Pub & Grill","FALSE","https://www.yelp.com/biz/quitting-time-pub-and-grill-lomira?adjust_creative=QNZpjiWMh-xtTiixb79gYw&utm_campaign=yelp_api_v3&utm_medium=api_v3_business_search&utm_source=QNZpjiWMh-xtTiixb79gYw","1","Pubs | American (Traditional)","5","43.5914948807113","-88.4417612850666","$$","701 Main St"
"Klt_PXyABjaQLUEagZxeZg","Dimo's II","FALSE","https://www.yelp.com/biz/dimos-ii-eden?adjust_creative=QNZpjiWMh-xtTiixb79gYw&utm_campaign=yelp_api_v3&utm_medium=api_v3_business_search&utm_source=QNZpjiWMh-xtTiixb79gYw","2","Bars | Burgers | Pizza","1","43.6929142084175","-88.3608433976769","","143 E Main St"
"TQMHYHLiiHMV_kHaTho6QA","M J's Food & Spirits","FALSE","https://www.yelp.com/biz/m-js-food-and-spirits-brownsville?adjust_creative=QNZpjiWMh-xtTiixb79gYw&utm_campaign=yelp_api_v3&utm_medium=api_v3_business_search&utm_source=QNZpjiWMh-xtTiixb79gYw","1","Bars | Burgers | Pizza","4","43.616092","-88.489273","$$","521 W Main St"
"gwQftzjRv8XrPte3OxoBpw","Crave","FALSE","https://www.yelp.com/biz/crave-campbellsport?adjust_creative=QNZpjiWMh-xtTiixb79gYw&utm_campaign=yelp_api_v3&utm_medium=api_v3_business_search&utm_source=QNZpjiWMh-xtTiixb79gYw","12","Gastropubs","4.5","43.5982399","-88.28408","$$","128 E Main St"
"QO4WyIahkBLULREyWS7N7g","Hamburger Haus","FALSE","https://www.yelp.com/biz/hamburger-haus-campbellsport?adjust_creative=QNZpjiWMh-xtTiixb79gYw&utm_campaign=yelp_api_v3&utm_medium=api_v3_business_search&utm_source=QNZpjiWMh-xtTiixb79gYw","9","Burgers","4","43.64969","-88.17819","$","N3059 State Road 67"
"rYTAMWQOCyjb3LynshGP2g","Mikes Bar and Grill","FALSE","https://www.yelp.com/biz/mikes-bar-and-grill-campbellsport?adjust_creative=QNZpjiWMh-xtTiixb79gYw&utm_campaign=yelp_api_v3&utm_medium=api_v3_business_search&utm_source=QNZpjiWMh-xtTiixb79gYw","2","Bars | American (Traditional)","5","43.59873","-88.16853","","N1635 County Rd Ggg"
"wGhntVoFhcNOpeQhRFYlgw","Ty's Place","FALSE","https://www.yelp.com/biz/tys-place-campbellsport?adjust_creative=QNZpjiWMh-xtTiixb79gYw&utm_campaign=yelp_api_v3&utm_medium=api_v3_business_search&utm_source=QNZpjiWMh-xtTiixb79gYw","3","Coffee & Tea | Breakfast & Brunch","4","43.598109","-88.286219","$","118 W Main St"
"gyn2caOPta415YLULhf4vg","Blue Door Coffee","FALSE","https://www.yelp.com/biz/blue-door-coffee-campbellsport?adjust_creative=QNZpjiWMh-xtTiixb79gYw&utm_campaign=yelp_api_v3&utm_medium=api_v3_business_search&utm_source=QNZpjiWMh-xtTiixb79gYw","4","Coffee & Tea | Bakeries | Sandwiches","5","43.5982539686667","-88.2843266800046","","116 E Main St"
"6RMSZfPKd3omVp0WEuawpw","Fussy Feebies","FALSE","https://www.yelp.com/biz/fussy-feebies-campbellsport?adjust_creative=QNZpjiWMh-xtTiixb79gYw&utm_campaign=yelp_api_v3&utm_medium=api_v3_business_search&utm_source=QNZpjiWMh-xtTiixb79gYw","3","Restaurants","5","43.5977630615234","-88.2830505371094","","153 E Main St"
"p9iBu4Y0U4Sb-mH58WWcdA","Pioneer Keg","FALSE","https://www.yelp.com/biz/pioneer-keg-theresa?adjust_creative=QNZpjiWMh-xtTiixb79gYw&utm_campaign=yelp_api_v3&utm_medium=api_v3_business_search&utm_source=QNZpjiWMh-xtTiixb79gYw","10","Diners | Coffee & Tea","5","43.5173835754395","-88.4514389038086","$","122 S Milwaukee St"
"edBQiCj41cibx9A5j1bqKQ","The Banquets At Camelot","FALSE","https://www.yelp.com/biz/the-banquets-at-camelot-lomira-2?adjust_creative=QNZpjiWMh-xtTiixb79gYw&utm_campaign=yelp_api_v3&utm_medium=api_v3_business_search&utm_source=QNZpjiWMh-xtTiixb79gYw","2","American (Traditional) | Pubs | Beer, Wine & Spirits","5","43.5871951","-88.4301163","","W194 State Rd 67"
"9NCdIyPuFWtFMtF90vzq4w","McDonald's","FALSE","https://www.yelp.com/biz/mcdonalds-lomira?adjust_creative=QNZpjiWMh-xtTiixb79gYw&utm_campaign=yelp_api_v3&utm_medium=api_v3_business_search&utm_source=QNZpjiWMh-xtTiixb79gYw","4","Burgers | Fast Food | Coffee & Tea","1.5","43.58928","-88.43244","$","630 E Ave"
"pT5GiYXZC2MpydbCpvnfnw","Swede's St Kilian Inn","FALSE","https://www.yelp.com/biz/swedes-st-kilian-inn-campbellsport?adjust_creative=QNZpjiWMh-xtTiixb79gYw&utm_campaign=yelp_api_v3&utm_medium=api_v3_business_search&utm_source=QNZpjiWMh-xtTiixb79gYw","2","Bars | American (Traditional)","3.5","43.54352","-88.36122","","W4103 Saint Killian Dr"
"jbzEITgDT8mHDWFwf5HmqQ","Confections For Any Occasion","FALSE","https://www.yelp.com/biz/confections-for-any-occasion-theresa?adjust_creative=QNZpjiWMh-xtTiixb79gYw&utm_campaign=yelp_api_v3&utm_medium=api_v3_business_search&utm_source=QNZpjiWMh-xtTiixb79gYw","8","Candy Stores | Chocolatiers & Shops | American (Traditional)","4.5","43.51844","-88.45083","$","101 W Milwaukee St"
"SaaCH5ou5nnGlGP9oxgduA","Woodland Creek Supper Club","FALSE","https://www.yelp.com/biz/woodland-creek-supper-club-campbellsport?adjust_creative=QNZpjiWMh-xtTiixb79gYw&utm_campaign=yelp_api_v3&utm_medium=api_v3_business_search&utm_source=QNZpjiWMh-xtTiixb79gYw","13","Steakhouses | Burgers | American (Traditional)","3","43.5647448950685","-88.1831279397011","$$","W497 County Rd Ss"
"yzND-9-jxGdJarJz5rv4Nw","Sandpiper Inn","FALSE","https://www.yelp.com/biz/sandpiper-inn-campbellsport?adjust_creative=QNZpjiWMh-xtTiixb79gYw&utm_campaign=yelp_api_v3&utm_medium=api_v3_business_search&utm_source=QNZpjiWMh-xtTiixb79gYw","3","Restaurants","4.5","43.5669594","-88.3051224","$$","W2992 Elmore Dr"
"4-Hbb8d3-VPOknreKRmO1w","Limping Coyote","FALSE","https://www.yelp.com/biz/limping-coyote-kewaskum?adjust_creative=QNZpjiWMh-xtTiixb79gYw&utm_campaign=yelp_api_v3&utm_medium=api_v3_business_search&utm_source=QNZpjiWMh-xtTiixb79gYw","14","Bars | Mexican","4","43.52075","-88.22848","$$","109 Main St"
"b1qkcAdFs3uWILhuIObNuw","Coffee Corner Bistro","FALSE","https://www.yelp.com/biz/coffee-corner-bistro-kewaskum-2?adjust_creative=QNZpjiWMh-xtTiixb79gYw&utm_campaign=yelp_api_v3&utm_medium=api_v3_business_search&utm_source=QNZpjiWMh-xtTiixb79gYw","28","Coffee & Tea | Salad | Sandwiches","4.5","43.5211749","-88.2287425","$$","102 Main St"
"fZUCt3Fjef6BXU4p1egVFw","Gateway Cafe","FALSE","https://www.yelp.com/biz/gateway-cafe-kewaskum?adjust_creative=QNZpjiWMh-xtTiixb79gYw&utm_campaign=yelp_api_v3&utm_medium=api_v3_business_search&utm_source=QNZpjiWMh-xtTiixb79gYw","8","Sandwiches","3","43.51515","-88.22526","$","1041 Fond Du Lac Ave"
"3xgFdcyp081Si6xLQJ4s-g","Brother's Family Restaurant","FALSE","https://www.yelp.com/biz/brothers-family-restaurant-kewaskum?adjust_creative=QNZpjiWMh-xtTiixb79gYw&utm_campaign=yelp_api_v3&utm_medium=api_v3_business_search&utm_source=QNZpjiWMh-xtTiixb79gYw","3","American (Traditional) | Breakfast & Brunch","3.5","43.523494","-88.230333","$$","1526 Fond Du Lac Ave"
"MVv27Yo3OekfyYaUztxy4A","Bootleggerz Saloon","FALSE","https://www.yelp.com/biz/bootleggerz-saloon-kewaskum?adjust_creative=QNZpjiWMh-xtTiixb79gYw&utm_campaign=yelp_api_v3&utm_medium=api_v3_business_search&utm_source=QNZpjiWMh-xtTiixb79gYw","5","Bars | American (New)","4","43.5207443237305","-88.2263565063477","$$","215 Main St"
"Y6HEBDkEpCAiai2ynISF2Q","J.o.'s Restaurant","FALSE","https://www.yelp.com/biz/j-o-s-restaurant-kewaskum?adjust_creative=QNZpjiWMh-xtTiixb79gYw&utm_campaign=yelp_api_v3&utm_medium=api_v3_business_search&utm_source=QNZpjiWMh-xtTiixb79gYw","2","American (Traditional)","4.5","43.5210058093071","-88.2243675738573","","334 Main St"
"MSa_-Da6ZAsMyEaVwN2T_Q","Cork 'n Barrel","FALSE","https://www.yelp.com/biz/cork-n-barrel-newburg?adjust_creative=QNZpjiWMh-xtTiixb79gYw&utm_campaign=yelp_api_v3&utm_medium=api_v3_business_search&utm_source=QNZpjiWMh-xtTiixb79gYw","1","Bars | American (Traditional)","5","43.5206623","-88.2206509","$$","501 S Main St"
"LNC4T4kcZroltSrWgVwX0g","Michalenos","FALSE","https://www.yelp.com/biz/michalenos-kewaskum?adjust_creative=QNZpjiWMh-xtTiixb79gYw&utm_campaign=yelp_api_v3&utm_medium=api_v3_business_search&utm_source=QNZpjiWMh-xtTiixb79gYw","1","Italian | Pizza","5","43.52121","-88.22529","","250 Main St"
"rD-QHUhsZ1tC1wYJsHdPFQ","Cousins Subs","FALSE","https://www.yelp.com/biz/cousins-subs-kewaskum?adjust_creative=QNZpjiWMh-xtTiixb79gYw&utm_campaign=yelp_api_v3&utm_medium=api_v3_business_search&utm_source=QNZpjiWMh-xtTiixb79gYw","1","Sandwiches | Delis","4","43.514084","-88.223123","$$","1010 Fond Du Lac Ave"
"-WAFN1zy-TK2e7QtcLUORw","Dairy Queen","FALSE","https://www.yelp.com/biz/dairy-queen-kewaskum?adjust_creative=QNZpjiWMh-xtTiixb79gYw&utm_campaign=yelp_api_v3&utm_medium=api_v3_business_search&utm_source=QNZpjiWMh-xtTiixb79gYw","6","Ice Cream & Frozen Yogurt | Fast Food","3","43.51406","-88.22486","$","118 County Road H"
"AzCm-fLkINhAl95pKEa0Zg","Subway","FALSE","https://www.yelp.com/biz/subway-kewaskum?adjust_creative=QNZpjiWMh-xtTiixb79gYw&utm_campaign=yelp_api_v3&utm_medium=api_v3_business_search&utm_source=QNZpjiWMh-xtTiixb79gYw","1","Sandwiches | Fast Food","5","43.5112114","-88.2229309","$$","919 Fond Du Lac Ave"
"uNg6-m7Iqa2gG0kty0eh6w","McDonald's","FALSE","https://www.yelp.com/biz/mcdonalds-kewaskum?adjust_creative=QNZpjiWMh-xtTiixb79gYw&utm_campaign=yelp_api_v3&utm_medium=api_v3_business_search&utm_source=QNZpjiWMh-xtTiixb79gYw","3","Fast Food | Coffee & Tea | Burgers","1.5","43.4975012815898","-88.2167963683605","","102 Badger Rd"
