"ID","Name","Is_Closed","URL","Review_Count","Categories","Rating","Latitude","Longitude","Price","Address"
"FEWg7MXzfk82z9utascmYw","Reel Inn","FALSE","https://www.yelp.com/biz/reel-inn-necedah?adjust_creative=QNZpjiWMh-xtTiixb79gYw&utm_campaign=yelp_api_v3&utm_medium=api_v3_business_search&utm_source=QNZpjiWMh-xtTiixb79gYw","4","Restaurants","2.5","43.9940987","-90.0732574","","N9671 State Road 80"
"Er1P6P31-hEGOuU-Jqffwg","Anjero's","FALSE","https://www.yelp.com/biz/anjeros-necedah?adjust_creative=QNZpjiWMh-xtTiixb79gYw&utm_campaign=yelp_api_v3&utm_medium=api_v3_business_search&utm_source=QNZpjiWMh-xtTiixb79gYw","1","Pizza","5","43.947979","-90.012001","","N8414 County Road G"
"D69xQR2cAbRpzoaL76R-Uw","Squirrel-Es Bar & Grill","FALSE","https://www.yelp.com/biz/squirrel-es-bar-and-grill-camp-douglas?adjust_creative=QNZpjiWMh-xtTiixb79gYw&utm_campaign=yelp_api_v3&utm_medium=api_v3_business_search&utm_source=QNZpjiWMh-xtTiixb79gYw","14","American (Traditional) | Bars","4.5","43.9204727","-90.270214","$","120 Main St"
"moPowQ8zFniFZR9U7quSZw","Home Front Travel Mart & Restaurant","FALSE","https://www.yelp.com/biz/home-front-travel-mart-and-restaurant-camp-douglas?adjust_creative=QNZpjiWMh-xtTiixb79gYw&utm_campaign=yelp_api_v3&utm_medium=api_v3_business_search&utm_source=QNZpjiWMh-xtTiixb79gYw","3","Diners | Convenience Stores","3.5","43.9218","-90.26564","$","200 US Hwy 12 & 16"
"GRcVo2s4tdhTRONXOaedJQ","Quiznos","FALSE","https://www.yelp.com/biz/quiznos-camp-douglas-2?adjust_creative=QNZpjiWMh-xtTiixb79gYw&utm_campaign=yelp_api_v3&utm_medium=api_v3_business_search&utm_source=QNZpjiWMh-xtTiixb79gYw","1","Fast Food | Sandwiches","1","43.9247956126928","-90.2749666571617","","200 US Highway 12"
"1zg3CCNx-mwWa4eDjetE-g","Eagle's Nest Resort","FALSE","https://www.yelp.com/biz/eagles-nest-resort-camp-douglas?adjust_creative=QNZpjiWMh-xtTiixb79gYw&utm_campaign=yelp_api_v3&utm_medium=api_v3_business_search&utm_source=QNZpjiWMh-xtTiixb79gYw","2","Hotels | Restaurants","3.5","44.0702477","-90.282692","","N11770 County Road H"
"5yy80G41WKItYPCRStkBiw","T Nc Pizza","FALSE","https://www.yelp.com/biz/t-nc-pizza-camp-douglas?adjust_creative=QNZpjiWMh-xtTiixb79gYw&utm_campaign=yelp_api_v3&utm_medium=api_v3_business_search&utm_source=QNZpjiWMh-xtTiixb79gYw","1","Restaurants","5","43.8793411254883","-90.2706069946289","","116 E Main St"
"DM_WKbcEGHdjbqGAcUtASQ","Little Crane Cafe","FALSE","https://www.yelp.com/biz/little-crane-cafe-necedah?adjust_creative=QNZpjiWMh-xtTiixb79gYw&utm_campaign=yelp_api_v3&utm_medium=api_v3_business_search&utm_source=QNZpjiWMh-xtTiixb79gYw","18","Breakfast & Brunch | Burgers | Cafes","4.5","44.0134174","-90.0666913","$","1111 S Main St"
"KTEhEclf0B1uADf6zM8jIA","Clearfield Pub & Grille","FALSE","https://www.yelp.com/biz/clearfield-pub-and-grille-new-lisbon?adjust_creative=QNZpjiWMh-xtTiixb79gYw&utm_campaign=yelp_api_v3&utm_medium=api_v3_business_search&utm_source=QNZpjiWMh-xtTiixb79gYw","4","Sports Bars | American (Traditional)","4.5","43.912685","-90.124917","","N7405 State Road 80"
"Zo5x2U2Tq0OZ_qdVia2bVA","Dirty Turtle","FALSE","https://www.yelp.com/biz/dirty-turtle-new-lisbon-2?adjust_creative=QNZpjiWMh-xtTiixb79gYw&utm_campaign=yelp_api_v3&utm_medium=api_v3_business_search&utm_source=QNZpjiWMh-xtTiixb79gYw","20","American (New)","3.5","43.913237","-90.031817","$","W5250 N Osprey Dr"
"4JXPEC8ZRvxjSJCO4L3Tqg","Cafe Pizzeria","FALSE","https://www.yelp.com/biz/cafe-pizzeria-necedah?adjust_creative=QNZpjiWMh-xtTiixb79gYw&utm_campaign=yelp_api_v3&utm_medium=api_v3_business_search&utm_source=QNZpjiWMh-xtTiixb79gYw","1","Pizza","4","44.02421","-90.06985","$$","304 S Main St"
"lM-oRpnAGMTPAWaY4g00iw","Kayleighs Cafe","FALSE","https://www.yelp.com/biz/kayleighs-cafe-new-lisbon?adjust_creative=QNZpjiWMh-xtTiixb79gYw&utm_campaign=yelp_api_v3&utm_medium=api_v3_business_search&utm_source=QNZpjiWMh-xtTiixb79gYw","1","Hot Dogs","5","43.9216885669245","-90.0530762225389","$","USA"
"mjfn7ERkCSrWMvMNIgxa2g","Subway","FALSE","https://www.yelp.com/biz/subway-necedah?adjust_creative=QNZpjiWMh-xtTiixb79gYw&utm_campaign=yelp_api_v3&utm_medium=api_v3_business_search&utm_source=QNZpjiWMh-xtTiixb79gYw","3","Sandwiches | Fast Food","2","44.025447845459","-90.0729370117188","","111 S Main St"
"zJfEH4yKFRhJzAUgH1rY7Q","Shipwreck Bay","FALSE","https://www.yelp.com/biz/shipwreck-bay-mauston?adjust_creative=QNZpjiWMh-xtTiixb79gYw&utm_campaign=yelp_api_v3&utm_medium=api_v3_business_search&utm_source=QNZpjiWMh-xtTiixb79gYw","23","American (Traditional)","4","43.9008864015341","-90.0227297097445","$$","N7265 Shacks Rd"
"_S2mUS5zLilNdv7nijpBdg","Tina's Kountry Kettle Cafe","FALSE","https://www.yelp.com/biz/tinas-kountry-kettle-cafe-new-lisbon?adjust_creative=QNZpjiWMh-xtTiixb79gYw&utm_campaign=yelp_api_v3&utm_medium=api_v3_business_search&utm_source=QNZpjiWMh-xtTiixb79gYw","8","Cafes | Breakfast & Brunch","4","43.8793716430664","-90.166145324707","$","101 E Bridge St"
"KbjUV8ehVd9xi8XmQEiD6Q","Rotten Brothers Pub & Grill","FALSE","https://www.yelp.com/biz/rotten-brothers-pub-and-grill-camp-douglas?adjust_creative=QNZpjiWMh-xtTiixb79gYw&utm_campaign=yelp_api_v3&utm_medium=api_v3_business_search&utm_source=QNZpjiWMh-xtTiixb79gYw","5","Pubs | American (Traditional)","4.5","43.878212","-90.356576","$$","20704 Cty Rd N"
"hUKHJMxW4jCxEvnpOVBiZQ","Buckhorn Grill and Bar","FALSE","https://www.yelp.com/biz/buckhorn-grill-and-bar-necedah-2?adjust_creative=QNZpjiWMh-xtTiixb79gYw&utm_campaign=yelp_api_v3&utm_medium=api_v3_business_search&utm_source=QNZpjiWMh-xtTiixb79gYw","3","Bars | American (Traditional)","3.5","43.9484630963408","-90.0156288805101","","N8404 19th Ave"
"Z6Wfe5dj7YedrPmUYOypMQ","Real Taste Garden","FALSE","https://www.yelp.com/biz/real-taste-garden-new-lisbon-2?adjust_creative=QNZpjiWMh-xtTiixb79gYw&utm_campaign=yelp_api_v3&utm_medium=api_v3_business_search&utm_source=QNZpjiWMh-xtTiixb79gYw","11","Chinese","4.5","43.885589","-90.143486","$","1701 E Bridge St"
"M4PnbvC2oLF-s5NlnTmdvQ","Tom's Diner","FALSE","https://www.yelp.com/biz/toms-diner-new-lisbon?adjust_creative=QNZpjiWMh-xtTiixb79gYw&utm_campaign=yelp_api_v3&utm_medium=api_v3_business_search&utm_source=QNZpjiWMh-xtTiixb79gYw","2","American (Traditional) | Breakfast & Brunch","4.5","43.8793547993415","-90.1661286503077","$","215 E Bridge St"
"v0pIxLUoRHbV8_IkqrU8SQ","Country Cafe","FALSE","https://www.yelp.com/biz/country-cafe-babcock?adjust_creative=QNZpjiWMh-xtTiixb79gYw&utm_campaign=yelp_api_v3&utm_medium=api_v3_business_search&utm_source=QNZpjiWMh-xtTiixb79gYw","1","Restaurants","4","44.306804","-90.110969","","1699 Highway 80"
"3SYd5t6qFGHn1sICYxpCXg","Mid-State Cafe","FALSE","https://www.yelp.com/biz/mid-state-cafe-new-lisbon?adjust_creative=QNZpjiWMh-xtTiixb79gYw&utm_campaign=yelp_api_v3&utm_medium=api_v3_business_search&utm_source=QNZpjiWMh-xtTiixb79gYw","2","Pizza","2.5","43.886261","-90.1460037","$","1700 E Bridge St"
"Tw2dQAK6KH7-L_Njf-GfOg","Crazy Bobs big Rig Cafe","FALSE","https://www.yelp.com/biz/crazy-bobs-big-rig-cafe-new-lisbon?adjust_creative=QNZpjiWMh-xtTiixb79gYw&utm_campaign=yelp_api_v3&utm_medium=api_v3_business_search&utm_source=QNZpjiWMh-xtTiixb79gYw","1","Breakfast & Brunch","1","43.884215491702","-90.1458621533377","","1700 E Bridge St"
"1dN-9NaZO3--5HfuWzHA5w","A&W","FALSE","https://www.yelp.com/biz/a-and-w-new-lisbon?adjust_creative=QNZpjiWMh-xtTiixb79gYw&utm_campaign=yelp_api_v3&utm_medium=api_v3_business_search&utm_source=QNZpjiWMh-xtTiixb79gYw","2","Hot Dogs","2.5","43.886261","-90.1460037","$$","1700 E Bridge St"
"oDOJ7Wymw3BXMTn9u0P1uA","Barnes Family Corner Cafe","FALSE","https://www.yelp.com/biz/barnes-family-corner-cafe-new-lisbon?adjust_creative=QNZpjiWMh-xtTiixb79gYw&utm_campaign=yelp_api_v3&utm_medium=api_v3_business_search&utm_source=QNZpjiWMh-xtTiixb79gYw","1","Breakfast & Brunch | American (Traditional)","1","43.8793648","-90.16615","","101 E Bridge St"
"FUWvpdbweHAvLEQ_I5XPyw","Opera House Bar & Grill","FALSE","https://www.yelp.com/biz/opera-house-bar-and-grill-new-lisbon?adjust_creative=QNZpjiWMh-xtTiixb79gYw&utm_campaign=yelp_api_v3&utm_medium=api_v3_business_search&utm_source=QNZpjiWMh-xtTiixb79gYw","5","Restaurants","3.5","43.8793529570103","-90.1662567257881","$","120 S Adams St"
"HLTOLg0Pro0wLD4TXyRC1w","McDonald's","FALSE","https://www.yelp.com/biz/mcdonalds-new-lisbon?adjust_creative=QNZpjiWMh-xtTiixb79gYw&utm_campaign=yelp_api_v3&utm_medium=api_v3_business_search&utm_source=QNZpjiWMh-xtTiixb79gYw","9","Burgers | Fast Food | Coffee & Tea","2","43.884834","-90.143692","$","1701 E Bridge St"
"ciIum1051tGCZVV5eLe8-A","Subway","FALSE","https://www.yelp.com/biz/subway-new-lisbon?adjust_creative=QNZpjiWMh-xtTiixb79gYw&utm_campaign=yelp_api_v3&utm_medium=api_v3_business_search&utm_source=QNZpjiWMh-xtTiixb79gYw","1","Sandwiches | Fast Food","1","43.8856994374919","-90.1464593410492","","1796-1800 E Bridge St"
"nqhDhcARuKUeiqPRm5N6jA","Dirty Oar","FALSE","https://www.yelp.com/biz/dirty-oar-nekoosa?adjust_creative=QNZpjiWMh-xtTiixb79gYw&utm_campaign=yelp_api_v3&utm_medium=api_v3_business_search&utm_source=QNZpjiWMh-xtTiixb79gYw","19","Steakhouses","4","44.1880283","-89.8935312","$$","1682 Apache Ln"
"FlXv_363nL0cmyM0mol_nA","Petenwell Pub","FALSE","https://www.yelp.com/biz/petenwell-pub-arkdale?adjust_creative=QNZpjiWMh-xtTiixb79gYw&utm_campaign=yelp_api_v3&utm_medium=api_v3_business_search&utm_source=QNZpjiWMh-xtTiixb79gYw","9","Pizza","4","44.1181102","-89.9476456","$","1951 Bighorn Dr"
"F0byYs6-1K2PopdXxw7ZzQ","Lure Bar & Grill","FALSE","https://www.yelp.com/biz/lure-bar-and-grill-nekoosa?adjust_creative=QNZpjiWMh-xtTiixb79gYw&utm_campaign=yelp_api_v3&utm_medium=api_v3_business_search&utm_source=QNZpjiWMh-xtTiixb79gYw","20","Bars | American (Traditional)","3.5","44.1745871","-89.9017151","$$","1735 Archer Ln"
"8t9g4qYU9GjtyGQfDCPRmw","Greenside Grille at Lake Arrowhead","FALSE","https://www.yelp.com/biz/greenside-grille-at-lake-arrowhead-nekoosa?adjust_creative=QNZpjiWMh-xtTiixb79gYw&utm_campaign=yelp_api_v3&utm_medium=api_v3_business_search&utm_source=QNZpjiWMh-xtTiixb79gYw","4","American (Traditional) | Music Venues | Lounges","5","44.19133","-89.8161316","","1195 Apache Ln"
"IL-fjc83ycdXBWu99Debvg","Trail's End Bar and Grill","FALSE","https://www.yelp.com/biz/trails-end-bar-and-grill-nekoosa?adjust_creative=QNZpjiWMh-xtTiixb79gYw&utm_campaign=yelp_api_v3&utm_medium=api_v3_business_search&utm_source=QNZpjiWMh-xtTiixb79gYw","20","Bars | American (Traditional)","3","44.22013","-89.85652","$$","1497 Alpine Dr"
"O-j8kZyUZfVDT-hjFsUllQ","Lake Sherwood Lodge","FALSE","https://www.yelp.com/biz/lake-sherwood-lodge-nekoosa-3?adjust_creative=QNZpjiWMh-xtTiixb79gYw&utm_campaign=yelp_api_v3&utm_medium=api_v3_business_search&utm_source=QNZpjiWMh-xtTiixb79gYw","4","Burgers | American (Traditional) | Sandwiches","4","44.2014370631089","-89.8066746521707","","1146 W Queens Way"
"A1LoacG-zk-2YdKCItS_fQ","Mo's Bar & Grill","FALSE","https://www.yelp.com/biz/mos-bar-and-grill-friendship-2?adjust_creative=QNZpjiWMh-xtTiixb79gYw&utm_campaign=yelp_api_v3&utm_medium=api_v3_business_search&utm_source=QNZpjiWMh-xtTiixb79gYw","7","Bars | Seafood","4.5","44.0615952000421","-89.8041363805532","$$","1348 State Hwy 13"
"JsO8spwEkYh77-K3yz2Q5A","3 Lakes Bistro","FALSE","https://www.yelp.com/biz/3-lakes-bistro-nekoosa-2?adjust_creative=QNZpjiWMh-xtTiixb79gYw&utm_campaign=yelp_api_v3&utm_medium=api_v3_business_search&utm_source=QNZpjiWMh-xtTiixb79gYw","6","American (Traditional)","4","44.2535798579812","-89.8103041672939","","386 State Highway 13"
"cHzruDW14e0U-uHqvgZmVQ","Moose Morgans North","FALSE","https://www.yelp.com/biz/moose-morgans-north-arkdale?adjust_creative=QNZpjiWMh-xtTiixb79gYw&utm_campaign=yelp_api_v3&utm_medium=api_v3_business_search&utm_source=QNZpjiWMh-xtTiixb79gYw","2","American (Traditional)","2.5","44.1266737","-89.8077833","$$","899 State Rd 13"
"0bQNKFJyUehzvQ6wHNvHbA","Friar Tuck's Pub & Grille","FALSE","https://www.yelp.com/biz/friar-tucks-pub-and-grille-nekoosa?adjust_creative=QNZpjiWMh-xtTiixb79gYw&utm_campaign=yelp_api_v3&utm_medium=api_v3_business_search&utm_source=QNZpjiWMh-xtTiixb79gYw","6","Restaurants","3","44.2017303407192","-89.8081167787313","$","382 State Highway 13"
"mAW26U1Vak8gGQ-eWWprMg","Romano's Pizzeria","FALSE","https://www.yelp.com/biz/romanos-pizzeria-nekoosa?adjust_creative=QNZpjiWMh-xtTiixb79gYw&utm_campaign=yelp_api_v3&utm_medium=api_v3_business_search&utm_source=QNZpjiWMh-xtTiixb79gYw","17","Pizza","3","44.247428894043","-89.8658981323242","$$","108 County Rd Z"
"cg49PsXSv3j9AzID8w9dOA","JB Country Restaurant","FALSE","https://www.yelp.com/biz/jb-country-restaurant-arkdale?adjust_creative=QNZpjiWMh-xtTiixb79gYw&utm_campaign=yelp_api_v3&utm_medium=api_v3_business_search&utm_source=QNZpjiWMh-xtTiixb79gYw","10","American (Traditional) | Breakfast & Brunch | Polish","5","44.04018","-89.93728","$","1898 State Rd 21"
"E7npbuytsIrcKxnxwBXlpQ","Spot In the Woods","FALSE","https://www.yelp.com/biz/spot-in-the-woods-friendship?adjust_creative=QNZpjiWMh-xtTiixb79gYw&utm_campaign=yelp_api_v3&utm_medium=api_v3_business_search&utm_source=QNZpjiWMh-xtTiixb79gYw","5","Bars | American (Traditional)","4","43.9753182203658","-89.8973647271133","$$","1940 17th Ct"
"DyDoxILuhava8f-pXJAIpg","Carlson's Rustic Ridge","FALSE","https://www.yelp.com/biz/carlsons-rustic-ridge-friendship?adjust_creative=QNZpjiWMh-xtTiixb79gYw&utm_campaign=yelp_api_v3&utm_medium=api_v3_business_search&utm_source=QNZpjiWMh-xtTiixb79gYw","21","American (Traditional) | Seafood | Hot Dogs","4","43.93257","-89.94571","$$","2230 Town Rd"
"4SK34WGpc0uze7FLSrBsng","Splash Waterfront Bar & Grill","FALSE","https://www.yelp.com/biz/splash-waterfront-bar-and-grill-friendship?adjust_creative=QNZpjiWMh-xtTiixb79gYw&utm_campaign=yelp_api_v3&utm_medium=api_v3_business_search&utm_source=QNZpjiWMh-xtTiixb79gYw","19","American (Traditional) | Desserts | Bars","2.5","43.969184","-89.94691","$$","1947 Dakota Ln"
"TfgJ5gM1j-NSB6IBDVT0AA","Dellwood Pavillion","FALSE","https://www.yelp.com/biz/dellwood-pavillion-friendship?adjust_creative=QNZpjiWMh-xtTiixb79gYw&utm_campaign=yelp_api_v3&utm_medium=api_v3_business_search&utm_source=QNZpjiWMh-xtTiixb79gYw","5","Steakhouses | Fast Food | Sandwiches","4.5","43.9552732630977","-89.9391362644738","$","1907 Deerborn Ln"
"-_h8-R_6BtRR7UDUl3vN-g","J B Sales","FALSE","https://www.yelp.com/biz/j-b-sales-arkdale?adjust_creative=QNZpjiWMh-xtTiixb79gYw&utm_campaign=yelp_api_v3&utm_medium=api_v3_business_search&utm_source=QNZpjiWMh-xtTiixb79gYw","7","Polish | Gas Stations | Convenience Stores","3.5","44.04018","-89.93728","$","1898 State Rd 21"
"my72umq8FTm4vcMMX0k6aQ","Kubon's Dellwood Pavilion","FALSE","https://www.yelp.com/biz/kubons-dellwood-pavilion-friendship?adjust_creative=QNZpjiWMh-xtTiixb79gYw&utm_campaign=yelp_api_v3&utm_medium=api_v3_business_search&utm_source=QNZpjiWMh-xtTiixb79gYw","3","Restaurants","3.5","43.9549599","-89.9393234","","1907 Deerborn Ln"
"RI9DpMzdOJB-_7UCmAOVNQ","Inn of the Pines","FALSE","https://www.yelp.com/biz/inn-of-the-pines-friendship?adjust_creative=QNZpjiWMh-xtTiixb79gYw&utm_campaign=yelp_api_v3&utm_medium=api_v3_business_search&utm_source=QNZpjiWMh-xtTiixb79gYw","5","Hotels | American (Traditional)","3.5","44.0221913158894","-89.8122151941061","$$","1617 State Highway 13"
"iHzEDNVyvGnOC8UVGPVoaQ","Country Skillet","FALSE","https://www.yelp.com/biz/country-skillet-adams?adjust_creative=QNZpjiWMh-xtTiixb79gYw&utm_campaign=yelp_api_v3&utm_medium=api_v3_business_search&utm_source=QNZpjiWMh-xtTiixb79gYw","12","American (New)","4.5","43.956446050445","-89.8198116627031","$$","320 S Main St"
"duQGa9MTsd5h24lb27wIvA","Bucky's Brick Oven Eatery","FALSE","https://www.yelp.com/biz/buckys-brick-oven-eatery-adams?adjust_creative=QNZpjiWMh-xtTiixb79gYw&utm_campaign=yelp_api_v3&utm_medium=api_v3_business_search&utm_source=QNZpjiWMh-xtTiixb79gYw","16","Pizza | Italian","4","43.95646","-89.81724","$","166 S Main St"
"0orgP89JQBVuaIAoeTGfWQ","Jose's Authentic Mexican Restaurant","FALSE","https://www.yelp.com/biz/joses-authentic-mexican-restaurant-adams?adjust_creative=QNZpjiWMh-xtTiixb79gYw&utm_campaign=yelp_api_v3&utm_medium=api_v3_business_search&utm_source=QNZpjiWMh-xtTiixb79gYw","19","Mexican","4","43.9554482","-89.8172226","$$","218 S Main St"
"mMDIWgBW8T4TQXm7GTA7Og","2113 Cafe","FALSE","https://www.yelp.com/biz/2113-cafe-friendship?adjust_creative=QNZpjiWMh-xtTiixb79gYw&utm_campaign=yelp_api_v3&utm_medium=api_v3_business_search&utm_source=QNZpjiWMh-xtTiixb79gYw","5","American (New) | Breakfast & Brunch | Greek","3.5","44.02568","-89.80658","$","1150 State Rd 21"
"v2JY46P8lUGFCiXS8fpeYw","Moonshiners Old Mill Bar & Grill","FALSE","https://www.yelp.com/biz/moonshiners-old-mill-bar-and-grill-arkdale?adjust_creative=QNZpjiWMh-xtTiixb79gYw&utm_campaign=yelp_api_v3&utm_medium=api_v3_business_search&utm_source=QNZpjiWMh-xtTiixb79gYw","5","Bars | American (Traditional)","3","44.0297117","-89.8878177","$","1562 State Rd 21"
"T3bKo0YKbMYbSnl71Hv7-Q","Family Affair Restaurant","FALSE","https://www.yelp.com/biz/family-affair-restaurant-friendship?adjust_creative=QNZpjiWMh-xtTiixb79gYw&utm_campaign=yelp_api_v3&utm_medium=api_v3_business_search&utm_source=QNZpjiWMh-xtTiixb79gYw","9","Breakfast & Brunch | Diners | American (Traditional)","3","43.9770355224609","-89.8153915405273","$$","208 N Main St"
"D6mUtp_IeUIJS9ABkn0EsA","Friendship Cafe","FALSE","https://www.yelp.com/biz/friendship-cafe-friendship?adjust_creative=QNZpjiWMh-xtTiixb79gYw&utm_campaign=yelp_api_v3&utm_medium=api_v3_business_search&utm_source=QNZpjiWMh-xtTiixb79gYw","5","Restaurants","3.5","43.9718627929688","-89.8165283203125","$","303 Main St"
"xbWxTosFFPPlcTcRaZ2Sbw","Becky's Sugar Shack Bakery and Cafe","FALSE","https://www.yelp.com/biz/beckys-sugar-shack-bakery-and-cafe-adams?adjust_creative=QNZpjiWMh-xtTiixb79gYw&utm_campaign=yelp_api_v3&utm_medium=api_v3_business_search&utm_source=QNZpjiWMh-xtTiixb79gYw","4","Cafes | Bakeries | Ice Cream & Frozen Yogurt","4.5","43.9565658569336","-89.8172454833984","$","158 South Main St"
"5IBBZS7EvG4yZBrxvqsH3A","Golden City","FALSE","https://www.yelp.com/biz/golden-city-adams?adjust_creative=QNZpjiWMh-xtTiixb79gYw&utm_campaign=yelp_api_v3&utm_medium=api_v3_business_search&utm_source=QNZpjiWMh-xtTiixb79gYw","3","Chinese","3","43.95303","-89.81716","$","400 S Main St"
"UjuFvImqnGNzGj0ZLc_5RA","A-F County Market","FALSE","https://www.yelp.com/biz/a-f-county-market-adams?adjust_creative=QNZpjiWMh-xtTiixb79gYw&utm_campaign=yelp_api_v3&utm_medium=api_v3_business_search&utm_source=QNZpjiWMh-xtTiixb79gYw","3","Grocery | Beer, Wine & Spirits | Delis","4.5","43.96641","-89.82001","$","215 W North St"
"z0Ui5qWor5ohrt01cSASTQ","Papa's Pizza","FALSE","https://www.yelp.com/biz/papas-pizza-adams?adjust_creative=QNZpjiWMh-xtTiixb79gYw&utm_campaign=yelp_api_v3&utm_medium=api_v3_business_search&utm_source=QNZpjiWMh-xtTiixb79gYw","4","Pizza","3.5","43.958927154541","-89.8172988891602","$$","166 N Main St"
"aVJQkR-eJzPdofLP6o3nwA","McDonald's","FALSE","https://www.yelp.com/biz/mcdonalds-adams?adjust_creative=QNZpjiWMh-xtTiixb79gYw&utm_campaign=yelp_api_v3&utm_medium=api_v3_business_search&utm_source=QNZpjiWMh-xtTiixb79gYw","2","Burgers | Fast Food | Coffee & Tea","2.5","43.9526332130016","-89.8183193884324","","453 S Main St"
"xn_77XBptynEelcSktJYTg","Subway","FALSE","https://www.yelp.com/biz/subway-adams-5?adjust_creative=QNZpjiWMh-xtTiixb79gYw&utm_campaign=yelp_api_v3&utm_medium=api_v3_business_search&utm_source=QNZpjiWMh-xtTiixb79gYw","1","Fast Food | Sandwiches","1","43.9656600952148","-89.8183441162109","","515 N Main St"
"P-DfiI0EqRBq5DoGC3xleg","Roman Castle Restaurant","FALSE","https://www.yelp.com/biz/roman-castle-restaurant-mauston?adjust_creative=QNZpjiWMh-xtTiixb79gYw&utm_campaign=yelp_api_v3&utm_medium=api_v3_business_search&utm_source=QNZpjiWMh-xtTiixb79gYw","71","American (Traditional) | Desserts | Breakfast & Brunch","4","43.796809","-90.064633","$$","532 Gateway Ave"
"WN0l1nz-e4BMX3cwLCFBbw","State Street Tap","FALSE","https://www.yelp.com/biz/state-street-tap-mauston?adjust_creative=QNZpjiWMh-xtTiixb79gYw&utm_campaign=yelp_api_v3&utm_medium=api_v3_business_search&utm_source=QNZpjiWMh-xtTiixb79gYw","7","American (Traditional) | Pubs","5","43.79701","-90.07684","$","112 E State St"
"ee-M7nTosr1T8SW_-ktCXA","Log Cabin Cheese & Deli","FALSE","https://www.yelp.com/biz/log-cabin-cheese-and-deli-mauston?adjust_creative=QNZpjiWMh-xtTiixb79gYw&utm_campaign=yelp_api_v3&utm_medium=api_v3_business_search&utm_source=QNZpjiWMh-xtTiixb79gYw","19","American (New) | Cheese Shops","4.5","43.797693","-90.0670129","$","517 Gateway Ave"
"vfoLRo3UY0kX9BdP1WIdMQ","Beyond The Daily Grind Cafe","FALSE","https://www.yelp.com/biz/beyond-the-daily-grind-cafe-mauston?adjust_creative=QNZpjiWMh-xtTiixb79gYw&utm_campaign=yelp_api_v3&utm_medium=api_v3_business_search&utm_source=QNZpjiWMh-xtTiixb79gYw","5","Cafes","3.5","43.7968254089355","-90.0744705200195","$","241 E State St"
"hEuw8f1xqqZUtOLI18glJA","Mauston Park Oasis Restaurant & Bakery","FALSE","https://www.yelp.com/biz/mauston-park-oasis-restaurant-and-bakery-mauston?adjust_creative=QNZpjiWMh-xtTiixb79gYw&utm_campaign=yelp_api_v3&utm_medium=api_v3_business_search&utm_source=QNZpjiWMh-xtTiixb79gYw","24","Bakeries | American (Traditional)","3","43.79641","-90.05645","$","Hwy 82 & 190 94 E"
"mPWKK2YPNF12qmHM4P947A","Cinco De Mayo","FALSE","https://www.yelp.com/biz/cinco-de-mayo-mauston?adjust_creative=QNZpjiWMh-xtTiixb79gYw&utm_campaign=yelp_api_v3&utm_medium=api_v3_business_search&utm_source=QNZpjiWMh-xtTiixb79gYw","25","Mexican","3","43.80458","-90.07073","$","651 N Union St"
"NqRjppWQcDnS0yK4F_jUxQ","Timmy's Time-Out","FALSE","https://www.yelp.com/biz/timmys-time-out-mauston?adjust_creative=QNZpjiWMh-xtTiixb79gYw&utm_campaign=yelp_api_v3&utm_medium=api_v3_business_search&utm_source=QNZpjiWMh-xtTiixb79gYw","2","Sports Bars | Salad | Sandwiches","4.5","43.79745","-90.06678","","522 Gateway Ave"
"th_yPYkfKmRXrF0QsRcKjA","Hearty Platter","FALSE","https://www.yelp.com/biz/hearty-platter-mauston?adjust_creative=QNZpjiWMh-xtTiixb79gYw&utm_campaign=yelp_api_v3&utm_medium=api_v3_business_search&utm_source=QNZpjiWMh-xtTiixb79gYw","6","American (Traditional)","3","43.7977","-90.06064","$","611 State Road 82"
"IlFBgftgS_K7RDPESbIsiQ","Doughboyz","FALSE","https://www.yelp.com/biz/doughboyz-mauston?adjust_creative=QNZpjiWMh-xtTiixb79gYw&utm_campaign=yelp_api_v3&utm_medium=api_v3_business_search&utm_source=QNZpjiWMh-xtTiixb79gYw","5","Pizza","4.5","43.7959098815918","-90.0723190307617","","417 E State St"
"yUzrCbLcgl7b40-CiNuuMw","Culvers","FALSE","https://www.yelp.com/biz/culvers-mauston?adjust_creative=QNZpjiWMh-xtTiixb79gYw&utm_campaign=yelp_api_v3&utm_medium=api_v3_business_search&utm_source=QNZpjiWMh-xtTiixb79gYw","19","Burgers | Fast Food","4.5","43.79576","-90.05963","$","640 McEvoy St"
"8bSBheCIn_Yr42XHox-C0A","China Buffet","FALSE","https://www.yelp.com/biz/china-buffet-mauston?adjust_creative=QNZpjiWMh-xtTiixb79gYw&utm_campaign=yelp_api_v3&utm_medium=api_v3_business_search&utm_source=QNZpjiWMh-xtTiixb79gYw","10","Chinese | Soup | American (Traditional)","3","43.797087024134","-90.0538187731723","$$","1003 Gateway Ave"
"28j-RJRj7dDADI4Ka1heyA","Denny's","FALSE","https://www.yelp.com/biz/dennys-mauston?adjust_creative=QNZpjiWMh-xtTiixb79gYw&utm_campaign=yelp_api_v3&utm_medium=api_v3_business_search&utm_source=QNZpjiWMh-xtTiixb79gYw","6","Diners | Breakfast & Brunch | American (Traditional)","4","43.7969365","-90.0622465","$$","611 Gateway Ave"
"vjFkIjf-N5-300pfn5H1VQ","Cj's Italian Restaurant","FALSE","https://www.yelp.com/biz/cjs-italian-restaurant-mauston?adjust_creative=QNZpjiWMh-xtTiixb79gYw&utm_campaign=yelp_api_v3&utm_medium=api_v3_business_search&utm_source=QNZpjiWMh-xtTiixb79gYw","3","Italian","1","43.795137","-90.071601","$$$","522 State Rd 82"
"t3fBDtWnzt8FzDYh3cYoeg","Dairy Island","FALSE","https://www.yelp.com/biz/dairy-island-mauston?adjust_creative=QNZpjiWMh-xtTiixb79gYw&utm_campaign=yelp_api_v3&utm_medium=api_v3_business_search&utm_source=QNZpjiWMh-xtTiixb79gYw","4","Restaurants","4","43.802886","-90.087611","","917 W State St"
"ucFqK0NLBSpR8kY5yNWehA","Eastern Chinese Restaurant","FALSE","https://www.yelp.com/biz/eastern-chinese-restaurant-mauston-2?adjust_creative=QNZpjiWMh-xtTiixb79gYw&utm_campaign=yelp_api_v3&utm_medium=api_v3_business_search&utm_source=QNZpjiWMh-xtTiixb79gYw","7","Chinese","3.5","43.7965038","-90.0539187","$$","1003 Gateway Ave"
"_iSPgjjYIUFaBpp07eVHGw","Dry Gulch Saloon & Eatery","FALSE","https://www.yelp.com/biz/dry-gulch-saloon-and-eatery-mauston?adjust_creative=QNZpjiWMh-xtTiixb79gYw&utm_campaign=yelp_api_v3&utm_medium=api_v3_business_search&utm_source=QNZpjiWMh-xtTiixb79gYw","3","Pizza","3","43.7970085","-90.0768433","$","112 E State St"
"SFawtr1cn6dbE9wBw8clLw","Anjeros Sports Bar & Grill","FALSE","https://www.yelp.com/biz/anjeros-sports-bar-and-grill-mauston?adjust_creative=QNZpjiWMh-xtTiixb79gYw&utm_campaign=yelp_api_v3&utm_medium=api_v3_business_search&utm_source=QNZpjiWMh-xtTiixb79gYw","4","Pizza | Sports Bars | Bowling","3","43.7975425720215","-90.0644149780273","","531 State Rd 82"
"NtxVxZE8M22mDgJXUpv0Zw","Subway","FALSE","https://www.yelp.com/biz/subway-mauston?adjust_creative=QNZpjiWMh-xtTiixb79gYw&utm_campaign=yelp_api_v3&utm_medium=api_v3_business_search&utm_source=QNZpjiWMh-xtTiixb79gYw","2","Sandwiches | Fast Food","3.5","43.805111","-90.069956","","756 N Union St"
"FzkWyvEzFjZet7oX3rv3GA","Pizza Hut","FALSE","https://www.yelp.com/biz/pizza-hut-mauston?adjust_creative=QNZpjiWMh-xtTiixb79gYw&utm_campaign=yelp_api_v3&utm_medium=api_v3_business_search&utm_source=QNZpjiWMh-xtTiixb79gYw","3","Pizza | Italian | Chicken Wings","2.5","43.7970356600815","-90.0597993932541","$$","623 Wisconsin 82"
"3yHKacHfHNQ5GkvdGbdcuA","Wendy's","FALSE","https://www.yelp.com/biz/wendys-mauston?adjust_creative=QNZpjiWMh-xtTiixb79gYw&utm_campaign=yelp_api_v3&utm_medium=api_v3_business_search&utm_source=QNZpjiWMh-xtTiixb79gYw","8","Fast Food | Burgers","2","43.7901803465662","-90.0868606567383","$","1101 State Rd 82"
"gqfKGdDJlEfDcuynwiWNwQ","Taco Bell","FALSE","https://www.yelp.com/biz/taco-bell-mauston?adjust_creative=QNZpjiWMh-xtTiixb79gYw&utm_campaign=yelp_api_v3&utm_medium=api_v3_business_search&utm_source=QNZpjiWMh-xtTiixb79gYw","3","Mexican | Tex-Mex | Fast Food","2.5","43.796263","-90.06122","$","1005 1/2 State Road 82"
"3CsJpEZAmjD0Q9udnhY15Q","Country Kitchen","FALSE","https://www.yelp.com/biz/country-kitchen-mauston?adjust_creative=QNZpjiWMh-xtTiixb79gYw&utm_campaign=yelp_api_v3&utm_medium=api_v3_business_search&utm_source=QNZpjiWMh-xtTiixb79gYw","2","Restaurants","2","43.7971458435059","-90.0537033081055","","1003 State Road 82"
"FYM0n2bS7KV3kJugrHKjlQ","McDonald's","FALSE","https://www.yelp.com/biz/mcdonalds-mauston-2?adjust_creative=QNZpjiWMh-xtTiixb79gYw&utm_campaign=yelp_api_v3&utm_medium=api_v3_business_search&utm_source=QNZpjiWMh-xtTiixb79gYw","1","Burgers | Fast Food | Coffee & Tea","1","43.7959383228754","-90.0618494954324","$","600 Mcevoy Rd"
"EiWpK1znSrnpdqFXeBMcfA","Kelley's Woodfired Bistro","FALSE","https://www.yelp.com/biz/kelleys-woodfired-bistro-wonewoc?adjust_creative=QNZpjiWMh-xtTiixb79gYw&utm_campaign=yelp_api_v3&utm_medium=api_v3_business_search&utm_source=QNZpjiWMh-xtTiixb79gYw","11","American (New) | Steakhouses | Seafood","5","43.65308","-90.2229919","$$","206 Center St"
"v2raEs04E9-vbtwKq_2kGQ","Benders Family Restaurant","FALSE","https://www.yelp.com/biz/benders-family-restaurant-elroy-2?adjust_creative=QNZpjiWMh-xtTiixb79gYw&utm_campaign=yelp_api_v3&utm_medium=api_v3_business_search&utm_source=QNZpjiWMh-xtTiixb79gYw","3","American (New)","5","43.7385396559735","-90.2704768861045","$$","213 Main St"
"PZiX_Wl2q999CvdWTcvaDg","Beezers Bar & Grill","FALSE","https://www.yelp.com/biz/beezers-bar-and-grill-hillsboro?adjust_creative=QNZpjiWMh-xtTiixb79gYw&utm_campaign=yelp_api_v3&utm_medium=api_v3_business_search&utm_source=QNZpjiWMh-xtTiixb79gYw","11","American (New) | Bars","3.5","43.655361","-90.336082","$$","1235 Water Ave"
"j4BtVuF9sxPsXO5dGhTFxA","Chapparal","FALSE","https://www.yelp.com/biz/chapparal-wonewoc?adjust_creative=QNZpjiWMh-xtTiixb79gYw&utm_campaign=yelp_api_v3&utm_medium=api_v3_business_search&utm_source=QNZpjiWMh-xtTiixb79gYw","2","American (Traditional)","4","43.6341527710872","-90.1750878161469","","316 Dreamland Dr"
"UgnyOC4HqhyBVXBE7mhhlg","Old Blue's Pizzeria","FALSE","https://www.yelp.com/biz/old-blues-pizzeria-wonewoc?adjust_creative=QNZpjiWMh-xtTiixb79gYw&utm_campaign=yelp_api_v3&utm_medium=api_v3_business_search&utm_source=QNZpjiWMh-xtTiixb79gYw","2","Pizza","2.5","43.6536750793457","-90.2228851318359","","218 Center St"
"I17nz3q8bXm5nM-wtpzsgA","Bernie's Wagon Wheel II","FALSE","https://www.yelp.com/biz/bernies-wagon-wheel-ii-wonewoc?adjust_creative=QNZpjiWMh-xtTiixb79gYw&utm_campaign=yelp_api_v3&utm_medium=api_v3_business_search&utm_source=QNZpjiWMh-xtTiixb79gYw","3","Restaurants","3.5","43.6534050107002","-90.2232684195042","","229 Center St"
"ndg680Z_0xRtnPnSOStYsg","Redstone's North End Tavern","FALSE","https://www.yelp.com/biz/redstones-north-end-tavern-la-valle-2?adjust_creative=QNZpjiWMh-xtTiixb79gYw&utm_campaign=yelp_api_v3&utm_medium=api_v3_business_search&utm_source=QNZpjiWMh-xtTiixb79gYw","3","American (Traditional) | Sports Bars","5","43.58284","-90.12705","","S593B La Valle Rd"
"zpf4lVJ7EjDTDfKD6yAKwA","Summit Ridge Restaurant","FALSE","https://www.yelp.com/biz/summit-ridge-restaurant-wonewoc-2?adjust_creative=QNZpjiWMh-xtTiixb79gYw&utm_campaign=yelp_api_v3&utm_medium=api_v3_business_search&utm_source=QNZpjiWMh-xtTiixb79gYw","2","Bars | American (Traditional)","3","43.66687","-90.11878","","N795 State Rd 58"
"BgRknN85LhX3n_CaN8JM4g","Little Summit","FALSE","https://www.yelp.com/biz/little-summit-la-valle?adjust_creative=QNZpjiWMh-xtTiixb79gYw&utm_campaign=yelp_api_v3&utm_medium=api_v3_business_search&utm_source=QNZpjiWMh-xtTiixb79gYw","1","Restaurants","4","43.6064831167459","-90.1239220798016","","N1060 Highway 58"
"kNhNwqpO62PEjA5g-c82Sw","Portofino Bay","FALSE","https://www.yelp.com/biz/portofino-bay-mauston-2?adjust_creative=QNZpjiWMh-xtTiixb79gYw&utm_campaign=yelp_api_v3&utm_medium=api_v3_business_search&utm_source=QNZpjiWMh-xtTiixb79gYw","23","Italian | American (Traditional)","2.5","43.894428","-89.977049","$$","N6895 Ridgewater Dr"
"f1hFtdy4ajxerJB0HpooIw","Kozy's Pizza","FALSE","https://www.yelp.com/biz/kozys-pizza-mauston?adjust_creative=QNZpjiWMh-xtTiixb79gYw&utm_campaign=yelp_api_v3&utm_medium=api_v3_business_search&utm_source=QNZpjiWMh-xtTiixb79gYw","10","Pizza","3.5","43.8932412","-89.9905632","$$","North 6897 County Road G"
"Rn-K77NFvSOAQP0r0sHeUg","The Way Station","FALSE","https://www.yelp.com/biz/the-way-station-mauston-2?adjust_creative=QNZpjiWMh-xtTiixb79gYw&utm_campaign=yelp_api_v3&utm_medium=api_v3_business_search&utm_source=QNZpjiWMh-xtTiixb79gYw","4","Pubs | American (Traditional)","3","43.8183791945071","-89.9379016289917","$","N4902 County Rd Hh"
"6Z1rEAYDwR21zTM6DCewag","Joe's Horseshoe Diner","FALSE","https://www.yelp.com/biz/joes-horseshoe-diner-lyndon-station-3?adjust_creative=QNZpjiWMh-xtTiixb79gYw&utm_campaign=yelp_api_v3&utm_medium=api_v3_business_search&utm_source=QNZpjiWMh-xtTiixb79gYw","8","Diners | American (Traditional) | Breakfast & Brunch","4","43.7110859","-89.9009071","$","111 E Flint St"
"rTZF-V2wIVenC8hg5UYSkw","Swagger Inn","FALSE","https://www.yelp.com/biz/swagger-inn-lyndon-station?adjust_creative=QNZpjiWMh-xtTiixb79gYw&utm_campaign=yelp_api_v3&utm_medium=api_v3_business_search&utm_source=QNZpjiWMh-xtTiixb79gYw","8","Restaurants","4","43.71059","-89.90185","$$","156 S Wisconsin St"
"ipt5vSQnR9xwX1rrPs0TNQ","Norm's Eatery and Tap","FALSE","https://www.yelp.com/biz/norms-eatery-and-tap-lyndon-station?adjust_creative=QNZpjiWMh-xtTiixb79gYw&utm_campaign=yelp_api_v3&utm_medium=api_v3_business_search&utm_source=QNZpjiWMh-xtTiixb79gYw","3","Sports Bars | American (Traditional)","3.5","43.7113285971182","-89.9010830502227","","106 N Wisconsin St"
"5XXg3gm8HGq7g7ZNe8X_kw","Subway","FALSE","https://www.yelp.com/biz/subway-lyndon-station?adjust_creative=QNZpjiWMh-xtTiixb79gYw&utm_campaign=yelp_api_v3&utm_medium=api_v3_business_search&utm_source=QNZpjiWMh-xtTiixb79gYw","1","Fast Food | Sandwiches","1","43.7157318","-89.8951018","$","N-470 County Rd Hh"
"ABvjMpHwEw0ftBP6BF4oNQ","MACS- Macaroni and Cheese Shop","FALSE","https://www.yelp.com/biz/macs-macaroni-and-cheese-shop-wisconsin-dells-2?adjust_creative=QNZpjiWMh-xtTiixb79gYw&utm_campaign=yelp_api_v3&utm_medium=api_v3_business_search&utm_source=QNZpjiWMh-xtTiixb79gYw","432","American (Traditional)","4.5","43.6276652","-89.7748249","$","208 Broadway"
"2wswUITudWKkDb2djf1wFw","High Rock Cafe","FALSE","https://www.yelp.com/biz/high-rock-cafe-wisconsin-dells?adjust_creative=QNZpjiWMh-xtTiixb79gYw&utm_campaign=yelp_api_v3&utm_medium=api_v3_business_search&utm_source=QNZpjiWMh-xtTiixb79gYw","483","Coffee & Tea | American (New)","4","43.62747","-89.77391","$$","232 Broadway"
"ybxwha103iqavgVy6iygHw","Sprecher's Restaurant & Pub","FALSE","https://www.yelp.com/biz/sprechers-restaurant-and-pub-wisconsin-dells?adjust_creative=QNZpjiWMh-xtTiixb79gYw&utm_campaign=yelp_api_v3&utm_medium=api_v3_business_search&utm_source=QNZpjiWMh-xtTiixb79gYw","372","Pubs | American (Traditional)","4","43.59838","-89.793251","$$","644 Wisconsin Dells Pkwy"
"clqx-OJj9umryyCTweXomw","RuBBs Steakhouse","FALSE","https://www.yelp.com/biz/rubbs-steakhouse-wisconsin-dells-2?adjust_creative=QNZpjiWMh-xtTiixb79gYw&utm_campaign=yelp_api_v3&utm_medium=api_v3_business_search&utm_source=QNZpjiWMh-xtTiixb79gYw","43","Bars | Steakhouses | Salad","3.5","43.6509741613096","-89.7750847870049","$$","4124 River Rd"
"UCeWk7h56fmohI1Ld_7fRQ","Paul Bunyan's Cook Shanty","FALSE","https://www.yelp.com/biz/paul-bunyans-cook-shanty-wisconsin-dells-3?adjust_creative=QNZpjiWMh-xtTiixb79gYw&utm_campaign=yelp_api_v3&utm_medium=api_v3_business_search&utm_source=QNZpjiWMh-xtTiixb79gYw","323","Breakfast & Brunch | American (Traditional) | Donuts","3.5","43.6251132391985","-89.7893253564835","$$","411 State Hwy 13 S"
"-_CUQkJD7emNuoqEkkHRpg","B-Lux Grill & Bar","FALSE","https://www.yelp.com/biz/b-lux-grill-and-bar-wisconsin-dells?adjust_creative=QNZpjiWMh-xtTiixb79gYw&utm_campaign=yelp_api_v3&utm_medium=api_v3_business_search&utm_source=QNZpjiWMh-xtTiixb79gYw","208","Sports Bars | American (Traditional)","4","43.60606","-89.792002","$$","1481 Wisconsin Dells Pkwy N"
"jVvIDPjClpJVgE7Vx6cdZQ","Kaminski's Chop House","FALSE","https://www.yelp.com/biz/kaminskis-chop-house-wisconsin-dells-3?adjust_creative=QNZpjiWMh-xtTiixb79gYw&utm_campaign=yelp_api_v3&utm_medium=api_v3_business_search&utm_source=QNZpjiWMh-xtTiixb79gYw","53","Steakhouses | Venues & Event Spaces","4","43.664424","-89.784484","$$$","2501 River Rd Hwy 13 N"
"_dIq33L21d0tUTJ00zcW3Q","The Del-bar","FALSE","https://www.yelp.com/biz/the-del-bar-lake-delton-3?adjust_creative=QNZpjiWMh-xtTiixb79gYw&utm_campaign=yelp_api_v3&utm_medium=api_v3_business_search&utm_source=QNZpjiWMh-xtTiixb79gYw","180","Steakhouses | Seafood | Wine Bars","4","43.5990027682038","-89.7934557163253","$$$","800 Wisconsin Dells Pkwy"
"oCrcJbG9achydZh5BBkAFA","Belgiis Waffle Bar","FALSE","https://www.yelp.com/biz/belgiis-waffle-bar-wisconsin-dells?adjust_creative=QNZpjiWMh-xtTiixb79gYw&utm_campaign=yelp_api_v3&utm_medium=api_v3_business_search&utm_source=QNZpjiWMh-xtTiixb79gYw","56","Breakfast & Brunch | Waffles | Juice Bars & Smoothies","4","43.6275","-89.77566","$","126 Broadway"
"JmjJTvLguY86TA3E-nbuww","Monk's Bar & Grill - Wisconsin Dells","FALSE","https://www.yelp.com/biz/monks-bar-and-grill-wisconsin-dells-wisconsin-dells?adjust_creative=QNZpjiWMh-xtTiixb79gYw&utm_campaign=yelp_api_v3&utm_medium=api_v3_business_search&utm_source=QNZpjiWMh-xtTiixb79gYw","257","American (Traditional) | Burgers | Sports Bars","4","43.62758","-89.774381","$$","220 Broadway"
"4qZ79Pk4irpdvDhoN_V2zw","The Keg & Patio Bar","FALSE","https://www.yelp.com/biz/the-keg-and-patio-bar-wisconsin-dells?adjust_creative=QNZpjiWMh-xtTiixb79gYw&utm_campaign=yelp_api_v3&utm_medium=api_v3_business_search&utm_source=QNZpjiWMh-xtTiixb79gYw","106","American (Traditional) | Breakfast & Brunch | Sports Bars","4","43.6270721","-89.773372","$$","732 Oak St"
"rK9Sgxg48eVbryn-QBrCmw","Dells Pizza Lab","FALSE","https://www.yelp.com/biz/dells-pizza-lab-wisconsin-dells?adjust_creative=QNZpjiWMh-xtTiixb79gYw&utm_campaign=yelp_api_v3&utm_medium=api_v3_business_search&utm_source=QNZpjiWMh-xtTiixb79gYw","82","Salad | Pizza","4.5","43.6246741","-89.7874256","$","332 Wi-13"
"8uay-kCxj65tJXnoy-sLhg","Myrt and Lucy's Chat & Chew","FALSE","https://www.yelp.com/biz/myrt-and-lucys-chat-and-chew-wisconsin-dells-2?adjust_creative=QNZpjiWMh-xtTiixb79gYw&utm_campaign=yelp_api_v3&utm_medium=api_v3_business_search&utm_source=QNZpjiWMh-xtTiixb79gYw","87","Breakfast & Brunch | American (Traditional)","4","43.6275822243289","-89.7714539989829","$$","414 Broadway"
"nau06uoDlCZoip12_a6zwQ","Stuff's Restaurant & Catering","FALSE","https://www.yelp.com/biz/stuffs-restaurant-and-catering-wisconsin-dells-2?adjust_creative=QNZpjiWMh-xtTiixb79gYw&utm_campaign=yelp_api_v3&utm_medium=api_v3_business_search&utm_source=QNZpjiWMh-xtTiixb79gYw","46","American (Traditional) | Breakfast & Brunch","4","43.6504852","-89.7669098","$","4144 Hwy 13 N"
"IVcO-G5OyG8e7KIaB5QG5w","Great Harvest Bread Company","FALSE","https://www.yelp.com/biz/great-harvest-bread-company-wisconsin-dells?adjust_creative=QNZpjiWMh-xtTiixb79gYw&utm_campaign=yelp_api_v3&utm_medium=api_v3_business_search&utm_source=QNZpjiWMh-xtTiixb79gYw","34","Bakeries | Cafes","4.5","43.62789","-89.7724","$","329 Broadway"
"dj82A4zO7Wk4sSXvgVLH2g","Edge-O-Dells Bar and Restaurant","FALSE","https://www.yelp.com/biz/edge-o-dells-bar-and-restaurant-wisconsin-dells-2?adjust_creative=QNZpjiWMh-xtTiixb79gYw&utm_campaign=yelp_api_v3&utm_medium=api_v3_business_search&utm_source=QNZpjiWMh-xtTiixb79gYw","3","Bars | American (Traditional)","4","43.6583821","-89.8265371","$","N555 US Hiwy 12 And 16"
"TARmQOVir9jV-FAEImjCcw","Dockside Grill & Rum Bar","FALSE","https://www.yelp.com/biz/dockside-grill-and-rum-bar-wisconsin-dells?adjust_creative=QNZpjiWMh-xtTiixb79gYw&utm_campaign=yelp_api_v3&utm_medium=api_v3_business_search&utm_source=QNZpjiWMh-xtTiixb79gYw","15","Cocktail Bars | Burgers | American (Traditional)","4","43.625318","-89.785117","$$","2370 Wisconsin Dells Pkwy"
"Ib1IU8Uu3AIlGm1enLxMjg","Crabby's Hot Rocks - Steaks, Seafood & More","FALSE","https://www.yelp.com/biz/crabbys-hot-rocks-steaks-seafood-and-more-wisconsin-dells?adjust_creative=QNZpjiWMh-xtTiixb79gYw&utm_campaign=yelp_api_v3&utm_medium=api_v3_business_search&utm_source=QNZpjiWMh-xtTiixb79gYw","41","Seafood | American (New)","2.5","43.6053367059959","-89.7700520842595","$$$","385 County Rd A"
"n4j1X30eesx3uKhQFYt_VQ","Mamas Garage","FALSE","https://www.yelp.com/biz/mamas-garage-wisconsin-dells?adjust_creative=QNZpjiWMh-xtTiixb79gYw&utm_campaign=yelp_api_v3&utm_medium=api_v3_business_search&utm_source=QNZpjiWMh-xtTiixb79gYw","8","Sports Bars | American (Traditional)","5","43.6273735","-89.7767781","$","731 Eddy St"
"Dp-2EU9MrpvJ0l91QJRZEg","Cheese Cake Heaven - Wisconsin Dells","FALSE","https://www.yelp.com/biz/cheese-cake-heaven-wisconsin-dells-wisconsin-dells?adjust_creative=QNZpjiWMh-xtTiixb79gYw&utm_campaign=yelp_api_v3&utm_medium=api_v3_business_search&utm_source=QNZpjiWMh-xtTiixb79gYw","36","Coffee & Tea | Delis","3","43.6279724","-89.7739707","$$","231 Broadway St"
"g1dXpL0Q5Nw6yZyOld8UtA","Mr. Pancake","FALSE","https://www.yelp.com/biz/mr-pancake-wisconsin-dells?adjust_creative=QNZpjiWMh-xtTiixb79gYw&utm_campaign=yelp_api_v3&utm_medium=api_v3_business_search&utm_source=QNZpjiWMh-xtTiixb79gYw","154","American (Traditional) | Breakfast & Brunch","3.5","43.60449","-89.79203","$$","1405 Wisconsin Dells Pkwy"
"nYEyIhcHuXK1me8WZrmyjA","Sarento's Italian Restaurant At The Wilderness","FALSE","https://www.yelp.com/biz/sarentos-italian-restaurant-at-the-wilderness-wisconsin-dells-4?adjust_creative=QNZpjiWMh-xtTiixb79gYw&utm_campaign=yelp_api_v3&utm_medium=api_v3_business_search&utm_source=QNZpjiWMh-xtTiixb79gYw","144","Italian | Pizza","3","43.6300091","-89.7875266","$$","441 Wisconsin Dells Pkwy"
"VRUnfbYzRJ4hGcIMk7FEyQ","Kyoto Hibachi-Sushi","FALSE","https://www.yelp.com/biz/kyoto-hibachi-sushi-wisconsin-dells?adjust_creative=QNZpjiWMh-xtTiixb79gYw&utm_campaign=yelp_api_v3&utm_medium=api_v3_business_search&utm_source=QNZpjiWMh-xtTiixb79gYw","45","Japanese | Sushi Bars","4","43.6048379","-89.7921695","$$","1425 Wisconsin Dells Pkwy"
"dqwpdHbjNqcfOr5BPsiWiw","River's Edge Pub & Grub","FALSE","https://www.yelp.com/biz/rivers-edge-pub-and-grub-wisconsin-dells?adjust_creative=QNZpjiWMh-xtTiixb79gYw&utm_campaign=yelp_api_v3&utm_medium=api_v3_business_search&utm_source=QNZpjiWMh-xtTiixb79gYw","107","American (Traditional) | Pubs | Breakfast & Brunch","3.5","43.6014533321898","-89.7632085523842","$$","30 County Rd A"
"HF7HhbPnqC3lJS2WLhuAUQ","Bj's Restaurant","FALSE","https://www.yelp.com/biz/bjs-restaurant-wisconsin-dells?adjust_creative=QNZpjiWMh-xtTiixb79gYw&utm_campaign=yelp_api_v3&utm_medium=api_v3_business_search&utm_source=QNZpjiWMh-xtTiixb79gYw","101","Breakfast & Brunch","3.5","43.60275","-89.79289","$","1201 Wisconsin Dells Pkwy"
"iVY9MuIKIcSd2CFf37ri9A","House of Embers","FALSE","https://www.yelp.com/biz/house-of-embers-wisconsin-dells?adjust_creative=QNZpjiWMh-xtTiixb79gYw&utm_campaign=yelp_api_v3&utm_medium=api_v3_business_search&utm_source=QNZpjiWMh-xtTiixb79gYw","128","American (Traditional) | Steakhouses | Seafood","3","43.600826","-89.793961","$$","935 Wisconsin Dells Pkwy"
"3ubCjF7alhMD_ZBJbt5wtw","Kilbourn City Grill","FALSE","https://www.yelp.com/biz/kilbourn-city-grill-wisconsin-dells?adjust_creative=QNZpjiWMh-xtTiixb79gYw&utm_campaign=yelp_api_v3&utm_medium=api_v3_business_search&utm_source=QNZpjiWMh-xtTiixb79gYw","12","American (Traditional)","2","43.6662653097718","-89.7859273924486","$$","2501 River Rd"
"Wt0kigq9SuXNif3VyoX3ow","Edytka's Polish Restaurant","FALSE","https://www.yelp.com/biz/edytkas-polish-restaurant-wisconsin-dells?adjust_creative=QNZpjiWMh-xtTiixb79gYw&utm_campaign=yelp_api_v3&utm_medium=api_v3_business_search&utm_source=QNZpjiWMh-xtTiixb79gYw","33","Polish","4","43.6278494212442","-89.7744976356626","$","221 Broadway"
"rtSv8mMmvCfK0YTzurcoFg","The Sand Trap Bar & Grill","FALSE","https://www.yelp.com/biz/the-sand-trap-bar-and-grill-wisconsin-dells?adjust_creative=QNZpjiWMh-xtTiixb79gYw&utm_campaign=yelp_api_v3&utm_medium=api_v3_business_search&utm_source=QNZpjiWMh-xtTiixb79gYw","3","American (Traditional) | Bars","4.5","43.61654","-89.86321","","S797 Christmas Mountain Rd"
"lwWjN5nXumOtEZjvZiLp8Q","The Tavern Restaurant","FALSE","https://www.yelp.com/biz/the-tavern-restaurant-wisconsin-dells?adjust_creative=QNZpjiWMh-xtTiixb79gYw&utm_campaign=yelp_api_v3&utm_medium=api_v3_business_search&utm_source=QNZpjiWMh-xtTiixb79gYw","4","American (Traditional) | Seafood","2.5","43.663479","-89.778809","","1000 Chula Vista Pwky"
"Q8t-mZxSOh7L07v2_9tH3g","Hot Dog Avenue","FALSE","https://www.yelp.com/biz/hot-dog-avenue-wisconsin-dells?adjust_creative=QNZpjiWMh-xtTiixb79gYw&utm_campaign=yelp_api_v3&utm_medium=api_v3_business_search&utm_source=QNZpjiWMh-xtTiixb79gYw","65","Hot Dogs | Fast Food | Cheesesteaks","4.5","43.6040831920305","-89.7922403950132","$","1321 Wisconsin Dells Pkwy"
"CE5KeNwmbPkVkskupXHvUg","Yolo Cafe & Hookah Lounge","FALSE","https://www.yelp.com/biz/yolo-cafe-and-hookah-lounge-wisconsin-dells-2?adjust_creative=QNZpjiWMh-xtTiixb79gYw&utm_campaign=yelp_api_v3&utm_medium=api_v3_business_search&utm_source=QNZpjiWMh-xtTiixb79gYw","9","Hookah Bars | Cafes | Sandwiches","4.5","43.6274652494654","-89.7717577591538","$$","404 Broadway"
"npZLRMQDQMB3zRmMAWJLXA","Showboat Saloon","FALSE","https://www.yelp.com/biz/showboat-saloon-wisconsin-dells?adjust_creative=QNZpjiWMh-xtTiixb79gYw&utm_campaign=yelp_api_v3&utm_medium=api_v3_business_search&utm_source=QNZpjiWMh-xtTiixb79gYw","44","Bars | Sandwiches","4","43.6275199","-89.77749","$","24 Broadway"
"k74iH-973ZEHRHuK2dhYJg","Dells Distillery","FALSE","https://www.yelp.com/biz/dells-distillery-wisconsin-dells?adjust_creative=QNZpjiWMh-xtTiixb79gYw&utm_campaign=yelp_api_v3&utm_medium=api_v3_business_search&utm_source=QNZpjiWMh-xtTiixb79gYw","50","American (New)","3","43.6273759407027","-89.7749070078135","$$","206 Broadway Rd"
"hJ3FHpB-73BxsGRspTgE8A","Famous Dave's Bar-B-Que","FALSE","https://www.yelp.com/biz/famous-daves-bar-b-que-wisconsin-dells?adjust_creative=QNZpjiWMh-xtTiixb79gYw&utm_campaign=yelp_api_v3&utm_medium=api_v3_business_search&utm_source=QNZpjiWMh-xtTiixb79gYw","69","Barbeque | American (Traditional)","3.5","43.6278099","-89.77095","$$","435 Broadway"
"9iZ8HwVxJW438frdfSKgig","Colotlan Mexican Restaurants","FALSE","https://www.yelp.com/biz/colotlan-mexican-restaurants-wisconsin-dells?adjust_creative=QNZpjiWMh-xtTiixb79gYw&utm_campaign=yelp_api_v3&utm_medium=api_v3_business_search&utm_source=QNZpjiWMh-xtTiixb79gYw","36","Mexican","3.5","43.6274464","-89.7749101","$$","324 Broadway St"
"A1BGKvxTMetw3AJMAh-rmA","Pizza Villa","FALSE","https://www.yelp.com/biz/pizza-villa-wisconsin-dells?adjust_creative=QNZpjiWMh-xtTiixb79gYw&utm_campaign=yelp_api_v3&utm_medium=api_v3_business_search&utm_source=QNZpjiWMh-xtTiixb79gYw","40","Pizza | Italian","4","43.62728","-89.77544","$$","737 Superior St"
"X7ySTgSKEjobIhewtxqv5Q","Mexicali Rose Restaurant","FALSE","https://www.yelp.com/biz/mexicali-rose-restaurant-wisconsin-dells?adjust_creative=QNZpjiWMh-xtTiixb79gYw&utm_campaign=yelp_api_v3&utm_medium=api_v3_business_search&utm_source=QNZpjiWMh-xtTiixb79gYw","135","Mexican | Bars | New Mexican Cuisine","2.5","43.6257","-89.78528","$$","195 State Highway 13"
"2-5NlLK9s1cZy1twNTHK_Q","The Sand Bar","FALSE","https://www.yelp.com/biz/the-sand-bar-wisconsin-dells?adjust_creative=QNZpjiWMh-xtTiixb79gYw&utm_campaign=yelp_api_v3&utm_medium=api_v3_business_search&utm_source=QNZpjiWMh-xtTiixb79gYw","26","Sports Bars | American (Traditional)","4","43.6259299","-89.77553","$","130 Washington Ave"
"HDELWuzxzbIM407y-Lo3-w","Mulligan's  BAr and Grill","FALSE","https://www.yelp.com/biz/mulligans-bar-and-grill-wisconsin-dells?adjust_creative=QNZpjiWMh-xtTiixb79gYw&utm_campaign=yelp_api_v3&utm_medium=api_v3_business_search&utm_source=QNZpjiWMh-xtTiixb79gYw","8","American (Traditional) | Bars","3","43.6090920317685","-89.860142916441","$$","Christmas Mountain Village"
"on-wgZsUSiwfz-NBrdt8LQ","Wei's Chinese Restaurant","FALSE","https://www.yelp.com/biz/weis-chinese-restaurant-wisconsin-dells?adjust_creative=QNZpjiWMh-xtTiixb79gYw&utm_campaign=yelp_api_v3&utm_medium=api_v3_business_search&utm_source=QNZpjiWMh-xtTiixb79gYw","31","Chinese","2.5","43.623003198673","-89.7956085423279","$$","630 S Frontage Rd"
"mTR0jjUft16Tzixs0mcWOg","Chalet Lanes & Lounge","FALSE","https://www.yelp.com/biz/chalet-lanes-and-lounge-wisconsin-dells?adjust_creative=QNZpjiWMh-xtTiixb79gYw&utm_campaign=yelp_api_v3&utm_medium=api_v3_business_search&utm_source=QNZpjiWMh-xtTiixb79gYw","18","Bowling | American (New)","4","43.6269203","-89.7722335","$","740 Elm St"
"SOSi0Ckr5GqSD0Cg02m_Fw","Perkins Restaurant & Bakery","FALSE","https://www.yelp.com/biz/perkins-restaurant-and-bakery-wisconsin-dells?adjust_creative=QNZpjiWMh-xtTiixb79gYw&utm_campaign=yelp_api_v3&utm_medium=api_v3_business_search&utm_source=QNZpjiWMh-xtTiixb79gYw","25","Bakeries | Breakfast & Brunch | American (Traditional)","2.5","43.6251101718371","-89.7993855178356","$","811 Frontage Rd"
"oM2FXhtLnYxIiAtZQlLLWg","San Antonio Mexican Restaurant","FALSE","https://www.yelp.com/biz/san-antonio-mexican-restaurant-wisconsin-dells?adjust_creative=QNZpjiWMh-xtTiixb79gYw&utm_campaign=yelp_api_v3&utm_medium=api_v3_business_search&utm_source=QNZpjiWMh-xtTiixb79gYw","40","Mexican","3","43.6273713","-89.7767236","$$","742 Eddy St"
"NydsmIl7lKgZi0pctDrW_g","IHOP","FALSE","https://www.yelp.com/biz/ihop-wisconsin-dells?adjust_creative=QNZpjiWMh-xtTiixb79gYw&utm_campaign=yelp_api_v3&utm_medium=api_v3_business_search&utm_source=QNZpjiWMh-xtTiixb79gYw","50","Breakfast & Brunch | American (Traditional) | Burgers","3","43.6245","-89.78841","$$","346 Hwy 13"
"oOj3Y2-_VsidLWT53mbyFg","Howler's Sports Bar & Grill","FALSE","https://www.yelp.com/biz/howlers-sports-bar-and-grill-wisconsin-dells?adjust_creative=QNZpjiWMh-xtTiixb79gYw&utm_campaign=yelp_api_v3&utm_medium=api_v3_business_search&utm_source=QNZpjiWMh-xtTiixb79gYw","7","Sports Bars | Buffets","2.5","43.66671","-89.7858483","$$","2501 River Rd"
"-a6Ok77OnyTv_FadPA_S5A","Denny's","FALSE","https://www.yelp.com/biz/dennys-wisconsin-dells?adjust_creative=QNZpjiWMh-xtTiixb79gYw&utm_campaign=yelp_api_v3&utm_medium=api_v3_business_search&utm_source=QNZpjiWMh-xtTiixb79gYw","28","American (Traditional) | Breakfast & Brunch | Diners","2.5","43.6228861977334","-89.7942575441266","$","600 S Frontage Rd"
"wjAeS9ZZht4MsjGlQ7vEfg","Kickers","FALSE","https://www.yelp.com/biz/kickers-wisconsin-dells?adjust_creative=QNZpjiWMh-xtTiixb79gYw&utm_campaign=yelp_api_v3&utm_medium=api_v3_business_search&utm_source=QNZpjiWMh-xtTiixb79gYw","47","Pizza | Burgers | Buffets","2.5","43.6285108273205","-89.7828816473602","$$","951 Stand Rock Rd"
"cFwa62m3h8jBU7mBWKlZ0A","Applebee's Grill + Bar","FALSE","https://www.yelp.com/biz/applebees-grill-bar-wisconsin-dells?adjust_creative=QNZpjiWMh-xtTiixb79gYw&utm_campaign=yelp_api_v3&utm_medium=api_v3_business_search&utm_source=QNZpjiWMh-xtTiixb79gYw","45","American (Traditional) | Sports Bars | Burgers","2","43.62456","-89.787848","$$","340 Hwy 13"
"f1td4yBoNmq8guZqrULNBQ","The Cheesey Tomato","FALSE","https://www.yelp.com/biz/the-cheesey-tomato-wisconsin-dells-2?adjust_creative=QNZpjiWMh-xtTiixb79gYw&utm_campaign=yelp_api_v3&utm_medium=api_v3_business_search&utm_source=QNZpjiWMh-xtTiixb79gYw","8","Sandwiches | Burgers | Pizza","3","43.6278147250414","-89.7782537341118","$$","27 Broadway"
"kdHkQfgqCWSJLCtePIgfSQ","Rocky Rococo Pan Style Pizza","FALSE","https://www.yelp.com/biz/rocky-rococo-pan-style-pizza-wisconsin-dells?adjust_creative=QNZpjiWMh-xtTiixb79gYw&utm_campaign=yelp_api_v3&utm_medium=api_v3_business_search&utm_source=QNZpjiWMh-xtTiixb79gYw","27","Pizza | Italian","2.5","43.6289950323094","-89.78216436636","$","1012 Stand Rock Rd"
"R9Z85bTCgYnDbFcQKO_YFg","River Dawg","FALSE","https://www.yelp.com/biz/river-dawg-wisconsin-dells?adjust_creative=QNZpjiWMh-xtTiixb79gYw&utm_campaign=yelp_api_v3&utm_medium=api_v3_business_search&utm_source=QNZpjiWMh-xtTiixb79gYw","7","Hot Dogs | Pizza | Sandwiches","4","43.6279004083363","-89.7751894420649","$","808 River Rd"
"9dg0g6likPPMdJxl-SXo-w","Alabama's Dixieland Bbq & Suds","FALSE","https://www.yelp.com/biz/alabamas-dixieland-bbq-and-suds-wisconsin-dells?adjust_creative=QNZpjiWMh-xtTiixb79gYw&utm_campaign=yelp_api_v3&utm_medium=api_v3_business_search&utm_source=QNZpjiWMh-xtTiixb79gYw","17","Barbeque","2","43.6276264","-89.7719859","$$","414 Broadway"
"zem-hJIVbOzfHX-0g-X07A","El Asador Wisconsin Dells","FALSE","https://www.yelp.com/biz/el-asador-wisconsin-dells-wisconsin-dells?adjust_creative=QNZpjiWMh-xtTiixb79gYw&utm_campaign=yelp_api_v3&utm_medium=api_v3_business_search&utm_source=QNZpjiWMh-xtTiixb79gYw","24","Mexican","2","43.6276204747665","-89.7710585188669","$","452 Broadway"
"3v2XfGNah8VIJvLdxKHcZg","Culver's","FALSE","https://www.yelp.com/biz/culvers-wisconsin-dells?adjust_creative=QNZpjiWMh-xtTiixb79gYw&utm_campaign=yelp_api_v3&utm_medium=api_v3_business_search&utm_source=QNZpjiWMh-xtTiixb79gYw","7","Burgers | Fast Food | Ice Cream & Frozen Yogurt","3.5","43.6251444925213","-89.789604380332","$","351 Hwy 13"
"z_Shth276_z0k59VoH3Brg","Luigis Pizza","FALSE","https://www.yelp.com/biz/luigis-pizza-wisconsin-dells?adjust_creative=QNZpjiWMh-xtTiixb79gYw&utm_campaign=yelp_api_v3&utm_medium=api_v3_business_search&utm_source=QNZpjiWMh-xtTiixb79gYw","7","Pizza","1.5","43.6640962958336","-89.7825559973717","$$","4031 River Rd"
"AYDyUSGCbts_c1OSGyJ9tg","Jimmy John's","FALSE","https://www.yelp.com/biz/jimmy-johns-wisconsin-dells?adjust_creative=QNZpjiWMh-xtTiixb79gYw&utm_campaign=yelp_api_v3&utm_medium=api_v3_business_search&utm_source=QNZpjiWMh-xtTiixb79gYw","10","Sandwiches | Delis | Fast Food","3.5","43.6248422346519","-89.7874617576599","$","322 Hwy 13"
"-9i9-EqWksiZjWNG_Kd9aw","McDonald's","FALSE","https://www.yelp.com/biz/mcdonalds-wisconsin-dells-3?adjust_creative=QNZpjiWMh-xtTiixb79gYw&utm_campaign=yelp_api_v3&utm_medium=api_v3_business_search&utm_source=QNZpjiWMh-xtTiixb79gYw","23","Fast Food | Burgers | Coffee & Tea","3","43.6243607213514","-89.7861662507057","$","2325 Wisconsin Dells Pkwy"
"jmn8hz8zDsVMtlrI4t17yQ","Burger King","FALSE","https://www.yelp.com/biz/burger-king-wisc-dells?adjust_creative=QNZpjiWMh-xtTiixb79gYw&utm_campaign=yelp_api_v3&utm_medium=api_v3_business_search&utm_source=QNZpjiWMh-xtTiixb79gYw","4","Burgers","2","43.62501","-89.79505","","611 N Frontage Rd"
"VoZRPpjg7UXXPZvibMSV4A","Taco Bell","FALSE","https://www.yelp.com/biz/taco-bell-wisconsin-dells?adjust_creative=QNZpjiWMh-xtTiixb79gYw&utm_campaign=yelp_api_v3&utm_medium=api_v3_business_search&utm_source=QNZpjiWMh-xtTiixb79gYw","12","Mexican | Fast Food","2","43.6257168597009","-89.7875713447609","$","321 Highway 13"
"KOY_t5y8E9XuZ_miw-i_7w","Arby's","FALSE","https://www.yelp.com/biz/arbys-wisconsin-dells?adjust_creative=QNZpjiWMh-xtTiixb79gYw&utm_campaign=yelp_api_v3&utm_medium=api_v3_business_search&utm_source=QNZpjiWMh-xtTiixb79gYw","4","Fast Food | Sandwiches","1.5","43.6234386599011","-89.7929287141762","$","710 Trout Rd"
"vjw6-kl0TgEbrg5qUUKyew","Tipper's Bar & Grill","FALSE","https://www.yelp.com/biz/tippers-bar-and-grill-wisconsin-dells?adjust_creative=QNZpjiWMh-xtTiixb79gYw&utm_campaign=yelp_api_v3&utm_medium=api_v3_business_search&utm_source=QNZpjiWMh-xtTiixb79gYw","2","Restaurants | Bars","3.5","43.62748","-89.77491","","206 Broadway"
"ZBGiK5VMgfQbjTQBu71jWg","Subway","FALSE","https://www.yelp.com/biz/subway-wisconsin-dells?adjust_creative=QNZpjiWMh-xtTiixb79gYw&utm_campaign=yelp_api_v3&utm_medium=api_v3_business_search&utm_source=QNZpjiWMh-xtTiixb79gYw","1","Fast Food | Sandwiches","1","43.62785","-89.77273","","321 Broadway"
