"ID","Name","Is_Closed","URL","Review_Count","Categories","Rating","Latitude","Longitude","Price","Address"
"wRT7U5srhCDek5N-GDROKw","Garden  of  Eatin'","FALSE","https://www.yelp.com/biz/garden-of-eatin-galesville?adjust_creative=QNZpjiWMh-xtTiixb79gYw&utm_campaign=yelp_api_v3&utm_medium=api_v3_business_search&utm_source=QNZpjiWMh-xtTiixb79gYw","26","Diners | Breakfast & Brunch","5","44.0825039653028","-91.3483042269945","$","19847 E Gale Ave"
"P7IDLrCAqg-bEDwGs-cTNg","Red Pines Bar & Grill","FALSE","https://www.yelp.com/biz/red-pines-bar-and-grill-onalaska?adjust_creative=QNZpjiWMh-xtTiixb79gYw&utm_campaign=yelp_api_v3&utm_medium=api_v3_business_search&utm_source=QNZpjiWMh-xtTiixb79gYw","57","American (Traditional) | Seafood","4.5","43.9158787171449","-91.2711376323578","$$","W7305 County Rd Z"
"vemb6MuK0yKRB701-41q0g","Taste of Thai","FALSE","https://www.yelp.com/biz/taste-of-thai-holmen-2?adjust_creative=QNZpjiWMh-xtTiixb79gYw&utm_campaign=yelp_api_v3&utm_medium=api_v3_business_search&utm_source=QNZpjiWMh-xtTiixb79gYw","20","Thai","4.5","43.96054","-91.26146","$","205 S Holmen Dr"
"fVYnbHskf3C5jzFJXs7mqw","Arctic Springs Supper Club","FALSE","https://www.yelp.com/biz/arctic-springs-supper-club-galesville?adjust_creative=QNZpjiWMh-xtTiixb79gYw&utm_campaign=yelp_api_v3&utm_medium=api_v3_business_search&utm_source=QNZpjiWMh-xtTiixb79gYw","8","American (Traditional)","4","44.093547","-91.348091","$$","N18078 County Rd T"
"-YvX7ybzFu0kvRU14oTzvQ","Jacqlons Cafe","FALSE","https://www.yelp.com/biz/jacqlons-cafe-holmen?adjust_creative=QNZpjiWMh-xtTiixb79gYw&utm_campaign=yelp_api_v3&utm_medium=api_v3_business_search&utm_source=QNZpjiWMh-xtTiixb79gYw","4","Cafes","3","43.9609031677246","-91.2569274902344","$$","512 S Main St"
"a753FEh8Akh6ZPkfG38hPQ","Wason's Supper Club","FALSE","https://www.yelp.com/biz/wasons-supper-club-galesville?adjust_creative=QNZpjiWMh-xtTiixb79gYw&utm_campaign=yelp_api_v3&utm_medium=api_v3_business_search&utm_source=QNZpjiWMh-xtTiixb79gYw","6","Bars | American (Traditional)","2.5","44.077474","-91.343136","$$","W21282 State Rd 54"
"Cd5jDvyGGLRGXjZ8wLEYcQ","David Reay's Modern Diner + Tavern","FALSE","https://www.yelp.com/biz/david-reays-modern-diner-tavern-onalaska?adjust_creative=QNZpjiWMh-xtTiixb79gYw&utm_campaign=yelp_api_v3&utm_medium=api_v3_business_search&utm_source=QNZpjiWMh-xtTiixb79gYw","44","Diners | Bars","4","43.88259","-91.23366","$$","214 Main St"
"RkIm5ZRjBcpEk3Ov1CnLoA","Mike's Bar and Grill","FALSE","https://www.yelp.com/biz/mikes-bar-and-grill-galesville?adjust_creative=QNZpjiWMh-xtTiixb79gYw&utm_campaign=yelp_api_v3&utm_medium=api_v3_business_search&utm_source=QNZpjiWMh-xtTiixb79gYw","1","Coffee & Tea | Breakfast & Brunch | Bars","4","44.0823135375977","-91.3481292724609","","19833 E Gale"
"DYFwcCwfOIbrnEGyXTYmug","Drugan's Supper Club","FALSE","https://www.yelp.com/biz/drugans-supper-club-holmen?adjust_creative=QNZpjiWMh-xtTiixb79gYw&utm_campaign=yelp_api_v3&utm_medium=api_v3_business_search&utm_source=QNZpjiWMh-xtTiixb79gYw","8","Restaurants","3.5","44.035684","-91.275666","$$","W7665 Sylvester Rd"
"X0gFHoNe2zYAlDixNh7nGg","Features Sports Bar & Grill","FALSE","https://www.yelp.com/biz/features-sports-bar-and-grill-holmen-2?adjust_creative=QNZpjiWMh-xtTiixb79gYw&utm_campaign=yelp_api_v3&utm_medium=api_v3_business_search&utm_source=QNZpjiWMh-xtTiixb79gYw","8","American (Traditional) | Sandwiches","3","43.96794","-91.26476","$$","504 N Holmen Dr"
"XOg95NrKuwjKQzTSYE8jWg","The MOB Stop","FALSE","https://www.yelp.com/biz/the-mob-stop-holmen?adjust_creative=QNZpjiWMh-xtTiixb79gYw&utm_campaign=yelp_api_v3&utm_medium=api_v3_business_search&utm_source=QNZpjiWMh-xtTiixb79gYw","5","Hot Dogs | Food Stands","4","43.9637134958988","-91.2627499884321","$","208 S Holmen Dr"
"SYus9h4_eM8NdBI61N1wAQ","Champions Riverside Bar & Grill","FALSE","https://www.yelp.com/biz/champions-riverside-bar-and-grill-galesville?adjust_creative=QNZpjiWMh-xtTiixb79gYw&utm_campaign=yelp_api_v3&utm_medium=api_v3_business_search&utm_source=QNZpjiWMh-xtTiixb79gYw","4","Campgrounds | American (Traditional)","3","44.062534","-91.284172","$$","W16751 Pow Wow Ln"
"6aXC1DDWv39gpiQSUYQvHg","Angelini's Ristorante","FALSE","https://www.yelp.com/biz/angelinis-ristorante-onalaska?adjust_creative=QNZpjiWMh-xtTiixb79gYw&utm_campaign=yelp_api_v3&utm_medium=api_v3_business_search&utm_source=QNZpjiWMh-xtTiixb79gYw","31","Italian | Pizza","3.5","43.905957","-91.24447","$$","1427 State Hwy 35"
"sRYJa75BOonlEf1fxCJ0EA","Blue Moon Restaurant","FALSE","https://www.yelp.com/biz/blue-moon-restaurant-onalaska?adjust_creative=QNZpjiWMh-xtTiixb79gYw&utm_campaign=yelp_api_v3&utm_medium=api_v3_business_search&utm_source=QNZpjiWMh-xtTiixb79gYw","42","American (Traditional) | Breakfast & Brunch","3.5","43.89265","-91.23836","$$","716 2nd Ave N"
"aQUKaA9Mxv6ARCgyZPAZIA","Little China","FALSE","https://www.yelp.com/biz/little-china-holmen?adjust_creative=QNZpjiWMh-xtTiixb79gYw&utm_campaign=yelp_api_v3&utm_medium=api_v3_business_search&utm_source=QNZpjiWMh-xtTiixb79gYw","13","Chinese","3.5","43.967945","-91.264786","$$","515 Amy Dr"
"ogUgSEFJsvT7qbuTIdsadA","Frosty Mug","FALSE","https://www.yelp.com/biz/frosty-mug-holmen?adjust_creative=QNZpjiWMh-xtTiixb79gYw&utm_campaign=yelp_api_v3&utm_medium=api_v3_business_search&utm_source=QNZpjiWMh-xtTiixb79gYw","3","American (New)","1.5","43.9700170581213","-91.2642002105713","$","612 Main"
"eLEiU-5JhvK55szIJ0mCQA","T Jo's Pizza & Sandwich Shop","FALSE","https://www.yelp.com/biz/t-jos-pizza-and-sandwich-shop-holmen?adjust_creative=QNZpjiWMh-xtTiixb79gYw&utm_campaign=yelp_api_v3&utm_medium=api_v3_business_search&utm_source=QNZpjiWMh-xtTiixb79gYw","5","Pizza","4.5","43.9633941650391","-91.2554473876953","","105 State St"
"0ZLVor9vDRjmcpBU_tnaAw","Two Beagles Brewpub","FALSE","https://www.yelp.com/biz/two-beagles-brewpub-onalaska?adjust_creative=QNZpjiWMh-xtTiixb79gYw&utm_campaign=yelp_api_v3&utm_medium=api_v3_business_search&utm_source=QNZpjiWMh-xtTiixb79gYw","34","American (New) | Brewpubs","3","43.8952246931273","-91.2395649094988","$$","910 2nd Ave N"
"_x3LlFZuU9YlQ_covDI8GA","Royal Indian Cuisine","FALSE","https://www.yelp.com/biz/royal-indian-cuisine-onalaska?adjust_creative=QNZpjiWMh-xtTiixb79gYw&utm_campaign=yelp_api_v3&utm_medium=api_v3_business_search&utm_source=QNZpjiWMh-xtTiixb79gYw","53","Indian","4.5","43.8863133263354","-91.2209936933929","$$","235 Sand Lake Rd"
"Ebw71T8tfu8GCi2wwFS7TQ","Pizza Corral","FALSE","https://www.yelp.com/biz/pizza-corral-holmen?adjust_creative=QNZpjiWMh-xtTiixb79gYw&utm_campaign=yelp_api_v3&utm_medium=api_v3_business_search&utm_source=QNZpjiWMh-xtTiixb79gYw","20","Pizza","4","43.9514885","-91.2593536","$","1505 S Holmen Dr"
"An__SpS_gTN41XM_ybn9Ig","Boondocks Locker Room","FALSE","https://www.yelp.com/biz/boondocks-locker-room-galesville?adjust_creative=QNZpjiWMh-xtTiixb79gYw&utm_campaign=yelp_api_v3&utm_medium=api_v3_business_search&utm_source=QNZpjiWMh-xtTiixb79gYw","1","Sports Bars | Breakfast & Brunch | Sandwiches","1","44.04884","-91.371624","","N14433 CR-M"
"mwP-mHMDVEjf856a796OEw","El Cerrito","FALSE","https://www.yelp.com/biz/el-cerrito-onalaska?adjust_creative=QNZpjiWMh-xtTiixb79gYw&utm_campaign=yelp_api_v3&utm_medium=api_v3_business_search&utm_source=QNZpjiWMh-xtTiixb79gYw","14","Mexican","4","43.8865325459914","-91.2196816422122","$","306 Sand Lake Rd"
"DsVpvrcXuZHZ_bGaCrVLEQ","Midway Deli","FALSE","https://www.yelp.com/biz/midway-deli-onalaska?adjust_creative=QNZpjiWMh-xtTiixb79gYw&utm_campaign=yelp_api_v3&utm_medium=api_v3_business_search&utm_source=QNZpjiWMh-xtTiixb79gYw","8","Delis","4","43.9234695","-91.2514725","$","N5610 County Rd Ot"
"NexWxbHYKCiz5G-oZZ9cxw","Maggie's On Main","FALSE","https://www.yelp.com/biz/maggies-on-main-onalaska?adjust_creative=QNZpjiWMh-xtTiixb79gYw&utm_campaign=yelp_api_v3&utm_medium=api_v3_business_search&utm_source=QNZpjiWMh-xtTiixb79gYw","15","Breakfast & Brunch","3","43.882942199707","-91.2340469360352","$$","205 Main St"
"Ba0TM7Vu8yD7orcvP4DTUw","Hearty Platter Cafe","FALSE","https://www.yelp.com/biz/hearty-platter-cafe-dakota?adjust_creative=QNZpjiWMh-xtTiixb79gYw&utm_campaign=yelp_api_v3&utm_medium=api_v3_business_search&utm_source=QNZpjiWMh-xtTiixb79gYw","1","Cafes | Travel Services","4","43.9236717","-91.4387207","","42165 Csah 12"
"8qepL6gz2RVUxhV4j7ntOA","Shogun Sushi And Hibachi","FALSE","https://www.yelp.com/biz/shogun-sushi-and-hibachi-onalaska?adjust_creative=QNZpjiWMh-xtTiixb79gYw&utm_campaign=yelp_api_v3&utm_medium=api_v3_business_search&utm_source=QNZpjiWMh-xtTiixb79gYw","49","Japanese | Sushi Bars","3.5","43.8712576176357","-91.2126587170172","$$","1227 Crossing Meadows Dr"
"yg3FujvwLuGTaPLV_ZKqUg","Nutbush City Limits","FALSE","https://www.yelp.com/biz/nutbush-city-limits-la-crosse?adjust_creative=QNZpjiWMh-xtTiixb79gYw&utm_campaign=yelp_api_v3&utm_medium=api_v3_business_search&utm_source=QNZpjiWMh-xtTiixb79gYw","27","Bars | Breakfast & Brunch | American (Traditional)","3","43.8695710606364","-91.2326581031084","$","3264 George St"
"-mZqvNxAI0wABFbg3j24YQ","Mary Cody's Restaurant and Maggie's Lounge","FALSE","https://www.yelp.com/biz/mary-codys-restaurant-and-maggies-lounge-onalaska?adjust_creative=QNZpjiWMh-xtTiixb79gYw&utm_campaign=yelp_api_v3&utm_medium=api_v3_business_search&utm_source=QNZpjiWMh-xtTiixb79gYw","14","American (New)","3.5","43.882942199707","-91.2340469360352","$$","205 Main St"
"Lu2GjCV2uF0uSpgOiYJzPQ","Gordys Market","FALSE","https://www.yelp.com/biz/gordys-market-galesville?adjust_creative=QNZpjiWMh-xtTiixb79gYw&utm_campaign=yelp_api_v3&utm_medium=api_v3_business_search&utm_source=QNZpjiWMh-xtTiixb79gYw","1","Department Stores | Bakeries | Delis","1","44.0926","-91.34119","","17512 N Main St"
"JFClbACzfEtLv6sdhvfX5A","Emma's Diner","FALSE","https://www.yelp.com/biz/emmas-diner-onalaska?adjust_creative=QNZpjiWMh-xtTiixb79gYw&utm_campaign=yelp_api_v3&utm_medium=api_v3_business_search&utm_source=QNZpjiWMh-xtTiixb79gYw","3","Restaurants","3.5","43.9234695","-91.2514725","","N5610 County Road Ot"
"qUvBqw5EJEF2_KO1Yu0pLg","Lindy's Subs & Salads","FALSE","https://www.yelp.com/biz/lindys-subs-and-salads-onalaska-2?adjust_creative=QNZpjiWMh-xtTiixb79gYw&utm_campaign=yelp_api_v3&utm_medium=api_v3_business_search&utm_source=QNZpjiWMh-xtTiixb79gYw","14","Salad | Fruits & Veggies","4","43.885224","-91.220079","$","225 Sand Lake Rd"
"iDeMgL3eeLp7qcAqgrjdBA","Panera Bread","FALSE","https://www.yelp.com/biz/panera-bread-onalaska?adjust_creative=QNZpjiWMh-xtTiixb79gYw&utm_campaign=yelp_api_v3&utm_medium=api_v3_business_search&utm_source=QNZpjiWMh-xtTiixb79gYw","28","Sandwiches | Salad | Soup","3","43.870004","-91.211761","$","1230 Crossing Meadow Dr"
"FaqndFlZ713QniWJ9BaLqA","Señor Villa","FALSE","https://www.yelp.com/biz/se%C3%B1or-villa-onalaska-2?adjust_creative=QNZpjiWMh-xtTiixb79gYw&utm_campaign=yelp_api_v3&utm_medium=api_v3_business_search&utm_source=QNZpjiWMh-xtTiixb79gYw","1","Mexican","5","43.89506","-91.23872","","325 West Avenue North"
"CkjafuUIWn11cDtr2FKM3w","Mexican Tamales Restaurant","FALSE","https://www.yelp.com/biz/mexican-tamales-restaurant-onalaska?adjust_creative=QNZpjiWMh-xtTiixb79gYw&utm_campaign=yelp_api_v3&utm_medium=api_v3_business_search&utm_source=QNZpjiWMh-xtTiixb79gYw","11","Mexican","2.5","43.8865399","-91.21952","","306 Sand Lake Rd"
"H_SnSVDFoefUm2CWmsbj-g","Subway","FALSE","https://www.yelp.com/biz/subway-holmen?adjust_creative=QNZpjiWMh-xtTiixb79gYw&utm_campaign=yelp_api_v3&utm_medium=api_v3_business_search&utm_source=QNZpjiWMh-xtTiixb79gYw","1","Sandwiches | Fast Food","1","43.9698486","-91.2648773","","618 N Holmen Dr"
"bYmg-_BXssAJaDTGM73tIQ","Cedar Creek","FALSE","https://www.yelp.com/biz/cedar-creek-onalaska?adjust_creative=QNZpjiWMh-xtTiixb79gYw&utm_campaign=yelp_api_v3&utm_medium=api_v3_business_search&utm_source=QNZpjiWMh-xtTiixb79gYw","1","Restaurants","4","43.9215317","-91.2327805","$$$","2600 Cedar Creek Ln"
"UFJwEp-3Ua4sjOrsf6ghCA","Tequila's Restaurant","FALSE","https://www.yelp.com/biz/tequilas-restaurant-onalaska?adjust_creative=QNZpjiWMh-xtTiixb79gYw&utm_campaign=yelp_api_v3&utm_medium=api_v3_business_search&utm_source=QNZpjiWMh-xtTiixb79gYw","11","Mexican","3","43.87944","-91.2322499","$$","425 2nd Ave S"
"r5r89_PEYD5DAQ9ajIKfpA","Primos Southwestern Grill","FALSE","https://www.yelp.com/biz/primos-southwestern-grill-onalaska?adjust_creative=QNZpjiWMh-xtTiixb79gYw&utm_campaign=yelp_api_v3&utm_medium=api_v3_business_search&utm_source=QNZpjiWMh-xtTiixb79gYw","5","American (Traditional) | Mexican","1.5","43.906399","-91.245056","$$","1427 Hwy 35"
"AezlPyNXPJylcAduecIlww","Marco's Pizza","FALSE","https://www.yelp.com/biz/marcos-pizza-onalaska?adjust_creative=QNZpjiWMh-xtTiixb79gYw&utm_campaign=yelp_api_v3&utm_medium=api_v3_business_search&utm_source=QNZpjiWMh-xtTiixb79gYw","10","Pizza","4","43.8718839102259","-91.2191089242697","$$","988 12th Ave S"
"IhoHglB0qj_u7rU-q7EH7g","Arrowhead Tap House","FALSE","https://www.yelp.com/biz/arrowhead-tap-house-la-crosse?adjust_creative=QNZpjiWMh-xtTiixb79gYw&utm_campaign=yelp_api_v3&utm_medium=api_v3_business_search&utm_source=QNZpjiWMh-xtTiixb79gYw","1","American (Traditional)","1","43.87557","-91.26587","","2956 Airport Dr"
"63zBKsX9_T25PyKcWyiuPA","Big Al's Too","FALSE","https://www.yelp.com/biz/big-als-too-onalaska?adjust_creative=QNZpjiWMh-xtTiixb79gYw&utm_campaign=yelp_api_v3&utm_medium=api_v3_business_search&utm_source=QNZpjiWMh-xtTiixb79gYw","3","Pizza","3.5","43.88403","-91.22399","$$","103 10th Ave S"
"3MGc0GGo_v_ap6Yn3Kjw6Q","Rocky Rococo","FALSE","https://www.yelp.com/biz/rocky-rococo-onalaska-2?adjust_creative=QNZpjiWMh-xtTiixb79gYw&utm_campaign=yelp_api_v3&utm_medium=api_v3_business_search&utm_source=QNZpjiWMh-xtTiixb79gYw","4","Pizza | Italian","3.5","43.87052","-91.21076","$","1239 Crossing Meadows Dr"
"6BOhmUxa-v00ckVoTT6fjA","Culver's","FALSE","https://www.yelp.com/biz/culvers-onalaska?adjust_creative=QNZpjiWMh-xtTiixb79gYw&utm_campaign=yelp_api_v3&utm_medium=api_v3_business_search&utm_source=QNZpjiWMh-xtTiixb79gYw","2","Burgers | Ice Cream & Frozen Yogurt | Fast Food","4.5","43.874357","-91.2294003","$$","835 Oak Ave S"
"_xbqagUK9aCRq30T9cSzew","South Lanes Pizza and wings","FALSE","https://www.yelp.com/biz/south-lanes-pizza-and-wings-onalaska-3?adjust_creative=QNZpjiWMh-xtTiixb79gYw&utm_campaign=yelp_api_v3&utm_medium=api_v3_business_search&utm_source=QNZpjiWMh-xtTiixb79gYw","5","Pizza | Bowling | Chicken Wings","3","43.88471","-91.2212","","1125 Main St"
"bUyYqHo-Wy9Ujley2UANpw","Dairy Queen","FALSE","https://www.yelp.com/biz/dairy-queen-onalaska-2?adjust_creative=QNZpjiWMh-xtTiixb79gYw&utm_campaign=yelp_api_v3&utm_medium=api_v3_business_search&utm_source=QNZpjiWMh-xtTiixb79gYw","6","Ice Cream & Frozen Yogurt | Fast Food","2.5","43.87506","-91.23108","$","810 2nd Ave S"
"sb4SMqFqChDj5jXbQHsAiQ","Taco Bell","FALSE","https://www.yelp.com/biz/taco-bell-onalaska?adjust_creative=QNZpjiWMh-xtTiixb79gYw&utm_campaign=yelp_api_v3&utm_medium=api_v3_business_search&utm_source=QNZpjiWMh-xtTiixb79gYw","2","Tex-Mex | Fast Food | Mexican","3","43.87013","-91.211621","$","1243 Crossing Meadows Rd"
"Msqjy_iXp4jygo3fEqnWxQ","Toppers Pizza","FALSE","https://www.yelp.com/biz/toppers-pizza-onalaska?adjust_creative=QNZpjiWMh-xtTiixb79gYw&utm_campaign=yelp_api_v3&utm_medium=api_v3_business_search&utm_source=QNZpjiWMh-xtTiixb79gYw","5","Pizza","2.5","43.87765","-91.23128","$$","605 2nd Ave S"
"WW_UDhV9uHUKYpl0WUfXnw","Domino's Pizza","FALSE","https://www.yelp.com/biz/dominos-pizza-onalaska-3?adjust_creative=QNZpjiWMh-xtTiixb79gYw&utm_campaign=yelp_api_v3&utm_medium=api_v3_business_search&utm_source=QNZpjiWMh-xtTiixb79gYw","5","Pizza | Chicken Wings | Sandwiches","3","43.8863067626953","-91.2195053100586","","224 Sand Lake Rd"
"nLlAqVNTCBvpr-f-kaQ4KA","Tog Dawgs","FALSE","https://www.yelp.com/biz/tog-dawgs-mindoro?adjust_creative=QNZpjiWMh-xtTiixb79gYw&utm_campaign=yelp_api_v3&utm_medium=api_v3_business_search&utm_source=QNZpjiWMh-xtTiixb79gYw","6","Restaurants","3","44.0208299","-91.10145","","N8292 State Road 108"
"EZmTHkvymb8Lvimh2HRjyg","Purple Cow Sweet Shop and Cafe","FALSE","https://www.yelp.com/biz/purple-cow-sweet-shop-and-cafe-bangor?adjust_creative=QNZpjiWMh-xtTiixb79gYw&utm_campaign=yelp_api_v3&utm_medium=api_v3_business_search&utm_source=QNZpjiWMh-xtTiixb79gYw","5","Coffee & Tea | Ice Cream & Frozen Yogurt | Sandwiches","5","43.8921158846713","-90.9910319745541","$$","1710 Commercial St"
"-A4XY9BcRXm5uC_BSKwsxA","Big Boar Barbecue & Catering","FALSE","https://www.yelp.com/biz/big-boar-barbecue-and-catering-west-salem?adjust_creative=QNZpjiWMh-xtTiixb79gYw&utm_campaign=yelp_api_v3&utm_medium=api_v3_business_search&utm_source=QNZpjiWMh-xtTiixb79gYw","34","Barbeque","4.5","43.901313","-91.089352","$$","510 Commerce Dr"
"ekyREsd9KcTISOmiA-Tz7g","West Salem Family Restaurant","FALSE","https://www.yelp.com/biz/west-salem-family-restaurant-west-salem?adjust_creative=QNZpjiWMh-xtTiixb79gYw&utm_campaign=yelp_api_v3&utm_medium=api_v3_business_search&utm_source=QNZpjiWMh-xtTiixb79gYw","14","Breakfast & Brunch","4.5","43.893226","-91.07772","$$","341 Jefferson St E"
"tVDWoCOEpMsp04uXEETslA","Jim Dandy's tasty eats & frozen treats","FALSE","https://www.yelp.com/biz/jim-dandys-tasty-eats-and-frozen-treats-west-salem?adjust_creative=QNZpjiWMh-xtTiixb79gYw&utm_campaign=yelp_api_v3&utm_medium=api_v3_business_search&utm_source=QNZpjiWMh-xtTiixb79gYw","5","American (Traditional) | Ice Cream & Frozen Yogurt","4.5","43.9076805","-91.0817184","$","201 Hwy 16"
"IM04uXr1ZnxS7LkNNiCHdw","Linda's Bakery","FALSE","https://www.yelp.com/biz/lindas-bakery-west-salem-2?adjust_creative=QNZpjiWMh-xtTiixb79gYw&utm_campaign=yelp_api_v3&utm_medium=api_v3_business_search&utm_source=QNZpjiWMh-xtTiixb79gYw","15","Bakeries | Donuts | Gluten-Free","4.5","43.9111909070171","-91.0798732089844","$","190 E City Hwy 16"
"s7qDpXKu2D01HtReyZp_Qg","Westview Inn","FALSE","https://www.yelp.com/biz/westview-inn-west-salem?adjust_creative=QNZpjiWMh-xtTiixb79gYw&utm_campaign=yelp_api_v3&utm_medium=api_v3_business_search&utm_source=QNZpjiWMh-xtTiixb79gYw","6","American (New)","3.5","43.89532","-91.08162","$$","174 Leonard St S"
"nbB13IjhnCz2g04OlVhs6A","Golden China","FALSE","https://www.yelp.com/biz/golden-china-west-salem?adjust_creative=QNZpjiWMh-xtTiixb79gYw&utm_campaign=yelp_api_v3&utm_medium=api_v3_business_search&utm_source=QNZpjiWMh-xtTiixb79gYw","10","Chinese","4.5","43.899735","-91.09804","","920 W City Hwy 16"
"g8tqf1bmE3c16Y5nDT3UAQ","Cindy's","FALSE","https://www.yelp.com/biz/cindys-mindoro?adjust_creative=QNZpjiWMh-xtTiixb79gYw&utm_campaign=yelp_api_v3&utm_medium=api_v3_business_search&utm_source=QNZpjiWMh-xtTiixb79gYw","1","Restaurants","5","44.0199394","-91.1016006","","N8268 State Road 108"
"inwKOT7eS80Cno6Pq_ByvA","Features Sports Bar & Grill","FALSE","https://www.yelp.com/biz/features-sports-bar-and-grill-west-salem-3?adjust_creative=QNZpjiWMh-xtTiixb79gYw&utm_campaign=yelp_api_v3&utm_medium=api_v3_business_search&utm_source=QNZpjiWMh-xtTiixb79gYw","17","Bowling | Sports Bars | Burgers","3","43.89837","-91.10288","$$","1425 State Hwy 16"
"FuP3lwvoMIUw8OuuhTEDEw","Village Inn","FALSE","https://www.yelp.com/biz/village-inn-bangor?adjust_creative=QNZpjiWMh-xtTiixb79gYw&utm_campaign=yelp_api_v3&utm_medium=api_v3_business_search&utm_source=QNZpjiWMh-xtTiixb79gYw","1","American (New)","4","43.8912925720215","-90.9893264770508","$$","1601 Bangor St"
"mL3qaH4DKbfMDTZjFz4O7g","The Pizza Oven","FALSE","https://www.yelp.com/biz/the-pizza-oven-west-salem?adjust_creative=QNZpjiWMh-xtTiixb79gYw&utm_campaign=yelp_api_v3&utm_medium=api_v3_business_search&utm_source=QNZpjiWMh-xtTiixb79gYw","4","Pizza","4.5","43.89987","-91.09795","$","920 W Hwy 16"
"Jf-iJlQ6vSFeM6tbBTooyw","Wehr's Oasis","FALSE","https://www.yelp.com/biz/wehrs-oasis-bangor?adjust_creative=QNZpjiWMh-xtTiixb79gYw&utm_campaign=yelp_api_v3&utm_medium=api_v3_business_search&utm_source=QNZpjiWMh-xtTiixb79gYw","1","Breakfast & Brunch | Diners","2","43.883598","-91.001502","","N4477 State Rd 162"
"w3I7TsIAOZId_5KvOO7q6A","Hunter's Last Chance","FALSE","https://www.yelp.com/biz/hunters-last-chance-west-salem?adjust_creative=QNZpjiWMh-xtTiixb79gYw&utm_campaign=yelp_api_v3&utm_medium=api_v3_business_search&utm_source=QNZpjiWMh-xtTiixb79gYw","4","Sports Bars | Burgers | Pizza","4.5","43.895843","-91.081687","$","150 S Leonard St"
"GQs7ejFDJ7pVSMVy06N3iQ","Pizza Villa West Salem","FALSE","https://www.yelp.com/biz/pizza-villa-west-salem-west-salem?adjust_creative=QNZpjiWMh-xtTiixb79gYw&utm_campaign=yelp_api_v3&utm_medium=api_v3_business_search&utm_source=QNZpjiWMh-xtTiixb79gYw","2","Pizza","4","43.8957","-91.0815499","$","156 Leonard St S"
"vS5Uf1TSBXiVaL5BfDSRIg","Log Cabin","FALSE","https://www.yelp.com/biz/log-cabin-bangor?adjust_creative=QNZpjiWMh-xtTiixb79gYw&utm_campaign=yelp_api_v3&utm_medium=api_v3_business_search&utm_source=QNZpjiWMh-xtTiixb79gYw","2","Restaurants","2.5","43.8916616141796","-91.0004901140928","","N4697 State Road 162"
"gLgYmt0Oyv2eV-GVwWkjwg","Subway","FALSE","https://www.yelp.com/biz/subway-west-salem-2?adjust_creative=QNZpjiWMh-xtTiixb79gYw&utm_campaign=yelp_api_v3&utm_medium=api_v3_business_search&utm_source=QNZpjiWMh-xtTiixb79gYw","2","Sandwiches | Fast Food","3","43.900447","-91.09066","$","420 Commerce St"
"7mFVzn9zLHhzagFpUNfTWw","The Waterfront Restaurant & Tavern","FALSE","https://www.yelp.com/biz/the-waterfront-restaurant-and-tavern-la-crosse?adjust_creative=QNZpjiWMh-xtTiixb79gYw&utm_campaign=yelp_api_v3&utm_medium=api_v3_business_search&utm_source=QNZpjiWMh-xtTiixb79gYw","171","American (New) | Seafood | Steakhouses","4.5","43.8113403320312","-91.2570724487305","$$$","328 Front St S"
"QoExtCgfrNTMZaNbBtFXSA","Buzzard Billy's","FALSE","https://www.yelp.com/biz/buzzard-billys-la-crosse-3?adjust_creative=QNZpjiWMh-xtTiixb79gYw&utm_campaign=yelp_api_v3&utm_medium=api_v3_business_search&utm_source=QNZpjiWMh-xtTiixb79gYw","192","American (Traditional) | Cajun/Creole","4","43.81191","-91.2539199","$$","222 Pearl St"
"Ic1_ixgDkIedBSVUqmFYEg","Lovechild Restaurant","FALSE","https://www.yelp.com/biz/lovechild-restaurant-la-crosse?adjust_creative=QNZpjiWMh-xtTiixb79gYw&utm_campaign=yelp_api_v3&utm_medium=api_v3_business_search&utm_source=QNZpjiWMh-xtTiixb79gYw","63","Salad | Bars | Steakhouses","4.5","43.8108999","-91.25362","$$$","300 3rd St S"
"7GHmTyh4-uMJ0JYd9z8-WQ","The Charmant","FALSE","https://www.yelp.com/biz/the-charmant-la-crosse?adjust_creative=QNZpjiWMh-xtTiixb79gYw&utm_campaign=yelp_api_v3&utm_medium=api_v3_business_search&utm_source=QNZpjiWMh-xtTiixb79gYw","116","French | American (New)","4","43.81473","-91.25413","$$","101 State St"
"B4RNwTJgvU-CyNHfZmqvxQ","Kaddy's Kafe","FALSE","https://www.yelp.com/biz/kaddys-kafe-la-crescent?adjust_creative=QNZpjiWMh-xtTiixb79gYw&utm_campaign=yelp_api_v3&utm_medium=api_v3_business_search&utm_source=QNZpjiWMh-xtTiixb79gYw","13","Breakfast & Brunch | Cafes","4.5","43.8293444716639","-91.3036136102516","$","236 E Main St"
"3C-3hF1VGnMLnOj_1maLOQ","Piggy's Restaurant","FALSE","https://www.yelp.com/biz/piggys-restaurant-la-crosse?adjust_creative=QNZpjiWMh-xtTiixb79gYw&utm_campaign=yelp_api_v3&utm_medium=api_v3_business_search&utm_source=QNZpjiWMh-xtTiixb79gYw","103","Steakhouses | Seafood | Sandwiches","4","43.8098589330912","-91.2570273131132","$$","501 Front St S"
"cIuCcZVF0lVXlu4QAwy6eQ","The Mint","FALSE","https://www.yelp.com/biz/the-mint-la-crosse?adjust_creative=QNZpjiWMh-xtTiixb79gYw&utm_campaign=yelp_api_v3&utm_medium=api_v3_business_search&utm_source=QNZpjiWMh-xtTiixb79gYw","89","American (New) | Vegetarian | Vegan","4.5","43.812615","-91.228387","$$$","1810 State St"
"hebkz7XeEOfAARJukgX0vA","Greengrass Cafe","FALSE","https://www.yelp.com/biz/greengrass-cafe-la-crosse?adjust_creative=QNZpjiWMh-xtTiixb79gYw&utm_campaign=yelp_api_v3&utm_medium=api_v3_business_search&utm_source=QNZpjiWMh-xtTiixb79gYw","80","Breakfast & Brunch | Bars","4.5","43.8131713867188","-91.22802734375","$$","1904 Campbell Rd"
"OmeDf51MKhRL06asuA2ghg","The Root Note","FALSE","https://www.yelp.com/biz/the-root-note-la-crosse?adjust_creative=QNZpjiWMh-xtTiixb79gYw&utm_campaign=yelp_api_v3&utm_medium=api_v3_business_search&utm_source=QNZpjiWMh-xtTiixb79gYw","57","Music Venues | Coffee & Tea | Creperies","4.5","43.811847","-91.251341","$","115 4th St S"
"ba1vSyk7n4EWMkjlwAKZIw","The Freighthouse Restaurant","FALSE","https://www.yelp.com/biz/the-freighthouse-restaurant-la-crosse?adjust_creative=QNZpjiWMh-xtTiixb79gYw&utm_campaign=yelp_api_v3&utm_medium=api_v3_business_search&utm_source=QNZpjiWMh-xtTiixb79gYw","96","Seafood | Steakhouses | Desserts","4","43.815999","-91.253188","$$$","107 Vine St"
"O_lBsIqPy0M-m-LLBxG27Q","Kate's On State","FALSE","https://www.yelp.com/biz/kates-on-state-la-crosse?adjust_creative=QNZpjiWMh-xtTiixb79gYw&utm_campaign=yelp_api_v3&utm_medium=api_v3_business_search&utm_source=QNZpjiWMh-xtTiixb79gYw","76","Italian | Seafood","4","43.8131553950921","-91.252670209057","$$$","333 Main St"
"zZvEostGX597pszMItyJ7w","Digger's Sting Restaurant","FALSE","https://www.yelp.com/biz/diggers-sting-restaurant-la-crosse?adjust_creative=QNZpjiWMh-xtTiixb79gYw&utm_campaign=yelp_api_v3&utm_medium=api_v3_business_search&utm_source=QNZpjiWMh-xtTiixb79gYw","48","American (New) | Steakhouses","4","43.81345","-91.25178","$$","122 3rd St N"
"Ej_z1DjRjHXF23SCTgnbAw","Dublin Square Irish Pub & Eatery","FALSE","https://www.yelp.com/biz/dublin-square-irish-pub-and-eatery-la-crosse?adjust_creative=QNZpjiWMh-xtTiixb79gYw&utm_campaign=yelp_api_v3&utm_medium=api_v3_business_search&utm_source=QNZpjiWMh-xtTiixb79gYw","163","Burgers | American (Traditional) | Irish Pub","4","43.81311","-91.25269","$$","103 3rd St N"
"bAX7WBxHybYkEKvCLGzFCg","Le Chateau","FALSE","https://www.yelp.com/biz/le-chateau-la-crosse?adjust_creative=QNZpjiWMh-xtTiixb79gYw&utm_campaign=yelp_api_v3&utm_medium=api_v3_business_search&utm_source=QNZpjiWMh-xtTiixb79gYw","43","French | Wine Bars | Cocktail Bars","4.5","43.80847","-91.2512","$$$","410 Cass St"
"x1VUi_Q_kws58o7n_XMiZg","Howie's on La Crosse","FALSE","https://www.yelp.com/biz/howies-on-la-crosse-la-crosse?adjust_creative=QNZpjiWMh-xtTiixb79gYw&utm_campaign=yelp_api_v3&utm_medium=api_v3_business_search&utm_source=QNZpjiWMh-xtTiixb79gYw","41","American (New) | Pubs","4","43.81695","-91.23999","$$","1128 La Crosse St"
"h_H8TRq4Xi7QDmTLnEX8vw","The Crow","FALSE","https://www.yelp.com/biz/the-crow-la-crosse?adjust_creative=QNZpjiWMh-xtTiixb79gYw&utm_campaign=yelp_api_v3&utm_medium=api_v3_business_search&utm_source=QNZpjiWMh-xtTiixb79gYw","98","Pubs | American (Traditional)","3.5","43.8123652654399","-91.2532508330028","$$","100 3rd St S"
"YtHMVdgoXprR_IieiKzleQ","Stein Haus","FALSE","https://www.yelp.com/biz/stein-haus-la-crosse?adjust_creative=QNZpjiWMh-xtTiixb79gYw&utm_campaign=yelp_api_v3&utm_medium=api_v3_business_search&utm_source=QNZpjiWMh-xtTiixb79gYw","32","German | Pubs","4","43.8108528","-91.2523411","$$","324 Jay St"
"9i8Me5UM4krTbWUJRwsbPQ","The Breakfast Club and Pub","FALSE","https://www.yelp.com/biz/the-breakfast-club-and-pub-la-crosse?adjust_creative=QNZpjiWMh-xtTiixb79gYw&utm_campaign=yelp_api_v3&utm_medium=api_v3_business_search&utm_source=QNZpjiWMh-xtTiixb79gYw","71","American (Traditional) | Breakfast & Brunch | Pubs","3.5","43.81286","-91.25324","$","214 Main St"
"iN_jeJGnrG9PkNorRLXKkQ","Fayze's","FALSE","https://www.yelp.com/biz/fayzes-la-crosse?adjust_creative=QNZpjiWMh-xtTiixb79gYw&utm_campaign=yelp_api_v3&utm_medium=api_v3_business_search&utm_source=QNZpjiWMh-xtTiixb79gYw","111","Bakeries | American (Traditional) | Pubs","3.5","43.81136","-91.2513","$$","135 S 4th St"
"zTp9yCR-7e5XULkzPE3emQ","River Rats Bar and Grill","FALSE","https://www.yelp.com/biz/river-rats-bar-and-grill-french-island?adjust_creative=QNZpjiWMh-xtTiixb79gYw&utm_campaign=yelp_api_v3&utm_medium=api_v3_business_search&utm_source=QNZpjiWMh-xtTiixb79gYw","11","American (New) | Burgers | Cocktail Bars","4.5","43.842136","-91.264884","$","1311 La Crescent Pl"
"913gAv2RsFZMgvpOVn_dZg","4 Sisters Wine Bar and Tapas","FALSE","https://www.yelp.com/biz/4-sisters-wine-bar-and-tapas-la-crosse?adjust_creative=QNZpjiWMh-xtTiixb79gYw&utm_campaign=yelp_api_v3&utm_medium=api_v3_business_search&utm_source=QNZpjiWMh-xtTiixb79gYw","79","Wine Bars | Tapas/Small Plates | Tapas Bars","3.5","43.8146892722324","-91.2551032522217","$$","100 Harborview Plz"
"85D5ZtLiG3K8kRiApyYqQw","Pickerman's Soup & Sandwiches","FALSE","https://www.yelp.com/biz/pickermans-soup-and-sandwiches-la-crosse?adjust_creative=QNZpjiWMh-xtTiixb79gYw&utm_campaign=yelp_api_v3&utm_medium=api_v3_business_search&utm_source=QNZpjiWMh-xtTiixb79gYw","41","Sandwiches | Soup","4.5","43.8109964760023","-91.252290253901","$","327 Jay St"
"fSSRkBJQgkfCDPabKBMshQ","La Crosse Family Restaurant","FALSE","https://www.yelp.com/biz/la-crosse-family-restaurant-la-crosse?adjust_creative=QNZpjiWMh-xtTiixb79gYw&utm_campaign=yelp_api_v3&utm_medium=api_v3_business_search&utm_source=QNZpjiWMh-xtTiixb79gYw","48","American (Traditional) | Breakfast & Brunch","4","43.85319","-91.24665","$","2120 Rose St"
"Agd6Utl52ijtO5Tz_gEOdQ","Hmong's Golden Egg Roll","FALSE","https://www.yelp.com/biz/hmongs-golden-egg-roll-la-crosse?adjust_creative=QNZpjiWMh-xtTiixb79gYw&utm_campaign=yelp_api_v3&utm_medium=api_v3_business_search&utm_source=QNZpjiWMh-xtTiixb79gYw","49","Laotian | Vietnamese | Thai","4","43.81294","-91.24368","$$","901 State St"
"PKb-zIDtxXGKuMtBshr5uQ","Uptowne Cafe & Bakery","FALSE","https://www.yelp.com/biz/uptowne-cafe-and-bakery-la-crosse?adjust_creative=QNZpjiWMh-xtTiixb79gYw&utm_campaign=yelp_api_v3&utm_medium=api_v3_business_search&utm_source=QNZpjiWMh-xtTiixb79gYw","21","Bakeries | Cafes | Breakfast & Brunch","4","43.84083","-91.24702","$$","1217 Caledonia St"
"73g8B-GLgqjiu680xPvbUQ","Iguana's Mexican Street Café","FALSE","https://www.yelp.com/biz/iguanas-mexican-street-caf%C3%A9-la-crosse?adjust_creative=QNZpjiWMh-xtTiixb79gYw&utm_campaign=yelp_api_v3&utm_medium=api_v3_business_search&utm_source=QNZpjiWMh-xtTiixb79gYw","59","Mexican","4","43.81265","-91.228889","$","1800 State St"
"STl4gCpJYXmjcq4Bunm5MA","Rosie's Cafe","FALSE","https://www.yelp.com/biz/rosies-cafe-la-crosse?adjust_creative=QNZpjiWMh-xtTiixb79gYw&utm_campaign=yelp_api_v3&utm_medium=api_v3_business_search&utm_source=QNZpjiWMh-xtTiixb79gYw","32","Diners | Cafes | American (Traditional)","4.5","43.7889","-91.23174","$","2225 16th St S"
"bl8ugcJ-wYXEUJKj0NLCeQ","Pizza Amoré","FALSE","https://www.yelp.com/biz/pizza-amor%C3%A9-la-crosse?adjust_creative=QNZpjiWMh-xtTiixb79gYw&utm_campaign=yelp_api_v3&utm_medium=api_v3_business_search&utm_source=QNZpjiWMh-xtTiixb79gYw","61","Pizza","4","43.81292","-91.25344","$$","212 Main St NE"
"iZHSt5y5yglcbzCcqV9hnQ","Hungry Peddler","FALSE","https://www.yelp.com/biz/hungry-peddler-la-crosse?adjust_creative=QNZpjiWMh-xtTiixb79gYw&utm_campaign=yelp_api_v3&utm_medium=api_v3_business_search&utm_source=QNZpjiWMh-xtTiixb79gYw","41","American (Traditional) | Steakhouses | Seafood","4","43.78108","-91.226","$$","3429 Mormon Coulee Rd"
"brq7sYtocODpHaKgJUWm-g","Big Mama's Gyros","FALSE","https://www.yelp.com/biz/big-mamas-gyros-la-crosse?adjust_creative=QNZpjiWMh-xtTiixb79gYw&utm_campaign=yelp_api_v3&utm_medium=api_v3_business_search&utm_source=QNZpjiWMh-xtTiixb79gYw","9","Greek | Street Vendors","5","43.8003091673438","-91.2529479995505","$","Dave's Guitar Shop Parking Lot"
"Fc4XyXISjmj2iXXVhSRPTQ","Dim Sum Tea Shop","FALSE","https://www.yelp.com/biz/dim-sum-tea-shop-la-crosse?adjust_creative=QNZpjiWMh-xtTiixb79gYw&utm_campaign=yelp_api_v3&utm_medium=api_v3_business_search&utm_source=QNZpjiWMh-xtTiixb79gYw","35","Dim Sum | Coffee & Tea","4","43.812714","-91.253561","$","221 Pearl St"
"3TC-uakdWOWYnpgdGeqz-w","The Twisted Moose","FALSE","https://www.yelp.com/biz/the-twisted-moose-la-crosse?adjust_creative=QNZpjiWMh-xtTiixb79gYw&utm_campaign=yelp_api_v3&utm_medium=api_v3_business_search&utm_source=QNZpjiWMh-xtTiixb79gYw","21","Bars | American (Traditional) | Comfort Food","2.5","43.8122","-91.25327","$$","128 3rd St S"
"5tvSq66SL1p74xwH3OdNCA","Huck Finn's On the Water","FALSE","https://www.yelp.com/biz/huck-finns-on-the-water-la-crosse?adjust_creative=QNZpjiWMh-xtTiixb79gYw&utm_campaign=yelp_api_v3&utm_medium=api_v3_business_search&utm_source=QNZpjiWMh-xtTiixb79gYw","28","American (Traditional) | Music Venues | Chicken Wings","3","43.8382099","-91.25912","$$","129 Marina Dr"
"r7X6F8xE5s2Yq_d1EVQ0BA","Schmitty's TimeOut Tavern","FALSE","https://www.yelp.com/biz/schmittys-timeout-tavern-la-crescent?adjust_creative=QNZpjiWMh-xtTiixb79gYw&utm_campaign=yelp_api_v3&utm_medium=api_v3_business_search&utm_source=QNZpjiWMh-xtTiixb79gYw","4","Chicken Wings | American (Traditional) | Burgers","5","43.8335533","-91.3014832","$","444 N Chestnut St"
"QYBTQiSoBGPPq37WiyiW9Q","Three Rivers Lodge River View Restaurant and Bar","FALSE","https://www.yelp.com/biz/three-rivers-lodge-river-view-restaurant-and-bar-la-crosse?adjust_creative=QNZpjiWMh-xtTiixb79gYw&utm_campaign=yelp_api_v3&utm_medium=api_v3_business_search&utm_source=QNZpjiWMh-xtTiixb79gYw","20","Bars | American (New) | Breakfast & Brunch","3.5","43.813191","-91.255055","$$","111 Front St S"
"_ZGSA6uKpaZu4ZSWexjX6w","Señor Villa","FALSE","https://www.yelp.com/biz/se%C3%B1or-villa-la-crosse?adjust_creative=QNZpjiWMh-xtTiixb79gYw&utm_campaign=yelp_api_v3&utm_medium=api_v3_business_search&utm_source=QNZpjiWMh-xtTiixb79gYw","37","Mexican","4","43.8148237847499","-91.2392846679805","$$","325 West Ave N"
"d3OhHYIfrahur-mnFfzG5w","Rudy's Drive-In","FALSE","https://www.yelp.com/biz/rudys-drive-in-la-crosse?adjust_creative=QNZpjiWMh-xtTiixb79gYw&utm_campaign=yelp_api_v3&utm_medium=api_v3_business_search&utm_source=QNZpjiWMh-xtTiixb79gYw","34","American (New)","4","43.816961","-91.242098","$","1004 La Crosse St"
"ms6J77T7P3iZ-UfMbz0JOQ","Press Break","FALSE","https://www.yelp.com/biz/press-break-la-crosse?adjust_creative=QNZpjiWMh-xtTiixb79gYw&utm_campaign=yelp_api_v3&utm_medium=api_v3_business_search&utm_source=QNZpjiWMh-xtTiixb79gYw","2","Sandwiches | Soup | Hot Dogs","5","43.8287","-91.24765","","146 Rose St"
"i5R-2Hczuto4NGQDwJygQw","Pogreba Restaurant","FALSE","https://www.yelp.com/biz/pogreba-restaurant-la-crosse?adjust_creative=QNZpjiWMh-xtTiixb79gYw&utm_campaign=yelp_api_v3&utm_medium=api_v3_business_search&utm_source=QNZpjiWMh-xtTiixb79gYw","32","American (Traditional) | Seafood | Steakhouses","3.5","43.84125","-91.245011","$$$","1232 Avon St"
"4CNooa8ifgsjAeboEUhePQ","Burritos House","FALSE","https://www.yelp.com/biz/burritos-house-la-crosse?adjust_creative=QNZpjiWMh-xtTiixb79gYw&utm_campaign=yelp_api_v3&utm_medium=api_v3_business_search&utm_source=QNZpjiWMh-xtTiixb79gYw","31","Mexican","4.5","43.8174791","-91.2393601","$","1205 La Crosse St"
"Bo7ilnY07I4A824_PYMCaA","Houghton's Jackson Street Pub","FALSE","https://www.yelp.com/biz/houghtons-jackson-street-pub-la-crosse-2?adjust_creative=QNZpjiWMh-xtTiixb79gYw&utm_campaign=yelp_api_v3&utm_medium=api_v3_business_search&utm_source=QNZpjiWMh-xtTiixb79gYw","24","American (Traditional) | Irish Pub | Steakhouses","3.5","43.8012","-91.24206","$","1002 Jackson St"
"7hNQ6kgkav5XGjqM0h86jQ","Thao's Thai Restaurant and Deli","FALSE","https://www.yelp.com/biz/thaos-thai-restaurant-and-deli-la-crosse?adjust_creative=QNZpjiWMh-xtTiixb79gYw&utm_campaign=yelp_api_v3&utm_medium=api_v3_business_search&utm_source=QNZpjiWMh-xtTiixb79gYw","15","Thai | Delis","3.5","43.8174716","-91.2394101","","1203 La Crosse St"
"tEDbBUdQ_i_-sAVm_eO0rQ","New Taste of India","FALSE","https://www.yelp.com/biz/new-taste-of-india-la-crosse?adjust_creative=QNZpjiWMh-xtTiixb79gYw&utm_campaign=yelp_api_v3&utm_medium=api_v3_business_search&utm_source=QNZpjiWMh-xtTiixb79gYw","92","Indian","4","43.80042","-91.229064","$$","1812 Jackson St"
"1l6Mu3wOv49d684VZUYnXA","River Rocks Coffee","FALSE","https://www.yelp.com/biz/river-rocks-coffee-la-crosse?adjust_creative=QNZpjiWMh-xtTiixb79gYw&utm_campaign=yelp_api_v3&utm_medium=api_v3_business_search&utm_source=QNZpjiWMh-xtTiixb79gYw","4","Coffee & Tea | Breakfast & Brunch | Bagels","4","43.81068","-91.25727","$$","332 Front St S"
"Ysez1uUXr_mbiVqouKADCg","Hackberry's Bistro","FALSE","https://www.yelp.com/biz/hackberrys-bistro-la-crosse?adjust_creative=QNZpjiWMh-xtTiixb79gYw&utm_campaign=yelp_api_v3&utm_medium=api_v3_business_search&utm_source=QNZpjiWMh-xtTiixb79gYw","32","Cafes | Breakfast & Brunch","3.5","43.809366","-91.249737","$$","315 5th Ave S"
"w6R-VMhcA9hp757ZLoj1cA","JavaVino","FALSE","https://www.yelp.com/biz/javavino-la-crosse-2?adjust_creative=QNZpjiWMh-xtTiixb79gYw&utm_campaign=yelp_api_v3&utm_medium=api_v3_business_search&utm_source=QNZpjiWMh-xtTiixb79gYw","27","Wine Bars | Coffee & Tea | Breakfast & Brunch","4","43.79768","-91.22082","$","2311 State Rd"
"grcM4St8blPO2OOYgXth5A","Corky's Pizza","FALSE","https://www.yelp.com/biz/corkys-pizza-la-crescent?adjust_creative=QNZpjiWMh-xtTiixb79gYw&utm_campaign=yelp_api_v3&utm_medium=api_v3_business_search&utm_source=QNZpjiWMh-xtTiixb79gYw","9","Pizza | Ice Cream & Frozen Yogurt | Burgers","3","43.82896","-91.30358","$","25 S Walnut St"
"Pej_K261UAGbwZrRJaJFiQ","Quillin's","FALSE","https://www.yelp.com/biz/quillins-la-crescent?adjust_creative=QNZpjiWMh-xtTiixb79gYw&utm_campaign=yelp_api_v3&utm_medium=api_v3_business_search&utm_source=QNZpjiWMh-xtTiixb79gYw","1","Grocery | Delis","5","43.82885","-91.30418","","24 S Walnut St"
"gVE4gZEU390RjTRru-OXcA","American Legion Clubroom","FALSE","https://www.yelp.com/biz/american-legion-clubroom-la-crescent?adjust_creative=QNZpjiWMh-xtTiixb79gYw&utm_campaign=yelp_api_v3&utm_medium=api_v3_business_search&utm_source=QNZpjiWMh-xtTiixb79gYw","3","Restaurants","2.5","43.8344955444336","-91.3013076782227","$","509 N Chestnut St"
"UcKz7quH-wF56flhJ_DMFA","Subway","FALSE","https://www.yelp.com/biz/subway-la-crescent-2?adjust_creative=QNZpjiWMh-xtTiixb79gYw&utm_campaign=yelp_api_v3&utm_medium=api_v3_business_search&utm_source=QNZpjiWMh-xtTiixb79gYw","1","Sandwiches | Fast Food","1","43.8135724514723","-91.3058314472437","","301 Kistler Dr"
"_taK9RnjfOB8b1s2luWY2w","Ciatti's Italian Grill","FALSE","https://www.yelp.com/biz/ciattis-italian-grill-onalaska-2?adjust_creative=QNZpjiWMh-xtTiixb79gYw&utm_campaign=yelp_api_v3&utm_medium=api_v3_business_search&utm_source=QNZpjiWMh-xtTiixb79gYw","37","Seafood | Steakhouses | Italian","4.5","43.87844","-91.1893599","$$","2846 Midwest Dr"
"VMZa4USQ-6sFMSycUt_jPw","Nosh","FALSE","https://www.yelp.com/biz/nosh-la-crosse-3?adjust_creative=QNZpjiWMh-xtTiixb79gYw&utm_campaign=yelp_api_v3&utm_medium=api_v3_business_search&utm_source=QNZpjiWMh-xtTiixb79gYw","5","Cafes","5","43.868504743056","-91.1953772244286","$","3800 WI-16"
"RH4GxioACyZgitTt_i6u3w","Burger Fusion Company","FALSE","https://www.yelp.com/biz/burger-fusion-company-la-crosse-3?adjust_creative=QNZpjiWMh-xtTiixb79gYw&utm_campaign=yelp_api_v3&utm_medium=api_v3_business_search&utm_source=QNZpjiWMh-xtTiixb79gYw","40","Burgers | American (Traditional)","4","43.8684309499687","-91.19537165598","$$","3800 State Rd 16"
"nrTZaNJli0lK54xXT-yVSA","North Country Steak Buffet","FALSE","https://www.yelp.com/biz/north-country-steak-buffet-la-crosse?adjust_creative=QNZpjiWMh-xtTiixb79gYw&utm_campaign=yelp_api_v3&utm_medium=api_v3_business_search&utm_source=QNZpjiWMh-xtTiixb79gYw","21","Buffets","4","43.85835","-91.2423","$$","2526 Rose St"
"5Wyi-pD1kZJYaej_13LE2Q","Cafe D'Vine","FALSE","https://www.yelp.com/biz/cafe-d-vine-onalaska?adjust_creative=QNZpjiWMh-xtTiixb79gYw&utm_campaign=yelp_api_v3&utm_medium=api_v3_business_search&utm_source=QNZpjiWMh-xtTiixb79gYw","18","Cafes","3.5","43.8837683","-91.1709674","$$","9550 US Hwy 16 Frontage Rd"
"_PokVMQkNvquwC9Xrdpa7g","Grizzly's","FALSE","https://www.yelp.com/biz/grizzlys-onalaska?adjust_creative=QNZpjiWMh-xtTiixb79gYw&utm_campaign=yelp_api_v3&utm_medium=api_v3_business_search&utm_source=QNZpjiWMh-xtTiixb79gYw","33","Bars | American (Traditional)","3.5","43.8642845153809","-91.2055969238281","$$","3039 Medco Ct"
"cePL50AAQO05RLE012iXjQ","Manny's Mexican Cocina","FALSE","https://www.yelp.com/biz/mannys-mexican-cocina-onalaska?adjust_creative=QNZpjiWMh-xtTiixb79gYw&utm_campaign=yelp_api_v3&utm_medium=api_v3_business_search&utm_source=QNZpjiWMh-xtTiixb79gYw","84","Mexican","3.5","43.878489","-91.188074","$$","301 Hampton Ct"
"VojpVzwGJLi1ux-Sw7LqGg","Famous Dave's","FALSE","https://www.yelp.com/biz/famous-daves-la-crosse-2?adjust_creative=QNZpjiWMh-xtTiixb79gYw&utm_campaign=yelp_api_v3&utm_medium=api_v3_business_search&utm_source=QNZpjiWMh-xtTiixb79gYw","26","Barbeque | Desserts","4","43.8642917385902","-91.2044479514129","$$","3055 State Hwy 16"
"gXjlBzIfCIBKX2K_rchM_Q","TGI Fridays","FALSE","https://www.yelp.com/biz/tgi-fridays-onalaska?adjust_creative=QNZpjiWMh-xtTiixb79gYw&utm_campaign=yelp_api_v3&utm_medium=api_v3_business_search&utm_source=QNZpjiWMh-xtTiixb79gYw","17","American (Traditional)","2.5","43.8736083","-91.190734","$$","9416 Highway 16"
"5ab0VdIFxux3ZMGgOVa9bA","Texas Roadhouse","FALSE","https://www.yelp.com/biz/texas-roadhouse-la-crosse?adjust_creative=QNZpjiWMh-xtTiixb79gYw&utm_campaign=yelp_api_v3&utm_medium=api_v3_business_search&utm_source=QNZpjiWMh-xtTiixb79gYw","33","Barbeque | Steakhouses","3.5","43.871269","-91.194152","$$","4310 State Hwy 16"
"3lve9pZz4FJGmfeWQ05Xzw","Shenanigans Entertainment Center & Sports Bar","FALSE","https://www.yelp.com/biz/shenanigans-entertainment-center-and-sports-bar-la-crosse?adjust_creative=QNZpjiWMh-xtTiixb79gYw&utm_campaign=yelp_api_v3&utm_medium=api_v3_business_search&utm_source=QNZpjiWMh-xtTiixb79gYw","10","Arcades | Party & Event Planning | American (Traditional)","2","43.8571892","-91.256958","","2100 Dawson Ave"
"6az47VJFhf6TgbVlk2HhWw","Heroes Bar and Grill","FALSE","https://www.yelp.com/biz/heroes-bar-and-grill-la-crosse?adjust_creative=QNZpjiWMh-xtTiixb79gYw&utm_campaign=yelp_api_v3&utm_medium=api_v3_business_search&utm_source=QNZpjiWMh-xtTiixb79gYw","3","Bars | Sandwiches","3.5","43.860001","-91.261452","","101 Sky Harbour Dr"
"lhhqReGjjyxpcLzFa3XS4w","Coney Island Hot Dogs","FALSE","https://www.yelp.com/biz/coney-island-hot-dogs-la-crosse-2?adjust_creative=QNZpjiWMh-xtTiixb79gYw&utm_campaign=yelp_api_v3&utm_medium=api_v3_business_search&utm_source=QNZpjiWMh-xtTiixb79gYw","7","Hot Dogs","4","43.85677","-91.24291","$","2416 Rose St"
"4f_bhBmUFakM8Bdy79ZdZg","Tom Sawyer's Bar & Grill","FALSE","https://www.yelp.com/biz/tom-sawyers-bar-and-grill-la-crosse?adjust_creative=QNZpjiWMh-xtTiixb79gYw&utm_campaign=yelp_api_v3&utm_medium=api_v3_business_search&utm_source=QNZpjiWMh-xtTiixb79gYw","23","Bars | Burgers | Mexican","3.5","43.8429464060932","-91.2483215332031","$$","136 Clinton St"
"04EGSLovbE1DJlwBzxASWQ","Perkins Restaurant & Bakery","FALSE","https://www.yelp.com/biz/perkins-restaurant-and-bakery-la-crosse?adjust_creative=QNZpjiWMh-xtTiixb79gYw&utm_campaign=yelp_api_v3&utm_medium=api_v3_business_search&utm_source=QNZpjiWMh-xtTiixb79gYw","20","Bakeries | Breakfast & Brunch | American (Traditional)","2.5","43.843258","-91.2485776841641","$$","1411 Rose St"
"ilZ8vR8QV1fLs_jJA01dIQ","Moxie's","FALSE","https://www.yelp.com/biz/moxies-la-crosse?adjust_creative=QNZpjiWMh-xtTiixb79gYw&utm_campaign=yelp_api_v3&utm_medium=api_v3_business_search&utm_source=QNZpjiWMh-xtTiixb79gYw","1","American (New) | Tiki Bars","1","43.85018","-91.24949","","1835 Rose St"
"2qDOtvKA3fs3ccx5Rcwrlw","T-Jo's Pizza","FALSE","https://www.yelp.com/biz/t-jos-pizza-la-crosse?adjust_creative=QNZpjiWMh-xtTiixb79gYw&utm_campaign=yelp_api_v3&utm_medium=api_v3_business_search&utm_source=QNZpjiWMh-xtTiixb79gYw","11","Pizza | Sandwiches","3.5","43.8486775","-91.2400033","$$","1717 George St"
"Y_D6XRLUBSvGjUheksthkg","Dewey's Side Street Saloon","FALSE","https://www.yelp.com/biz/deweys-side-street-saloon-la-crosse?adjust_creative=QNZpjiWMh-xtTiixb79gYw&utm_campaign=yelp_api_v3&utm_medium=api_v3_business_search&utm_source=QNZpjiWMh-xtTiixb79gYw","1","Bars | American (Traditional) | Music Venues","4","43.8404197692871","-91.2473449707031","","621 Saint Paul St"
"pWTUH68SZq1JggwkMazknA","Joe's Bar & Grill At Days Inn","FALSE","https://www.yelp.com/biz/joes-bar-and-grill-at-days-inn-la-crosse?adjust_creative=QNZpjiWMh-xtTiixb79gYw&utm_campaign=yelp_api_v3&utm_medium=api_v3_business_search&utm_source=QNZpjiWMh-xtTiixb79gYw","1","Bars | American (Traditional)","1","43.86003","-91.2614399","","101 Sky Harbour Dr"
"IbEg9b4IhVTt6CtG4L33LQ","McDonald's","FALSE","https://www.yelp.com/biz/mcdonalds-la-crosse-5?adjust_creative=QNZpjiWMh-xtTiixb79gYw&utm_campaign=yelp_api_v3&utm_medium=api_v3_business_search&utm_source=QNZpjiWMh-xtTiixb79gYw","3","Coffee & Tea | Burgers | Fast Food","4.5","43.8584182540278","-91.2407511473157","","2437 W George St"
"WAtllFPWnbzL_phO5oLnNQ","Pizza Hut","FALSE","https://www.yelp.com/biz/pizza-hut-la-crosse-2?adjust_creative=QNZpjiWMh-xtTiixb79gYw&utm_campaign=yelp_api_v3&utm_medium=api_v3_business_search&utm_source=QNZpjiWMh-xtTiixb79gYw","8","Pizza | Italian","2.5","43.85444","-91.24543","$$","2212 Rose St"
"Sv_Q7l73-pjB7eoYwyX_BA","Castaways on the Island","FALSE","https://www.yelp.com/biz/castaways-on-the-island-la-crosse?adjust_creative=QNZpjiWMh-xtTiixb79gYw&utm_campaign=yelp_api_v3&utm_medium=api_v3_business_search&utm_source=QNZpjiWMh-xtTiixb79gYw","1","Restaurants","2","43.8422502167483","-91.2596032395959","","131 Clinton St"
"ZgB38n5wW8fijbkuMA_hWg","Hardee's","FALSE","https://www.yelp.com/biz/hardees-la-crosse-2?adjust_creative=QNZpjiWMh-xtTiixb79gYw&utm_campaign=yelp_api_v3&utm_medium=api_v3_business_search&utm_source=QNZpjiWMh-xtTiixb79gYw","8","Fast Food","2.5","43.8418273925781","-91.2487030029297","$","1311 Rose St"
"TR6SjB29zzwmIP5vRw-4Kg","KFC","FALSE","https://www.yelp.com/biz/kfc-la-crosse-2?adjust_creative=QNZpjiWMh-xtTiixb79gYw&utm_campaign=yelp_api_v3&utm_medium=api_v3_business_search&utm_source=QNZpjiWMh-xtTiixb79gYw","2","Fast Food | Chicken Wings | Chicken Shop","4","43.8514","-91.2484","$","2001 Rose St"
"GpkpWSEUXzDyZQMRWyjNGg","Burger King","FALSE","https://www.yelp.com/biz/burger-king-la-crosse-2?adjust_creative=QNZpjiWMh-xtTiixb79gYw&utm_campaign=yelp_api_v3&utm_medium=api_v3_business_search&utm_source=QNZpjiWMh-xtTiixb79gYw","3","Restaurants","1.5","43.8585586547852","-91.2412719726562","$","1124 George St W"
"X0O6oHYfk9Ul-aw35nYQkw","Outback Steakhouse","FALSE","https://www.yelp.com/biz/outback-steakhouse-onalaska?adjust_creative=QNZpjiWMh-xtTiixb79gYw&utm_campaign=yelp_api_v3&utm_medium=api_v3_business_search&utm_source=QNZpjiWMh-xtTiixb79gYw","27","Steakhouses","3.5","43.8776969909668","-91.1882553100586","$$","311 Hampton Ct"
"f9Kwvs754qtOZgUSS51ilg","Burrachos","FALSE","https://www.yelp.com/biz/burrachos-onalaska?adjust_creative=QNZpjiWMh-xtTiixb79gYw&utm_campaign=yelp_api_v3&utm_medium=api_v3_business_search&utm_source=QNZpjiWMh-xtTiixb79gYw","20","Mexican","3.5","43.87464","-91.19015","$","9432 State Rd 16"
"rnqzqptttFGzCjg7kWliwg","Olive Garden Italian Restaurant","FALSE","https://www.yelp.com/biz/olive-garden-italian-restaurant-onalaska-2?adjust_creative=QNZpjiWMh-xtTiixb79gYw&utm_campaign=yelp_api_v3&utm_medium=api_v3_business_search&utm_source=QNZpjiWMh-xtTiixb79gYw","29","Italian | Salad","3","43.8722839355469","-91.1913375854492","$$","9413 State Rd 16"
"xj0-nz_0ch8rGgydFRH_gA","Ground Round Grill & Bar","FALSE","https://www.yelp.com/biz/ground-round-grill-and-bar-onalaska?adjust_creative=QNZpjiWMh-xtTiixb79gYw&utm_campaign=yelp_api_v3&utm_medium=api_v3_business_search&utm_source=QNZpjiWMh-xtTiixb79gYw","24","Sports Bars | American (Traditional) | Burgers","2.5","43.8694377","-91.202261","$$","9348 Hwy 16"
"SqMiUy6iuRa5FWzD8v5s3A","Perkins Restaurant & Bakery","FALSE","https://www.yelp.com/biz/perkins-restaurant-and-bakery-onalaska?adjust_creative=QNZpjiWMh-xtTiixb79gYw&utm_campaign=yelp_api_v3&utm_medium=api_v3_business_search&utm_source=QNZpjiWMh-xtTiixb79gYw","14","Bakeries | Breakfast & Brunch | American (Traditional)","3","43.8736325669937","-91.1913608014584","$","9428 Highway 16"
"ULCBrv8xSUMoN_tnB4-uHQ","Huhot Mongolian Grill","FALSE","https://www.yelp.com/biz/huhot-mongolian-grill-la-crosse-2?adjust_creative=QNZpjiWMh-xtTiixb79gYw&utm_campaign=yelp_api_v3&utm_medium=api_v3_business_search&utm_source=QNZpjiWMh-xtTiixb79gYw","23","Chinese | Asian Fusion | Mongolian","3.5","43.868866","-91.196061","$$","Valley View Mall"
"vmqhsgEqa_Dk7euBxRTR9w","Applebee's Grill + Bar","FALSE","https://www.yelp.com/biz/applebees-grill-bar-onalaska?adjust_creative=QNZpjiWMh-xtTiixb79gYw&utm_campaign=yelp_api_v3&utm_medium=api_v3_business_search&utm_source=QNZpjiWMh-xtTiixb79gYw","24","Sports Bars | Burgers | American (Traditional)","1.5","43.870094","-91.19869","$$","9364 Hwy 16"
"tisEl4b7s0KyX3Fm0dQKcA","Fazoli's","FALSE","https://www.yelp.com/biz/fazolis-onalaska?adjust_creative=QNZpjiWMh-xtTiixb79gYw&utm_campaign=yelp_api_v3&utm_medium=api_v3_business_search&utm_source=QNZpjiWMh-xtTiixb79gYw","10","Italian","4","43.871","-91.19698","$","9370 Hwy 16"
"sdpVEWpLH36XaBr_V-l6Ig","Buffalo Wild Wings","FALSE","https://www.yelp.com/biz/buffalo-wild-wings-onalaska?adjust_creative=QNZpjiWMh-xtTiixb79gYw&utm_campaign=yelp_api_v3&utm_medium=api_v3_business_search&utm_source=QNZpjiWMh-xtTiixb79gYw","37","Chicken Wings | American (Traditional) | Sports Bars","3","43.87913","-91.18055","$$","3132 Market Pl"
"ifmYJPMGuFdIpEzcNEsBnA","Carlos O'kelly's","FALSE","https://www.yelp.com/biz/carlos-o-kellys-onalaska?adjust_creative=QNZpjiWMh-xtTiixb79gYw&utm_campaign=yelp_api_v3&utm_medium=api_v3_business_search&utm_source=QNZpjiWMh-xtTiixb79gYw","25","Mexican","2.5","43.8720397949219","-91.1957778930664","$$","9396 State Rd 16"
"vGNhahHy5Plat_QEEIBrDw","B A Burrito Co","FALSE","https://www.yelp.com/biz/b-a-burrito-co-onalaska-4?adjust_creative=QNZpjiWMh-xtTiixb79gYw&utm_campaign=yelp_api_v3&utm_medium=api_v3_business_search&utm_source=QNZpjiWMh-xtTiixb79gYw","7","Fast Food | Mexican | Gluten-Free","4.5","43.8778410543025","-91.1849711078865","$$","2928 Market Pl"
"5F_E9zCsn8zSfQIRonn40Q","Red Lobster","FALSE","https://www.yelp.com/biz/red-lobster-la-crosse?adjust_creative=QNZpjiWMh-xtTiixb79gYw&utm_campaign=yelp_api_v3&utm_medium=api_v3_business_search&utm_source=QNZpjiWMh-xtTiixb79gYw","8","Seafood | American (Traditional)","3","43.867092","-91.202898","$$","3333 State Rd 16"
"9ELWTDU1huAebGkQH4dGaw","T.G.I. Friday's","FALSE","https://www.yelp.com/biz/t-g-i-fridays-onalaska-2?adjust_creative=QNZpjiWMh-xtTiixb79gYw&utm_campaign=yelp_api_v3&utm_medium=api_v3_business_search&utm_source=QNZpjiWMh-xtTiixb79gYw","6","American (New)","4","43.8741874694824","-91.1908493041992","$$","9430 State Rd 16"
"KTnS0v1oOgxeKanwbwL3vg","China Inn","FALSE","https://www.yelp.com/biz/china-inn-onalaska-2?adjust_creative=QNZpjiWMh-xtTiixb79gYw&utm_campaign=yelp_api_v3&utm_medium=api_v3_business_search&utm_source=QNZpjiWMh-xtTiixb79gYw","11","Chinese","2.5","43.869270324707","-91.2022857666016","$$","9348 State Rd 16"
"G_m_pMTe2CJdaVHkvPibOQ","CreekSide Grill and Pub","FALSE","https://www.yelp.com/biz/creekside-grill-and-pub-la-crosse?adjust_creative=QNZpjiWMh-xtTiixb79gYw&utm_campaign=yelp_api_v3&utm_medium=api_v3_business_search&utm_source=QNZpjiWMh-xtTiixb79gYw","3","Pubs | American (Traditional) | Italian","3.5","43.84886","-91.17771","","W5450 Keil Coulee Rd"
"R9t17_R6qnmTH45Pa6jkbw","Caribou Coffee","FALSE","https://www.yelp.com/biz/caribou-coffee-onalaska?adjust_creative=QNZpjiWMh-xtTiixb79gYw&utm_campaign=yelp_api_v3&utm_medium=api_v3_business_search&utm_source=QNZpjiWMh-xtTiixb79gYw","12","Bakeries | Coffee & Tea | Sandwiches","4","43.8672702010111","-91.2055655046247","$","1202 County Rd Ph"
"fHaNB51q8UNZ8KcPaPvpuA","Culver's","FALSE","https://www.yelp.com/biz/culvers-la-crosse?adjust_creative=QNZpjiWMh-xtTiixb79gYw&utm_campaign=yelp_api_v3&utm_medium=api_v3_business_search&utm_source=QNZpjiWMh-xtTiixb79gYw","4","Burgers | Fast Food | Ice Cream & Frozen Yogurt","3.5","43.874768271991","-91.1911346842527","$","9422 State Rd 16"
"9_PZgdJfAC6vS1uneahfDA","Jimmy John's","FALSE","https://www.yelp.com/biz/jimmy-johns-onalaska?adjust_creative=QNZpjiWMh-xtTiixb79gYw&utm_campaign=yelp_api_v3&utm_medium=api_v3_business_search&utm_source=QNZpjiWMh-xtTiixb79gYw","7","Sandwiches | Delis | Fast Food","3","43.87464","-91.19015","$","9432 State Rd 16"
"RGm9yqGx6rQKazJ7YculMA","Arby's","FALSE","https://www.yelp.com/biz/arbys-onalaska?adjust_creative=QNZpjiWMh-xtTiixb79gYw&utm_campaign=yelp_api_v3&utm_medium=api_v3_business_search&utm_source=QNZpjiWMh-xtTiixb79gYw","2","Fast Food | Sandwiches","3","43.8762075874371","-91.1687475835553","","3210 N Kinney Coulee Rd"
"SSfoeCkDI3LRqQgu7Bww6g","Cabin Coffee La Crosse North","FALSE","https://www.yelp.com/biz/cabin-coffee-la-crosse-north-la-crosse?adjust_creative=QNZpjiWMh-xtTiixb79gYw&utm_campaign=yelp_api_v3&utm_medium=api_v3_business_search&utm_source=QNZpjiWMh-xtTiixb79gYw","1","Coffee & Tea | Breakfast & Brunch | Bagels","5","43.8646948","-91.2100759","","2843 Darling Ct"
"ZD-peqwWGdEZW1ItACwTcQ","Coney Island Hot Dogs","FALSE","https://www.yelp.com/biz/coney-island-hot-dogs-la-crosse?adjust_creative=QNZpjiWMh-xtTiixb79gYw&utm_campaign=yelp_api_v3&utm_medium=api_v3_business_search&utm_source=QNZpjiWMh-xtTiixb79gYw","6","Hot Dogs","3","43.8665283","-91.2021791","$","Valley View Mall"
"nrqA5FnZJgY7LT0kGw7Wdg","Super Buffet Chinese Restaurant","FALSE","https://www.yelp.com/biz/super-buffet-chinese-restaurant-la-crosse?adjust_creative=QNZpjiWMh-xtTiixb79gYw&utm_campaign=yelp_api_v3&utm_medium=api_v3_business_search&utm_source=QNZpjiWMh-xtTiixb79gYw","3","Chinese","1","43.8683929","-91.2001877","","9348 Highway 16"
"a85oWQ1NVkUgHdLfLzPe_g","China Max","FALSE","https://www.yelp.com/biz/china-max-la-crosse?adjust_creative=QNZpjiWMh-xtTiixb79gYw&utm_campaign=yelp_api_v3&utm_medium=api_v3_business_search&utm_source=QNZpjiWMh-xtTiixb79gYw","4","Chinese","4","43.867318","-91.196889","$","Valley View Mall"
"zfid9ny2-4Zi4zsYbzczRg","Burger King","FALSE","https://www.yelp.com/biz/burger-king-onalaska?adjust_creative=QNZpjiWMh-xtTiixb79gYw&utm_campaign=yelp_api_v3&utm_medium=api_v3_business_search&utm_source=QNZpjiWMh-xtTiixb79gYw","3","Sandwiches","1.5","43.8683242797852","-91.210319519043","","1259 Crossing Meadows Dr"
"OCnyZ4Etpa3S-hpqFESfKw","McDonald's","FALSE","https://www.yelp.com/biz/mcdonalds-onalaska?adjust_creative=QNZpjiWMh-xtTiixb79gYw&utm_campaign=yelp_api_v3&utm_medium=api_v3_business_search&utm_source=QNZpjiWMh-xtTiixb79gYw","1","Fast Food | Burgers | Coffee & Tea","1","43.872191","-91.1949","$","9398 State Road 16"
"-8s5fYppknvU9rV-Etj4Gw","Papa Murphy's","FALSE","https://www.yelp.com/biz/papa-murphys-onalaska-2?adjust_creative=QNZpjiWMh-xtTiixb79gYw&utm_campaign=yelp_api_v3&utm_medium=api_v3_business_search&utm_source=QNZpjiWMh-xtTiixb79gYw","5","Pizza","2","43.8686865716666","-91.2141611935149","$$","1220 Crossing Meadows Drive"
"s6bamAhzPJ-86lF-YowEqA","Subway","FALSE","https://www.yelp.com/biz/subway-onalaska?adjust_creative=QNZpjiWMh-xtTiixb79gYw&utm_campaign=yelp_api_v3&utm_medium=api_v3_business_search&utm_source=QNZpjiWMh-xtTiixb79gYw","4","Sandwiches | Fast Food","3.5","43.86909","-91.2003299","$","9360 State Rd 16"
"OB_zIV529dhDwAkevGx-mQ","Rocky Rococo Pan Style Pizza","FALSE","https://www.yelp.com/biz/rocky-rococo-pan-style-pizza-la-crosse-4?adjust_creative=QNZpjiWMh-xtTiixb79gYw&utm_campaign=yelp_api_v3&utm_medium=api_v3_business_search&utm_source=QNZpjiWMh-xtTiixb79gYw","2","Pizza","2.5","43.866737","-91.202483","$","3800 State Rd 16"
"ekczeGczfHY5KLwnhAD7UA","Wendy's","FALSE","https://www.yelp.com/biz/wendys-onalaska?adjust_creative=QNZpjiWMh-xtTiixb79gYw&utm_campaign=yelp_api_v3&utm_medium=api_v3_business_search&utm_source=QNZpjiWMh-xtTiixb79gYw","4","Burgers | Fast Food","1","43.86842","-91.20135","","9346 State Rd 16"
"4wMHz0hWapzPsfHJpFgGsA","Marge's On Rose","FALSE","https://www.yelp.com/biz/marges-on-rose-la-crosse?adjust_creative=QNZpjiWMh-xtTiixb79gYw&utm_campaign=yelp_api_v3&utm_medium=api_v3_business_search&utm_source=QNZpjiWMh-xtTiixb79gYw","39","Breakfast & Brunch","3","43.8367405754087","-91.2484091938178","$","833 Rose St"
"JeovCpLMAeoujv16uJMBnA","Ardie's Restaurant / Flipside Pub & Grill","FALSE","https://www.yelp.com/biz/ardies-restaurant-flipside-pub-and-grill-la-crosse?adjust_creative=QNZpjiWMh-xtTiixb79gYw&utm_campaign=yelp_api_v3&utm_medium=api_v3_business_search&utm_source=QNZpjiWMh-xtTiixb79gYw","22","American (Traditional) | Sports Bars | Pubs","3.5","43.8314895629883","-91.2387847900391","$$","400 Lang Dr"
"NJWwn_V-ZcA8oRbfsHK7pg","Sushi Pirate","FALSE","https://www.yelp.com/biz/sushi-pirate-la-crosse?adjust_creative=QNZpjiWMh-xtTiixb79gYw&utm_campaign=yelp_api_v3&utm_medium=api_v3_business_search&utm_source=QNZpjiWMh-xtTiixb79gYw","40","Japanese | Sushi Bars","3.5","43.8130073547363","-91.2536926269531","$$","200 Main St"
"VKVbZEIjxvGeAes-pMFwFg","The Verse Lounge & Grill","FALSE","https://www.yelp.com/biz/the-verse-lounge-and-grill-la-crosse?adjust_creative=QNZpjiWMh-xtTiixb79gYw&utm_campaign=yelp_api_v3&utm_medium=api_v3_business_search&utm_source=QNZpjiWMh-xtTiixb79gYw","1","Lounges | American (Traditional)","5","43.83523","-91.24854","","717 Rose St"
"KWCo-NVmCkGXeb6jNSUlIQ","Rivoli Theatre & Pizzeria","FALSE","https://www.yelp.com/biz/rivoli-theatre-and-pizzeria-la-crosse?adjust_creative=QNZpjiWMh-xtTiixb79gYw&utm_campaign=yelp_api_v3&utm_medium=api_v3_business_search&utm_source=QNZpjiWMh-xtTiixb79gYw","33","Cinema | Pizza","4","43.8130499","-91.25122","$","117 4th St N"
"-c1GGbZG3ievSF69eeV9Mw","Burger Fusion Company","FALSE","https://www.yelp.com/biz/burger-fusion-company-la-crosse-4?adjust_creative=QNZpjiWMh-xtTiixb79gYw&utm_campaign=yelp_api_v3&utm_medium=api_v3_business_search&utm_source=QNZpjiWMh-xtTiixb79gYw","14","Burgers | Ice Cream & Frozen Yogurt | Sandwiches","2.5","43.81194","-91.25441","$","200 Pearl St"
"G-zyXLeDGTRatrqV3RV0Xg","Boot Hill Pub","FALSE","https://www.yelp.com/biz/boot-hill-pub-la-crosse?adjust_creative=QNZpjiWMh-xtTiixb79gYw&utm_campaign=yelp_api_v3&utm_medium=api_v3_business_search&utm_source=QNZpjiWMh-xtTiixb79gYw","6","Pubs | Burgers | Sandwiches","3","43.8349","-91.23514","","1501 Saint Andrew St"
"FoXCODIRrApQhRpymZktaw","Super Buffet","FALSE","https://www.yelp.com/biz/super-buffet-la-crosse?adjust_creative=QNZpjiWMh-xtTiixb79gYw&utm_campaign=yelp_api_v3&utm_medium=api_v3_business_search&utm_source=QNZpjiWMh-xtTiixb79gYw","7","Chinese | Buffets","2.5","43.828800201416","-91.2490539550781","$","206 Copeland Ave"
"Cqxkv_BMYwh5VUxjg8geyA","Sloopy's Alma Mater","FALSE","https://www.yelp.com/biz/sloopys-alma-mater-la-crosse-2?adjust_creative=QNZpjiWMh-xtTiixb79gYw&utm_campaign=yelp_api_v3&utm_medium=api_v3_business_search&utm_source=QNZpjiWMh-xtTiixb79gYw","8","Chicken Wings | Pizza | Sandwiches","3.5","43.82899","-91.24991","$$","163 Copeland Ave"
"ZCV0eZITM5SVirQs8ibEZw","Taco John's","FALSE","https://www.yelp.com/biz/taco-johns-la-crosse-2?adjust_creative=QNZpjiWMh-xtTiixb79gYw&utm_campaign=yelp_api_v3&utm_medium=api_v3_business_search&utm_source=QNZpjiWMh-xtTiixb79gYw","2","Fast Food | Mexican","1","43.8280477771471","-91.2477274239063","","602 Monitor St"
"78KDYtArKu7uqI9SNVx9qA","B.A. Burrito Co.","FALSE","https://www.yelp.com/biz/b-a-burrito-co-la-crosse-5?adjust_creative=QNZpjiWMh-xtTiixb79gYw&utm_campaign=yelp_api_v3&utm_medium=api_v3_business_search&utm_source=QNZpjiWMh-xtTiixb79gYw","23","Tex-Mex | Mexican","3","43.82221","-91.24823","$","40 Copeland Ave"
"XUiPBYvdiG05hsoHFFf12Q","El Rodeo Restaurant","FALSE","https://www.yelp.com/biz/el-rodeo-restaurant-la-crosse?adjust_creative=QNZpjiWMh-xtTiixb79gYw&utm_campaign=yelp_api_v3&utm_medium=api_v3_business_search&utm_source=QNZpjiWMh-xtTiixb79gYw","18","Mexican","4","43.8113313668854","-91.2499244883657","$$","115 5th Ave S"
"g-SdUmdp9EVsuMdQSWMq-Q","Hunan Chinese Restaurant & Lounge","FALSE","https://www.yelp.com/biz/hunan-chinese-restaurant-and-lounge-la-crosse?adjust_creative=QNZpjiWMh-xtTiixb79gYw&utm_campaign=yelp_api_v3&utm_medium=api_v3_business_search&utm_source=QNZpjiWMh-xtTiixb79gYw","18","Chinese","3","43.81035","-91.25223","$$","318 4th St S"
"g6CpZKKn2KqCpDfTLWP97g","Ye Old Style Inn","FALSE","https://www.yelp.com/biz/ye-old-style-inn-la-crosse?adjust_creative=QNZpjiWMh-xtTiixb79gYw&utm_campaign=yelp_api_v3&utm_medium=api_v3_business_search&utm_source=QNZpjiWMh-xtTiixb79gYw","3","Beer Bar | Breakfast & Brunch | Wraps","4.5","43.8038","-91.25052","$$","828 5th Ave S"
"2xQCNPK5GkIEcA22C2ElAw","Great Wall","FALSE","https://www.yelp.com/biz/great-wall-la-crosse?adjust_creative=QNZpjiWMh-xtTiixb79gYw&utm_campaign=yelp_api_v3&utm_medium=api_v3_business_search&utm_source=QNZpjiWMh-xtTiixb79gYw","20","Chinese | Asian Fusion","3.5","43.812342","-91.251849","$$","322 Main St"
"NgEAV2G7IWyZvRhXs2b5MA","Polito's Pizza","FALSE","https://www.yelp.com/biz/politos-pizza-la-crosse-2?adjust_creative=QNZpjiWMh-xtTiixb79gYw&utm_campaign=yelp_api_v3&utm_medium=api_v3_business_search&utm_source=QNZpjiWMh-xtTiixb79gYw","27","Pizza","3.5","43.81247","-91.2533","$","116 3rd St S"
"PTXKT8L3Vf4HjySQs47a9Q","4 Sisters 4th Street Bar and Catering","FALSE","https://www.yelp.com/biz/4-sisters-4th-street-bar-and-catering-la-crosse?adjust_creative=QNZpjiWMh-xtTiixb79gYw&utm_campaign=yelp_api_v3&utm_medium=api_v3_business_search&utm_source=QNZpjiWMh-xtTiixb79gYw","9","Wine Bars | Tapas Bars | Tapas/Small Plates","3.5","43.81148","-91.25131","$$","133 4th St S"
"AI3BOh1wPvP9Ii8o7f51KA","Lindy's Subs & Salads","FALSE","https://www.yelp.com/biz/lindys-subs-and-salads-la-crosse?adjust_creative=QNZpjiWMh-xtTiixb79gYw&utm_campaign=yelp_api_v3&utm_medium=api_v3_business_search&utm_source=QNZpjiWMh-xtTiixb79gYw","22","Sandwiches | Salad","3","43.81323","-91.25283","$","221 Main St"
"LS-iYZDwynNdopvThrC9SQ","Rocky Rococo - La Crosse","FALSE","https://www.yelp.com/biz/rocky-rococo-la-crosse-la-crosse?adjust_creative=QNZpjiWMh-xtTiixb79gYw&utm_campaign=yelp_api_v3&utm_medium=api_v3_business_search&utm_source=QNZpjiWMh-xtTiixb79gYw","6","Pizza | Italian","2","43.82221","-91.24823","","40 Copeland Ave"
"PQ6tnFgxgUhlIj7uiOYP0g","Big Al's Pizza","FALSE","https://www.yelp.com/biz/big-als-pizza-la-crosse?adjust_creative=QNZpjiWMh-xtTiixb79gYw&utm_campaign=yelp_api_v3&utm_medium=api_v3_business_search&utm_source=QNZpjiWMh-xtTiixb79gYw","47","Pizza","3","43.8135","-91.25258","$$","115 3rd St"
"8KM8nWhv8nAXpnQtypT6lA","Cabin Coffee","FALSE","https://www.yelp.com/biz/cabin-coffee-la-crosse-2?adjust_creative=QNZpjiWMh-xtTiixb79gYw&utm_campaign=yelp_api_v3&utm_medium=api_v3_business_search&utm_source=QNZpjiWMh-xtTiixb79gYw","21","Coffee & Tea | Sandwiches","4","43.81116","-91.25146","$","401 Jay St"
"q9A1XxVRxIsXMduuyTAf7g","QDOBA Mexican Eats","FALSE","https://www.yelp.com/biz/qdoba-mexican-eats-la-crosse?adjust_creative=QNZpjiWMh-xtTiixb79gYw&utm_campaign=yelp_api_v3&utm_medium=api_v3_business_search&utm_source=QNZpjiWMh-xtTiixb79gYw","14","Mexican | Fast Food","3.5","43.812449","-91.2526335","$","127 S 3rd St"
"Ih34qSRnCoVWTW6Xf6gpig","Coney Island","FALSE","https://www.yelp.com/biz/coney-island-la-crosse?adjust_creative=QNZpjiWMh-xtTiixb79gYw&utm_campaign=yelp_api_v3&utm_medium=api_v3_business_search&utm_source=QNZpjiWMh-xtTiixb79gYw","7","Hot Dogs | Burgers","2.5","43.81206","-91.25188","","114 4th St S"
"wVPhfcEpAFXy5sp7jovwJw","Bebo's Dogs & Beef","FALSE","https://www.yelp.com/biz/bebos-dogs-and-beef-la-crosse-2?adjust_creative=QNZpjiWMh-xtTiixb79gYw&utm_campaign=yelp_api_v3&utm_medium=api_v3_business_search&utm_source=QNZpjiWMh-xtTiixb79gYw","1","Hot Dogs","5","43.812707439065","-91.2525969743729","","101 3rd St S"
"y6D8SXd-wbys6CZs7tCpog","Jimmy John's","FALSE","https://www.yelp.com/biz/jimmy-johns-la-crosse-2?adjust_creative=QNZpjiWMh-xtTiixb79gYw&utm_campaign=yelp_api_v3&utm_medium=api_v3_business_search&utm_source=QNZpjiWMh-xtTiixb79gYw","14","Sandwiches | Delis | Fast Food","3.5","43.81152","-91.2528899","$","312 Pearl St"
"PjUbFfOhRVddmGuKAHxsmw","Ringside","FALSE","https://www.yelp.com/biz/ringside-la-crosse?adjust_creative=QNZpjiWMh-xtTiixb79gYw&utm_campaign=yelp_api_v3&utm_medium=api_v3_business_search&utm_source=QNZpjiWMh-xtTiixb79gYw","1","American (New)","3","43.81226","-91.25355","$$","223 Pearl St"
"_C4VJkdp2SOvv0Y1O7aaYg","The Bistro","FALSE","https://www.yelp.com/biz/the-bistro-la-crosse?adjust_creative=QNZpjiWMh-xtTiixb79gYw&utm_campaign=yelp_api_v3&utm_medium=api_v3_business_search&utm_source=QNZpjiWMh-xtTiixb79gYw","3","American (Traditional)","2","43.8099785","-91.2570774","$$","500 Front St"
"qqR9p6XfPf_kA2waDE4CuQ","Subway","FALSE","https://www.yelp.com/biz/subway-la-crosse-2?adjust_creative=QNZpjiWMh-xtTiixb79gYw&utm_campaign=yelp_api_v3&utm_medium=api_v3_business_search&utm_source=QNZpjiWMh-xtTiixb79gYw","4","Sandwiches | Fast Food","4","43.811840057373","-91.2536697387695","$","202 3rd St S"
"7DZBsmXK9-kGh7b8_GckxA","Burger King","FALSE","https://www.yelp.com/biz/burger-king-la-crosse?adjust_creative=QNZpjiWMh-xtTiixb79gYw&utm_campaign=yelp_api_v3&utm_medium=api_v3_business_search&utm_source=QNZpjiWMh-xtTiixb79gYw","1","Restaurants","1","43.81663","-91.24936","","515 4th St N"
"AnsDRj4aAsooupST18WRMA","Tequila Mexican Restaurant","FALSE","https://www.yelp.com/biz/tequila-mexican-restaurant-la-crosse?adjust_creative=QNZpjiWMh-xtTiixb79gYw&utm_campaign=yelp_api_v3&utm_medium=api_v3_business_search&utm_source=QNZpjiWMh-xtTiixb79gYw","14","Mexican","2.5","43.81655","-91.23932","$$","515 West Ave N"
"gmmXeyjWbikmK0y9Xfz6NQ","King Street Kitchen","FALSE","https://www.yelp.com/biz/king-street-kitchen-la-crosse-2?adjust_creative=QNZpjiWMh-xtTiixb79gYw&utm_campaign=yelp_api_v3&utm_medium=api_v3_business_search&utm_source=QNZpjiWMh-xtTiixb79gYw","4","Breakfast & Brunch | Burgers | Wraps","3.5","43.8103561401367","-91.2465515136719","$","141 S 7th St"
"zZGVsl1-BG4oX8LqiefqdQ","Pizza Doctors","FALSE","https://www.yelp.com/biz/pizza-doctors-la-crosse?adjust_creative=QNZpjiWMh-xtTiixb79gYw&utm_campaign=yelp_api_v3&utm_medium=api_v3_business_search&utm_source=QNZpjiWMh-xtTiixb79gYw","32","Pizza | Buffets","3","43.8098030090332","-91.2471313476562","$","624 King St"
"tv2ADqWecJdlV2R6MPDVnQ","Taco Bell","FALSE","https://www.yelp.com/biz/taco-bell-la-crosse?adjust_creative=QNZpjiWMh-xtTiixb79gYw&utm_campaign=yelp_api_v3&utm_medium=api_v3_business_search&utm_source=QNZpjiWMh-xtTiixb79gYw","6","Mexican | Tex-Mex | Fast Food","2.5","43.813951","-91.238651","$","315 West Avenue North"
"z8hECzxWhl2n6ted4hBEMA","Toppers Pizza","FALSE","https://www.yelp.com/biz/toppers-pizza-la-crosse-2?adjust_creative=QNZpjiWMh-xtTiixb79gYw&utm_campaign=yelp_api_v3&utm_medium=api_v3_business_search&utm_source=QNZpjiWMh-xtTiixb79gYw","4","Pizza","3","43.8147125244141","-91.2394104003906","$$$$","325 West Ave N"
"YH_0rqqOWTDwLsgonTmBdw","Little Caesars Pizza","FALSE","https://www.yelp.com/biz/little-caesars-pizza-la-crosse?adjust_creative=QNZpjiWMh-xtTiixb79gYw&utm_campaign=yelp_api_v3&utm_medium=api_v3_business_search&utm_source=QNZpjiWMh-xtTiixb79gYw","3","Italian | Pizza","1.5","43.8171119689941","-91.2414627075195","","1022 La Crosse St"
"lePPC1MbR0PNN7gdJNpPLQ","Union Market","FALSE","https://www.yelp.com/biz/union-market-la-crosse?adjust_creative=QNZpjiWMh-xtTiixb79gYw&utm_campaign=yelp_api_v3&utm_medium=api_v3_business_search&utm_source=QNZpjiWMh-xtTiixb79gYw","1","Restaurants","4","43.8155022","-91.2465897","","400 7th St N"
"QpumDYJ0bsFIoq0LVkcC9g","Subway","FALSE","https://www.yelp.com/biz/subway-la-crosse-3?adjust_creative=QNZpjiWMh-xtTiixb79gYw&utm_campaign=yelp_api_v3&utm_medium=api_v3_business_search&utm_source=QNZpjiWMh-xtTiixb79gYw","1","Sandwiches | Fast Food","3","43.817144","-91.239285","","1205 La Crosse St"
"vFgzJ0ulPc0bBNbHGNxoEA","Eagle's Nest Sports Bar & Grill","FALSE","https://www.yelp.com/biz/eagles-nest-sports-bar-and-grill-la-crosse?adjust_creative=QNZpjiWMh-xtTiixb79gYw&utm_campaign=yelp_api_v3&utm_medium=api_v3_business_search&utm_source=QNZpjiWMh-xtTiixb79gYw","15","Sports Bars | American (Traditional)","3.5","43.81346","-91.2275","$","1914 Campbell Rd"
"Ny-0Kxp5gwV2EJPQY0eslA","Alpine Inn","FALSE","https://www.yelp.com/biz/alpine-inn-la-crosse?adjust_creative=QNZpjiWMh-xtTiixb79gYw&utm_campaign=yelp_api_v3&utm_medium=api_v3_business_search&utm_source=QNZpjiWMh-xtTiixb79gYw","17","Bars | Burgers | American (Traditional)","3.5","43.8138397023109","-91.2035073846558","$","W5717 Bliss Rd"
"0XZSQKQ0acP-VKlsi_RUxg","Schmidty's Bar & Restaurant","FALSE","https://www.yelp.com/biz/schmidtys-bar-and-restaurant-la-crosse?adjust_creative=QNZpjiWMh-xtTiixb79gYw&utm_campaign=yelp_api_v3&utm_medium=api_v3_business_search&utm_source=QNZpjiWMh-xtTiixb79gYw","14","American (Traditional)","4","43.79237","-91.21023","$$","3119 State Rd"
"Xp4z9M931_zm6ZDIUKIXfg","Arterial","FALSE","https://www.yelp.com/biz/arterial-la-crosse?adjust_creative=QNZpjiWMh-xtTiixb79gYw&utm_campaign=yelp_api_v3&utm_medium=api_v3_business_search&utm_source=QNZpjiWMh-xtTiixb79gYw","14","Bars | American (Traditional) | Breakfast & Brunch","3.5","43.80117","-91.23252","$","1003 16th St S"
"Elnzl5bbUKlwB7OKCiaoRw","Gracie's Gyros & Wraps","FALSE","https://www.yelp.com/biz/gracies-gyros-and-wraps-la-crosse?adjust_creative=QNZpjiWMh-xtTiixb79gYw&utm_campaign=yelp_api_v3&utm_medium=api_v3_business_search&utm_source=QNZpjiWMh-xtTiixb79gYw","28","Bakeries | Greek","3","43.81346","-91.2275","$","1908 Campbell Rd"
"S8hkzEBv9gHv-GrYvyjlSg","Bean Juice","FALSE","https://www.yelp.com/biz/bean-juice-la-crosse?adjust_creative=QNZpjiWMh-xtTiixb79gYw&utm_campaign=yelp_api_v3&utm_medium=api_v3_business_search&utm_source=QNZpjiWMh-xtTiixb79gYw","16","Coffee & Tea | Sandwiches","4.5","43.80069","-91.22909","$","1014 19th St S"
"m-mqE4Pxb6QCp3jb9q6R1g","B.A. Burrito","FALSE","https://www.yelp.com/biz/b-a-burrito-la-crosse-4?adjust_creative=QNZpjiWMh-xtTiixb79gYw&utm_campaign=yelp_api_v3&utm_medium=api_v3_business_search&utm_source=QNZpjiWMh-xtTiixb79gYw","12","Mexican | Tex-Mex","3","43.7950249761343","-91.2198116630316","$","1607 Losey Blvd S"
"K2aNoBAIJ_R28_bygcNQ2w","China Buffet","FALSE","https://www.yelp.com/biz/china-buffet-la-crosse?adjust_creative=QNZpjiWMh-xtTiixb79gYw&utm_campaign=yelp_api_v3&utm_medium=api_v3_business_search&utm_source=QNZpjiWMh-xtTiixb79gYw","14","Chinese","2.5","43.79524","-91.21911","$","1611 Losey Blvd S"
"ERQgUIYYc-ejH0pqTDbewA","Al's State Road Pizzeria","FALSE","https://www.yelp.com/biz/als-state-road-pizzeria-la-crosse-2?adjust_creative=QNZpjiWMh-xtTiixb79gYw&utm_campaign=yelp_api_v3&utm_medium=api_v3_business_search&utm_source=QNZpjiWMh-xtTiixb79gYw","9","Pizza","3.5","43.79757","-91.22172","$$","2242 State Rd"
"ZkGJKx8LzFjDWFNFJ2QwcA","Sidewalk Cafe","FALSE","https://www.yelp.com/biz/sidewalk-cafe-hokah?adjust_creative=QNZpjiWMh-xtTiixb79gYw&utm_campaign=yelp_api_v3&utm_medium=api_v3_business_search&utm_source=QNZpjiWMh-xtTiixb79gYw","3","Breakfast & Brunch | Burgers","3.5","43.759924","-91.345825","","46 Main St"
"zlUYU99E1maTWPpfspbNCg","Culina Mariana Cafe","FALSE","https://www.yelp.com/biz/culina-mariana-cafe-la-crosse?adjust_creative=QNZpjiWMh-xtTiixb79gYw&utm_campaign=yelp_api_v3&utm_medium=api_v3_business_search&utm_source=QNZpjiWMh-xtTiixb79gYw","3","American (New) | German | Breakfast & Brunch","4","43.75258","-91.18079","$$","5250 Justin Rd"
"FijQHV7_JlXQEKXq6syosA","Fiesta Mexicana","FALSE","https://www.yelp.com/biz/fiesta-mexicana-la-crosse?adjust_creative=QNZpjiWMh-xtTiixb79gYw&utm_campaign=yelp_api_v3&utm_medium=api_v3_business_search&utm_source=QNZpjiWMh-xtTiixb79gYw","21","Mexican","4","43.7577781677246","-91.2056198120117","$$","5200 Mormon Coulee Rd"
"4ewfEhvi8_Ft-XMw9vSbiA","Marco's Pizza","FALSE","https://www.yelp.com/biz/marcos-pizza-la-crosse?adjust_creative=QNZpjiWMh-xtTiixb79gYw&utm_campaign=yelp_api_v3&utm_medium=api_v3_business_search&utm_source=QNZpjiWMh-xtTiixb79gYw","4","Pizza","5","43.7799988","-91.2258377","","3514 Mormon Coulee Rd"
"g1RL3_N6kh5gxTbX5R2oRw","China Star","FALSE","https://www.yelp.com/biz/china-star-la-crosse?adjust_creative=QNZpjiWMh-xtTiixb79gYw&utm_campaign=yelp_api_v3&utm_medium=api_v3_business_search&utm_source=QNZpjiWMh-xtTiixb79gYw","24","Chinese","2.5","43.7724482","-91.2173498","$","4202 Mormon Coulee Rd"
"Jdoc1DPcu20rzqSJPtXjqQ","Pettibone Boat Club","FALSE","https://www.yelp.com/biz/pettibone-boat-club-la-crosse?adjust_creative=QNZpjiWMh-xtTiixb79gYw&utm_campaign=yelp_api_v3&utm_medium=api_v3_business_search&utm_source=QNZpjiWMh-xtTiixb79gYw","33","Burgers | American (Traditional) | Sandwiches","2.5","43.8052500600644","-91.2625372409821","$$","S Pettibone Dr"
"JUpyyQ4P7chpCP6G_j64og","Pizza King-Pizza Subs Gyros","FALSE","https://www.yelp.com/biz/pizza-king-pizza-subs-gyros-la-crosse-5?adjust_creative=QNZpjiWMh-xtTiixb79gYw&utm_campaign=yelp_api_v3&utm_medium=api_v3_business_search&utm_source=QNZpjiWMh-xtTiixb79gYw","11","Pizza | Italian | Greek","4.5","43.793022","-91.247358","$$","2929 S Ave"
"CkYYn0G9BoMMYX7hlR5Tmw","Nell's City Grill","FALSE","https://www.yelp.com/biz/nells-city-grill-la-crosse?adjust_creative=QNZpjiWMh-xtTiixb79gYw&utm_campaign=yelp_api_v3&utm_medium=api_v3_business_search&utm_source=QNZpjiWMh-xtTiixb79gYw","4","American (Traditional)","4","43.8024940490723","-91.2529983520508","$$","1111 S Third St"
"1x2svl8R_KWeGxe6Yc7-9Q","Kramer's Bar & Grill","FALSE","https://www.yelp.com/biz/kramers-bar-and-grill-la-crosse?adjust_creative=QNZpjiWMh-xtTiixb79gYw&utm_campaign=yelp_api_v3&utm_medium=api_v3_business_search&utm_source=QNZpjiWMh-xtTiixb79gYw","6","Restaurants","4","43.8019371032715","-91.2530517578125","$","1123 3rd St S"
"IY4XNzdhNnENq9VCMCWTVw","Pla-Mor Lanes and The Eleventh Frame Diner","FALSE","https://www.yelp.com/biz/pla-mor-lanes-and-the-eleventh-frame-diner-la-crosse?adjust_creative=QNZpjiWMh-xtTiixb79gYw&utm_campaign=yelp_api_v3&utm_medium=api_v3_business_search&utm_source=QNZpjiWMh-xtTiixb79gYw","4","Bowling | Pizza | American (Traditional)","5","43.8053398132324","-91.2513656616211","","807 4th St S"
"W7C4hom9M0UHOWBPIdD4_A","Taco John's","FALSE","https://www.yelp.com/biz/taco-johns-la-crosse?adjust_creative=QNZpjiWMh-xtTiixb79gYw&utm_campaign=yelp_api_v3&utm_medium=api_v3_business_search&utm_source=QNZpjiWMh-xtTiixb79gYw","7","Mexican | Fast Food","3","43.8016721861093","-91.2390513941864","$","1211 Jackson St"
"ch0Y6GrRZIfQgzMLU7fELw","Culver's","FALSE","https://www.yelp.com/biz/culvers-la-crosse-2?adjust_creative=QNZpjiWMh-xtTiixb79gYw&utm_campaign=yelp_api_v3&utm_medium=api_v3_business_search&utm_source=QNZpjiWMh-xtTiixb79gYw","8","Burgers | Ice Cream & Frozen Yogurt | Fast Food","4","43.7737823","-91.2178697","$","4101 Mormon Coulee Rd"
"wVgeY07LqCdvbyqM1aY5jw","Jimmy John's","FALSE","https://www.yelp.com/biz/jimmy-johns-la-crosse-3?adjust_creative=QNZpjiWMh-xtTiixb79gYw&utm_campaign=yelp_api_v3&utm_medium=api_v3_business_search&utm_source=QNZpjiWMh-xtTiixb79gYw","3","Delis | Sandwiches | Fast Food","4.5","43.7964399","-91.22038","$","1420 Losey Blvd S"
"ysI7R43l_xPZkBJ2TTML5Q","Domino's Pizza","FALSE","https://www.yelp.com/biz/dominos-pizza-la-crosse?adjust_creative=QNZpjiWMh-xtTiixb79gYw&utm_campaign=yelp_api_v3&utm_medium=api_v3_business_search&utm_source=QNZpjiWMh-xtTiixb79gYw","5","Pizza | Chicken Wings | Sandwiches","4.5","43.79623","-91.21955","$$","2402 State Rd"
"FYyMmxTvzgRaaRCMpu9TNA","South Lanes Pizza","FALSE","https://www.yelp.com/biz/south-lanes-pizza-la-crosse?adjust_creative=QNZpjiWMh-xtTiixb79gYw&utm_campaign=yelp_api_v3&utm_medium=api_v3_business_search&utm_source=QNZpjiWMh-xtTiixb79gYw","5","Pizza | Bowling | Bars","2.5","43.7737426757812","-91.2177124023438","$$","4107 Mormon Coulee Rd"
"k2vBVH0D2XPXRVKwf6q_Dw","Chuck E Cheese's","FALSE","https://www.yelp.com/biz/chuck-e-cheeses-la-crosse?adjust_creative=QNZpjiWMh-xtTiixb79gYw&utm_campaign=yelp_api_v3&utm_medium=api_v3_business_search&utm_source=QNZpjiWMh-xtTiixb79gYw","3","Pizza | Arcades","3.5","43.797252","-91.221296","$$","4444 State Rd 16"
"08GXDcjAI-r5MeYd1xz1_Q","A & W Family Restaurant","FALSE","https://www.yelp.com/biz/a-and-w-family-restaurant-la-crosse?adjust_creative=QNZpjiWMh-xtTiixb79gYw&utm_campaign=yelp_api_v3&utm_medium=api_v3_business_search&utm_source=QNZpjiWMh-xtTiixb79gYw","9","Fast Food","2.5","43.78476","-91.23103","$","3005 South Ave"
"2zpdJcGA10wa0q8eb3d_Jw","Wendy's","FALSE","https://www.yelp.com/biz/wendys-la-crosse?adjust_creative=QNZpjiWMh-xtTiixb79gYw&utm_campaign=yelp_api_v3&utm_medium=api_v3_business_search&utm_source=QNZpjiWMh-xtTiixb79gYw","3","Fast Food | Burgers","2","43.76947","-91.21477","$","4422 Mormon Coulee Rd"
"R5iC9O_KHF46jGqr0EyYSA","McDonald's","FALSE","https://www.yelp.com/biz/mcdonalds-la-crosse-2?adjust_creative=QNZpjiWMh-xtTiixb79gYw&utm_campaign=yelp_api_v3&utm_medium=api_v3_business_search&utm_source=QNZpjiWMh-xtTiixb79gYw","3","Fast Food | Burgers | Coffee & Tea","1.5","43.7827453613281","-91.2198028564453","","2810 Losey Blvd S"
"cqCopLzu5VGmCn0DqS3lOg","Burger King","FALSE","https://www.yelp.com/biz/burger-king-la-crosse-3?adjust_creative=QNZpjiWMh-xtTiixb79gYw&utm_campaign=yelp_api_v3&utm_medium=api_v3_business_search&utm_source=QNZpjiWMh-xtTiixb79gYw","3","Burgers | Fast Food","1","43.7803907253126","-91.224985720987","","3519 Mormon Coulee Rd"
"B-kG9tosyhX5Ggk_l-KnXQ","Pizza Hut","FALSE","https://www.yelp.com/biz/pizza-hut-la-crosse?adjust_creative=QNZpjiWMh-xtTiixb79gYw&utm_campaign=yelp_api_v3&utm_medium=api_v3_business_search&utm_source=QNZpjiWMh-xtTiixb79gYw","6","Pizza | Italian | Chicken Wings","2","43.7829818725586","-91.225715637207","","2028 Ward Ave"
"bV4Qli8WCVXEwxM_pRgc0g","Taco Bell","FALSE","https://www.yelp.com/biz/taco-bell-la-crosse-2?adjust_creative=QNZpjiWMh-xtTiixb79gYw&utm_campaign=yelp_api_v3&utm_medium=api_v3_business_search&utm_source=QNZpjiWMh-xtTiixb79gYw","8","Mexican | Tex-Mex | Fast Food","1","43.773395","-91.21772","$$","4141 Mormon Coulee Ct"
"OL0VaAR82DBTl4hzT2adVA","KFC","FALSE","https://www.yelp.com/biz/kfc-la-crosse?adjust_creative=QNZpjiWMh-xtTiixb79gYw&utm_campaign=yelp_api_v3&utm_medium=api_v3_business_search&utm_source=QNZpjiWMh-xtTiixb79gYw","4","Chicken Wings | Fast Food | Chicken Shop","1.5","43.7753","-91.2214","","3415 Fiesta Ct"
"RxpWugqX_BgBvS0_5sKOew","Dairy Queen","FALSE","https://www.yelp.com/biz/dairy-queen-la-crosse-2?adjust_creative=QNZpjiWMh-xtTiixb79gYw&utm_campaign=yelp_api_v3&utm_medium=api_v3_business_search&utm_source=QNZpjiWMh-xtTiixb79gYw","3","Fast Food | Ice Cream & Frozen Yogurt","2","43.77214","-91.2176","","4200 Mormon Coulee Rd"
"Z5kpLHBPONI_F-y857Jkcg","Papa Murphy's","FALSE","https://www.yelp.com/biz/papa-murphys-la-crosse?adjust_creative=QNZpjiWMh-xtTiixb79gYw&utm_campaign=yelp_api_v3&utm_medium=api_v3_business_search&utm_source=QNZpjiWMh-xtTiixb79gYw","1","Pizza","5","43.80069","-91.22909","","1820 Jackson Street"
"O_J7no1wy0uFFvqjQDhlIg","Legacy Grill & Pub","FALSE","https://www.yelp.com/biz/legacy-grill-and-pub-coon-valley?adjust_creative=QNZpjiWMh-xtTiixb79gYw&utm_campaign=yelp_api_v3&utm_medium=api_v3_business_search&utm_source=QNZpjiWMh-xtTiixb79gYw","11","American (Traditional) | Pubs | Salad","4","43.70235","-91.01843","$$","110 Central Ave"
"uH6ZR9xMojpwiNFaR2uSiA","The Ridge","FALSE","https://www.yelp.com/biz/the-ridge-la-crosse?adjust_creative=QNZpjiWMh-xtTiixb79gYw&utm_campaign=yelp_api_v3&utm_medium=api_v3_business_search&utm_source=QNZpjiWMh-xtTiixb79gYw","6","Bars | American (Traditional)","4","43.78553","-91.04462","$$","W2782 State Rd 33"
"xnogfOY3cxzDDqOPLJSRag","Stockyard Grill & Saloon","FALSE","https://www.yelp.com/biz/stockyard-grill-and-saloon-coon-valley?adjust_creative=QNZpjiWMh-xtTiixb79gYw&utm_campaign=yelp_api_v3&utm_medium=api_v3_business_search&utm_source=QNZpjiWMh-xtTiixb79gYw","7","American (Traditional)","4","43.70231","-91.01698","$","202 Central Ave"
"-y5nfhKQeprZuwax8BpSWA","Barre Country Diner","FALSE","https://www.yelp.com/biz/barre-country-diner-west-salem?adjust_creative=QNZpjiWMh-xtTiixb79gYw&utm_campaign=yelp_api_v3&utm_medium=api_v3_business_search&utm_source=QNZpjiWMh-xtTiixb79gYw","5","Diners | Breakfast & Brunch | Pizza","4","43.838854858175","-91.1062550152073","","W4007 Country Rd 0"
"2PMTKRZG-DIbaijJrTIKMg","Timmers 10 Mile Pub","FALSE","https://www.yelp.com/biz/timmers-10-mile-pub-la-crosse?adjust_creative=QNZpjiWMh-xtTiixb79gYw&utm_campaign=yelp_api_v3&utm_medium=api_v3_business_search&utm_source=QNZpjiWMh-xtTiixb79gYw","11","Pubs | American (Traditional)","4.5","43.7609723296134","-91.1313000591271","$","W4516 Eddie Ave"
"FhY6GQCY7xO0DXW9LnY3sQ","Fox Hollow Sports Bar","FALSE","https://www.yelp.com/biz/fox-hollow-sports-bar-la-crosse?adjust_creative=QNZpjiWMh-xtTiixb79gYw&utm_campaign=yelp_api_v3&utm_medium=api_v3_business_search&utm_source=QNZpjiWMh-xtTiixb79gYw","10","American (Traditional) | Sports Bars","4.5","43.839851","-91.116171","$","Fox Hollow Golf Course"
"dq0TtI0a51tEv1cURD0nOA","Fox Hollow Golf Course","FALSE","https://www.yelp.com/biz/fox-hollow-golf-course-la-crosse-3?adjust_creative=QNZpjiWMh-xtTiixb79gYw&utm_campaign=yelp_api_v3&utm_medium=api_v3_business_search&utm_source=QNZpjiWMh-xtTiixb79gYw","4","Golf | Burgers | Venues & Event Spaces","5","43.839851","-91.116171","$$","N3287 County Trunk Oa"
"ngMjpVd7rdr7jBzHOkWMuQ","Stockyard","FALSE","https://www.yelp.com/biz/stockyard-coon-valley?adjust_creative=QNZpjiWMh-xtTiixb79gYw&utm_campaign=yelp_api_v3&utm_medium=api_v3_business_search&utm_source=QNZpjiWMh-xtTiixb79gYw","2","Restaurants","2.5","43.7023771","-91.0090588","$$","Central Ave"
