"ID","Name","Is_Closed","URL","Review_Count","Categories","Rating","Latitude","Longitude","Price","Address"
"msPhykW_fcd6mrTnSl3QyQ","Evergreens Supper Club","FALSE","https://www.yelp.com/biz/evergreens-supper-club-black-river-falls?adjust_creative=QNZpjiWMh-xtTiixb79gYw&utm_campaign=yelp_api_v3&utm_medium=api_v3_business_search&utm_source=QNZpjiWMh-xtTiixb79gYw","4","Bars | American (Traditional)","3","44.15754","-90.71341","$$","1153 Apollo Rd"
"zm6oqnVcDHZ8zNQe6sLE3g","McCoy's","FALSE","https://www.yelp.com/biz/mccoys-fort-mccoy?adjust_creative=QNZpjiWMh-xtTiixb79gYw&utm_campaign=yelp_api_v3&utm_medium=api_v3_business_search&utm_source=QNZpjiWMh-xtTiixb79gYw","14","Mexican | Buffets","3","44.0142907526","-90.6837420707","$","1571 S 9th Ave"
"zQSm-shc58nkjrYkcxVwHA","Ginny's Cupboard","FALSE","https://www.yelp.com/biz/ginnys-cupboard-sparta-2?adjust_creative=QNZpjiWMh-xtTiixb79gYw&utm_campaign=yelp_api_v3&utm_medium=api_v3_business_search&utm_source=QNZpjiWMh-xtTiixb79gYw","38","Sandwiches | Salad | Cafes","4","43.9451899","-90.8106899","$$","127 N Water St"
"fO_0DGvgo-Qt3W0dvcSE6Q","Sparta Steakhouse","FALSE","https://www.yelp.com/biz/sparta-steakhouse-sparta?adjust_creative=QNZpjiWMh-xtTiixb79gYw&utm_campaign=yelp_api_v3&utm_medium=api_v3_business_search&utm_source=QNZpjiWMh-xtTiixb79gYw","21","Steakhouses","3.5","43.9379196","-90.8280716","$$","701 Industrial Dr"
"WcYCqJk_YsvZU_LJnuOO0w","Sparta Family Restaurant","FALSE","https://www.yelp.com/biz/sparta-family-restaurant-sparta?adjust_creative=QNZpjiWMh-xtTiixb79gYw&utm_campaign=yelp_api_v3&utm_medium=api_v3_business_search&utm_source=QNZpjiWMh-xtTiixb79gYw","11","American (Traditional) | Breakfast & Brunch | Sandwiches","4.5","43.9229698181152","-90.8195571899414","$","741 Avon Rd"
"CN2SejEcvUVclcEOFawv6w","Shane & Penney's Slice of Chicago","FALSE","https://www.yelp.com/biz/shane-and-penneys-slice-of-chicago-sparta?adjust_creative=QNZpjiWMh-xtTiixb79gYw&utm_campaign=yelp_api_v3&utm_medium=api_v3_business_search&utm_source=QNZpjiWMh-xtTiixb79gYw","34","Pizza | Italian | Sandwiches","4.5","43.93886","-90.8171","$$","507 W Wisconsin St"
"RZ93t8aynEJRnQjIPkmNdQ","El Vallarta Mexican Restaurant","FALSE","https://www.yelp.com/biz/el-vallarta-mexican-restaurant-sparta?adjust_creative=QNZpjiWMh-xtTiixb79gYw&utm_campaign=yelp_api_v3&utm_medium=api_v3_business_search&utm_source=QNZpjiWMh-xtTiixb79gYw","28","Mexican","4","43.94647","-90.82025","$$","223 N Black River St"
"5kUTgDDQYH19BrhoWQjwyQ","Leroy's Grill","FALSE","https://www.yelp.com/biz/leroys-grill-sparta?adjust_creative=QNZpjiWMh-xtTiixb79gYw&utm_campaign=yelp_api_v3&utm_medium=api_v3_business_search&utm_source=QNZpjiWMh-xtTiixb79gYw","4","American (Traditional)","4.5","43.9446220397949","-90.8145294189453","",""
"T4cremZI9ooYZ_ykjgpWrQ","The Vault","FALSE","https://www.yelp.com/biz/the-vault-rockland?adjust_creative=QNZpjiWMh-xtTiixb79gYw&utm_campaign=yelp_api_v3&utm_medium=api_v3_business_search&utm_source=QNZpjiWMh-xtTiixb79gYw","2","Bars | American (Traditional) | Wraps","4.5","43.9069298370885","-90.9208969992799","$","101 W Rock St"
"OraphWdFLZMPoe-0nzPS0A","Italiano's","FALSE","https://www.yelp.com/biz/italianos-sparta?adjust_creative=QNZpjiWMh-xtTiixb79gYw&utm_campaign=yelp_api_v3&utm_medium=api_v3_business_search&utm_source=QNZpjiWMh-xtTiixb79gYw","30","Italian","3","43.945621","-90.8113879","$$","142 N Water St"
"wLAKqieGMwbXHzupLTl8Sw","Dorine's Family Inn","FALSE","https://www.yelp.com/biz/dorines-family-inn-sparta-2?adjust_creative=QNZpjiWMh-xtTiixb79gYw&utm_campaign=yelp_api_v3&utm_medium=api_v3_business_search&utm_source=QNZpjiWMh-xtTiixb79gYw","9","American (Traditional) | Breakfast & Brunch | Burgers","4","43.9440002441406","-90.8112716674805","$","110 S Water St"
"-88CwO_ExXsNy9x_UHeOUQ","Jose Maseda","FALSE","https://www.yelp.com/biz/jose-maseda-sparta?adjust_creative=QNZpjiWMh-xtTiixb79gYw&utm_campaign=yelp_api_v3&utm_medium=api_v3_business_search&utm_source=QNZpjiWMh-xtTiixb79gYw","4","Mexican","4.5","43.93923","-90.81549","","402 W Wisconsin St"
"uBKIJQC6qmKIb_yekAyvbA","Rudy's Drive In Restaurant","FALSE","https://www.yelp.com/biz/rudys-drive-in-restaurant-sparta?adjust_creative=QNZpjiWMh-xtTiixb79gYw&utm_campaign=yelp_api_v3&utm_medium=api_v3_business_search&utm_source=QNZpjiWMh-xtTiixb79gYw","10","American (Traditional)","3.5","43.93935","-90.8111","$","100 W Wisconsin St"
"pMYjFcbMScZ-p6-BR7NwFA","Super Restaurant","FALSE","https://www.yelp.com/biz/super-restaurant-sparta?adjust_creative=QNZpjiWMh-xtTiixb79gYw&utm_campaign=yelp_api_v3&utm_medium=api_v3_business_search&utm_source=QNZpjiWMh-xtTiixb79gYw","2","Barbeque | Breakfast & Brunch | Sandwiches","3.5","43.93876","-90.8285","","620 Industrial Dr"
"LFx6A4A5ifPE9D8W0MZD5w","Great Wall Buffet","FALSE","https://www.yelp.com/biz/great-wall-buffet-sparta?adjust_creative=QNZpjiWMh-xtTiixb79gYw&utm_campaign=yelp_api_v3&utm_medium=api_v3_business_search&utm_source=QNZpjiWMh-xtTiixb79gYw","7","Chinese","3","43.939441","-90.817695","","516 W Wisconsin St"
"LSmFryYiA5WV554Q8U8TAg","Culver's","FALSE","https://www.yelp.com/biz/culvers-sparta?adjust_creative=QNZpjiWMh-xtTiixb79gYw&utm_campaign=yelp_api_v3&utm_medium=api_v3_business_search&utm_source=QNZpjiWMh-xtTiixb79gYw","4","Burgers | Fast Food | Ice Cream & Frozen Yogurt","4","43.9390099705685","-90.8236198872328","$","911 W Wisconsin St"
"JgKHcMvZBf07qIDEsbPsgQ","Club 16","FALSE","https://www.yelp.com/biz/club-16-sparta-2?adjust_creative=QNZpjiWMh-xtTiixb79gYw&utm_campaign=yelp_api_v3&utm_medium=api_v3_business_search&utm_source=QNZpjiWMh-xtTiixb79gYw","2","Bars | American (Traditional)","1.5","43.9382095336914","-90.8338928222656","","1615 W Wisconsin St"
"qJdFm-SU2_Yi-HdXmEGcLQ","Papa Murphy's","FALSE","https://www.yelp.com/biz/papa-murphys-sparta-2?adjust_creative=QNZpjiWMh-xtTiixb79gYw&utm_campaign=yelp_api_v3&utm_medium=api_v3_business_search&utm_source=QNZpjiWMh-xtTiixb79gYw","3","Pizza","4.5","43.94623","-90.82025","$","215 North Black River Street"
"6L4hBL6kLltlGphcX-zsWg","Pizza Hut","FALSE","https://www.yelp.com/biz/pizza-hut-sparta?adjust_creative=QNZpjiWMh-xtTiixb79gYw&utm_campaign=yelp_api_v3&utm_medium=api_v3_business_search&utm_source=QNZpjiWMh-xtTiixb79gYw","4","Pizza | Italian | Chicken Wings","4","43.93876","-90.82161","$","821 W Wisconsin St"
"VpD-ij3Lm1BeB4eqPEz2Rg","McDonald's","FALSE","https://www.yelp.com/biz/mcdonalds-sparta-6?adjust_creative=QNZpjiWMh-xtTiixb79gYw&utm_campaign=yelp_api_v3&utm_medium=api_v3_business_search&utm_source=QNZpjiWMh-xtTiixb79gYw","2","Burgers | Fast Food | Coffee & Tea","2","43.9381821176415","-90.821262","$","620 S Black River St"
"1Bx_VrEJAJCHpXsz356Ucg","Casey's Carryout Pizza","FALSE","https://www.yelp.com/biz/caseys-carryout-pizza-sparta?adjust_creative=QNZpjiWMh-xtTiixb79gYw&utm_campaign=yelp_api_v3&utm_medium=api_v3_business_search&utm_source=QNZpjiWMh-xtTiixb79gYw","2","Pizza","3.5","43.9415","-90.8209","","326 S Black River St"
"dz7D7-Tq267V0_WDFeovKg","Taco Bell","FALSE","https://www.yelp.com/biz/taco-bell-sparta-2?adjust_creative=QNZpjiWMh-xtTiixb79gYw&utm_campaign=yelp_api_v3&utm_medium=api_v3_business_search&utm_source=QNZpjiWMh-xtTiixb79gYw","2","Tex-Mex | Fast Food | Mexican","3","43.93935","-90.82115","","802 West Wisconsin"
"F_VGF6FbsE7QjY5kkNWGdw","Subway","FALSE","https://www.yelp.com/biz/subway-sparta-6?adjust_creative=QNZpjiWMh-xtTiixb79gYw&utm_campaign=yelp_api_v3&utm_medium=api_v3_business_search&utm_source=QNZpjiWMh-xtTiixb79gYw","3","Sandwiches | Fast Food","3.5","43.9387479423905","-90.821014390213","$","801 W Wisconsin St"
"nF4kwjLnT5zNeRn3zM5mww","Foxhole Pub","FALSE","https://www.yelp.com/biz/foxhole-pub-sparta?adjust_creative=QNZpjiWMh-xtTiixb79gYw&utm_campaign=yelp_api_v3&utm_medium=api_v3_business_search&utm_source=QNZpjiWMh-xtTiixb79gYw","14","American (Traditional) | Steakhouses | Pubs","4","43.9565964051296","-90.793647877872","$$","Highway 21 E"
"6o8jTogxhwCDqHmU-z3uQQ","Club Oasis","FALSE","https://www.yelp.com/biz/club-oasis-sparta-2?adjust_creative=QNZpjiWMh-xtTiixb79gYw&utm_campaign=yelp_api_v3&utm_medium=api_v3_business_search&utm_source=QNZpjiWMh-xtTiixb79gYw","14","American (Traditional) | Seafood | Bars","3.5","43.96749","-90.76353","$$","11345 State Hwy 21"
"-_EDZudu4n8Dy3pA2QLVRA","Silent Outdoors","FALSE","https://www.yelp.com/biz/silent-outdoors-sparta-2?adjust_creative=QNZpjiWMh-xtTiixb79gYw&utm_campaign=yelp_api_v3&utm_medium=api_v3_business_search&utm_source=QNZpjiWMh-xtTiixb79gYw","5","Outdoor Gear | Burgers | Archery","5","43.93931","-90.77409","$","2700 Riley Rd"
"Zmb9MgyfTO0wF4PKyOQDZw","Jakes Northwoods","FALSE","https://www.yelp.com/biz/jakes-northwoods-sparta?adjust_creative=QNZpjiWMh-xtTiixb79gYw&utm_campaign=yelp_api_v3&utm_medium=api_v3_business_search&utm_source=QNZpjiWMh-xtTiixb79gYw","7","American (New) | Sandwiches","3","43.9556655883789","-90.7964706420898","$$","1132 Angelo Rd"
"OgEIdC4WHIqcxBXETpaD3w","Best Western","FALSE","https://www.yelp.com/biz/best-western-sparta?adjust_creative=QNZpjiWMh-xtTiixb79gYw&utm_campaign=yelp_api_v3&utm_medium=api_v3_business_search&utm_source=QNZpjiWMh-xtTiixb79gYw","11","Hotels | Pizza","4","43.9435272216797","-90.7673416137695","$$","4445 Theater Rd"
"zvmHmgwLXGF-Z2UrTANhyg","Oko's Outpost","FALSE","https://www.yelp.com/biz/okos-outpost-warrens?adjust_creative=QNZpjiWMh-xtTiixb79gYw&utm_campaign=yelp_api_v3&utm_medium=api_v3_business_search&utm_source=QNZpjiWMh-xtTiixb79gYw","11","Karaoke | Beer Bar | Pizza","5","44.1312799","-90.49957","$","219 Grant St"
"6Zw6MLua-NTwZHetYI0lKQ","BP Smokehouse","FALSE","https://www.yelp.com/biz/bp-smokehouse-tomah-2?adjust_creative=QNZpjiWMh-xtTiixb79gYw&utm_campaign=yelp_api_v3&utm_medium=api_v3_business_search&utm_source=QNZpjiWMh-xtTiixb79gYw","92","Barbeque","4.5","43.99865","-90.50679","$$","201 Larkin St"
"N_Ikf5iv09Qw0S1MAhFSag","Donna K's","FALSE","https://www.yelp.com/biz/donna-ks-warrens?adjust_creative=QNZpjiWMh-xtTiixb79gYw&utm_campaign=yelp_api_v3&utm_medium=api_v3_business_search&utm_source=QNZpjiWMh-xtTiixb79gYw","11","Bars | American (Traditional) | Diners","3","44.1234499983082","-90.5360800400376","","3514 Blarney Rd"
"Bpm2E9DOhp8120UddcY55Q","Cranbrew and Eatery","FALSE","https://www.yelp.com/biz/cranbrew-and-eatery-warrens?adjust_creative=QNZpjiWMh-xtTiixb79gYw&utm_campaign=yelp_api_v3&utm_medium=api_v3_business_search&utm_source=QNZpjiWMh-xtTiixb79gYw","4","American (Traditional)","3","44.1304433327747","-90.5314242216738","$$$","701 Yogi Cir"
"Pi-BMpPtND4XWVE_7DuOxw","Three Bears Chop House","FALSE","https://www.yelp.com/biz/three-bears-chop-house-warrens?adjust_creative=QNZpjiWMh-xtTiixb79gYw&utm_campaign=yelp_api_v3&utm_medium=api_v3_business_search&utm_source=QNZpjiWMh-xtTiixb79gYw","2","American (Traditional)","1.5","44.130434","-90.531577","$$","701 Yogi Cir"
"FziWDHCiyaxMPSlu7LyCyQ","Mr P's Bar and Grill","FALSE","https://www.yelp.com/biz/mr-ps-bar-and-grill-tomah?adjust_creative=QNZpjiWMh-xtTiixb79gYw&utm_campaign=yelp_api_v3&utm_medium=api_v3_business_search&utm_source=QNZpjiWMh-xtTiixb79gYw","3","Bars | Sandwiches | American (New)","4.5","44.02041","-90.49226","$","1015 E McCoy Blvd"
"CQbWZEMI4_Ys6rCVywGCtQ","Three Bears Resort","FALSE","https://www.yelp.com/biz/three-bears-resort-warrens?adjust_creative=QNZpjiWMh-xtTiixb79gYw&utm_campaign=yelp_api_v3&utm_medium=api_v3_business_search&utm_source=QNZpjiWMh-xtTiixb79gYw","14","Water Parks | Resorts | Restaurants","3","44.130432","-90.531578","","701 Yogi Ct"
"Rt8_IGFFFKZa-com-1WjaA","Perkins Restaurant & Bakery","FALSE","https://www.yelp.com/biz/perkins-restaurant-and-bakery-tomah-4?adjust_creative=QNZpjiWMh-xtTiixb79gYw&utm_campaign=yelp_api_v3&utm_medium=api_v3_business_search&utm_source=QNZpjiWMh-xtTiixb79gYw","19","American (Traditional) | Bakeries | Breakfast & Brunch","3.5","44.0200395209169","-90.4921531677246","$$","1015 E Mccoy Blvd"
"q75a9vgjoduOVYYnBI7FLA","Don Cinco De Mayo Cantina","FALSE","https://www.yelp.com/biz/don-cinco-de-mayo-cantina-tomah?adjust_creative=QNZpjiWMh-xtTiixb79gYw&utm_campaign=yelp_api_v3&utm_medium=api_v3_business_search&utm_source=QNZpjiWMh-xtTiixb79gYw","21","Mexican | Tex-Mex | Cocktail Bars","3.5","44.0209023960196","-90.4934936208115","$$","918 E McCoy Blvd"
"9mWeXWdlC3OU6gx3LQhEjg","Ground Round","FALSE","https://www.yelp.com/biz/ground-round-tomah?adjust_creative=QNZpjiWMh-xtTiixb79gYw&utm_campaign=yelp_api_v3&utm_medium=api_v3_business_search&utm_source=QNZpjiWMh-xtTiixb79gYw","42","Fast Food","2.5","44.0185356140137","-90.5079574584961","$$","201 Helen Walton Dr"
"6FN-XR2i-WbnSU2lKtyh4w","Gilligan's Pizzeria","FALSE","https://www.yelp.com/biz/gilligans-pizzeria-tomah?adjust_creative=QNZpjiWMh-xtTiixb79gYw&utm_campaign=yelp_api_v3&utm_medium=api_v3_business_search&utm_source=QNZpjiWMh-xtTiixb79gYw","1","Pizza","5","44.018538","-90.507959","","201 Helen Walton Dr"
"O5O_iZwhPyf2_P8PNyn1Lw","Culver's","FALSE","https://www.yelp.com/biz/culvers-tomah?adjust_creative=QNZpjiWMh-xtTiixb79gYw&utm_campaign=yelp_api_v3&utm_medium=api_v3_business_search&utm_source=QNZpjiWMh-xtTiixb79gYw","23","Burgers | Fast Food | Ice Cream & Frozen Yogurt","4","44.01722","-90.5035","$","147 Wittig Rd"
"WKpSYRr2IPOfNSu1mEaa5g","China Buffet","FALSE","https://www.yelp.com/biz/china-buffet-tomah?adjust_creative=QNZpjiWMh-xtTiixb79gYw&utm_campaign=yelp_api_v3&utm_medium=api_v3_business_search&utm_source=QNZpjiWMh-xtTiixb79gYw","17","Chinese | Sushi Bars | Japanese","2.5","44.01752","-90.50613","$","115 W McCoy Blvd"
"rE5HpcMaBQAZdjQzc7ffNg","Denny's","FALSE","https://www.yelp.com/biz/dennys-tomah?adjust_creative=QNZpjiWMh-xtTiixb79gYw&utm_campaign=yelp_api_v3&utm_medium=api_v3_business_search&utm_source=QNZpjiWMh-xtTiixb79gYw","9","Diners | Breakfast & Brunch | American (Traditional)","2.5","44.0192","-90.50207","","310 E Mccoy Blvd"
"nt2yB0qM_F0KIdAVrO_HKw","Kwik Trip Plaza Restaurant","FALSE","https://www.yelp.com/biz/kwik-trip-plaza-restaurant-tomah?adjust_creative=QNZpjiWMh-xtTiixb79gYw&utm_campaign=yelp_api_v3&utm_medium=api_v3_business_search&utm_source=QNZpjiWMh-xtTiixb79gYw","5","American (New) | Breakfast & Brunch | Buffets","3","44.0192","-90.50207","$$","310 E McCoy Blvd"
"6VbRmU9tu1sA7DqRTJiFkA","Pizza Hut","FALSE","https://www.yelp.com/biz/pizza-hut-tomah-2?adjust_creative=QNZpjiWMh-xtTiixb79gYw&utm_campaign=yelp_api_v3&utm_medium=api_v3_business_search&utm_source=QNZpjiWMh-xtTiixb79gYw","9","Pizza | Italian | Chicken Wings","3.5","44.01583","-90.50443","$","1821 N Superior Ave"
"LI6VbjWTQYdSPRSdELE1xA","Long John Silver's","FALSE","https://www.yelp.com/biz/long-john-silvers-tomah?adjust_creative=QNZpjiWMh-xtTiixb79gYw&utm_campaign=yelp_api_v3&utm_medium=api_v3_business_search&utm_source=QNZpjiWMh-xtTiixb79gYw","7","Seafood | Fast Food","2.5","44.0234603881836","-90.5060348510742","$","111 W Andres St"
"NWxMZi3aGr1mitknHKXfyA","Taco Bell","FALSE","https://www.yelp.com/biz/taco-bell-tomah?adjust_creative=QNZpjiWMh-xtTiixb79gYw&utm_campaign=yelp_api_v3&utm_medium=api_v3_business_search&utm_source=QNZpjiWMh-xtTiixb79gYw","9","Mexican | Tex-Mex | Fast Food","3","44.018394","-90.500762","$","205 Wittig Road"
"RIx-sDx-cu1dya3a0kASDg","Arby's","FALSE","https://www.yelp.com/biz/arbys-tomah?adjust_creative=QNZpjiWMh-xtTiixb79gYw&utm_campaign=yelp_api_v3&utm_medium=api_v3_business_search&utm_source=QNZpjiWMh-xtTiixb79gYw","6","Fast Food | Sandwiches","3.5","44.01325","-90.50825","$","226 Buan Ave"
"v1b9B1w1Xq5lwADTE6FedA","Papa Murphy's","FALSE","https://www.yelp.com/biz/papa-murphys-tomah?adjust_creative=QNZpjiWMh-xtTiixb79gYw&utm_campaign=yelp_api_v3&utm_medium=api_v3_business_search&utm_source=QNZpjiWMh-xtTiixb79gYw","1","Pizza","5","44.01635","-90.50449","","1825 North Superior Avenue"
"GB9Qje0o5sQkTKEoo0Sfzg","McDonald's","FALSE","https://www.yelp.com/biz/mcdonalds-tomah?adjust_creative=QNZpjiWMh-xtTiixb79gYw&utm_campaign=yelp_api_v3&utm_medium=api_v3_business_search&utm_source=QNZpjiWMh-xtTiixb79gYw","10","Fast Food | Burgers | Coffee & Tea","2.5","44.0195611845462","-90.5042338371277","$","2015 N Superior Ave"
"EiEVHgnPcJZ8vBnAtjxt4A","Subway","FALSE","https://www.yelp.com/biz/subway-tomah?adjust_creative=QNZpjiWMh-xtTiixb79gYw&utm_campaign=yelp_api_v3&utm_medium=api_v3_business_search&utm_source=QNZpjiWMh-xtTiixb79gYw","4","Sandwiches | Fast Food","3.5","44.020687","-90.508224","","222 W McCoy Blvd"
"7mh0t_EqGvoLlKOLePxQhg","Burger King","FALSE","https://www.yelp.com/biz/burger-king-tomah?adjust_creative=QNZpjiWMh-xtTiixb79gYw&utm_campaign=yelp_api_v3&utm_medium=api_v3_business_search&utm_source=QNZpjiWMh-xtTiixb79gYw","2","Burgers | Fast Food","2","44.0032883","-90.5059814","","111 Julie St"
"X_82YeZY6Z3LEzTAvC_oBA","Subway","FALSE","https://www.yelp.com/biz/subway-tomah-2?adjust_creative=QNZpjiWMh-xtTiixb79gYw&utm_campaign=yelp_api_v3&utm_medium=api_v3_business_search&utm_source=QNZpjiWMh-xtTiixb79gYw","8","Sandwiches | Fast Food","3","44.01708984375","-90.5044174194336","$","1845 N Superior Ave"
"loKg9FwGx1x-CJ2c6vWn8g","KFC","FALSE","https://www.yelp.com/biz/kfc-tomah?adjust_creative=QNZpjiWMh-xtTiixb79gYw&utm_campaign=yelp_api_v3&utm_medium=api_v3_business_search&utm_source=QNZpjiWMh-xtTiixb79gYw","5","Fast Food | Chicken Wings | Chicken Shop","2.5","44.01785","-90.50529","$","US 12 & Hwy 21"
"ZnJuyKDu8juvMIP9kgkc7Q","Smitty's Overtime Inn","FALSE","https://www.yelp.com/biz/smittys-overtime-inn-tomah-2?adjust_creative=QNZpjiWMh-xtTiixb79gYw&utm_campaign=yelp_api_v3&utm_medium=api_v3_business_search&utm_source=QNZpjiWMh-xtTiixb79gYw","17","Bars | American (Traditional) | Pizza","4","44.05457","-90.41241","$$","8293 State Hwy 173"
"QCrciRxqOHd_2azjVqQGiQ","The Break Room Sports Bar & Grill","FALSE","https://www.yelp.com/biz/the-break-room-sports-bar-and-grill-tomah?adjust_creative=QNZpjiWMh-xtTiixb79gYw&utm_campaign=yelp_api_v3&utm_medium=api_v3_business_search&utm_source=QNZpjiWMh-xtTiixb79gYw","33","American (Traditional) | Sports Bars | Breakfast & Brunch","4","43.9759674072266","-90.5051956176758","$$","1123 Superior Ave"
"kDoDl3KLnP9llvG1G7G4Dg","Cancun Bay","FALSE","https://www.yelp.com/biz/cancun-bay-tomah-2?adjust_creative=QNZpjiWMh-xtTiixb79gYw&utm_campaign=yelp_api_v3&utm_medium=api_v3_business_search&utm_source=QNZpjiWMh-xtTiixb79gYw","39","Mexican","4","43.97299","-90.5042859","$$","1422 Superior Ave"
"xO65Q1JOS30I3X9lx-N5tQ","Superior Restaurant","FALSE","https://www.yelp.com/biz/superior-restaurant-tomah?adjust_creative=QNZpjiWMh-xtTiixb79gYw&utm_campaign=yelp_api_v3&utm_medium=api_v3_business_search&utm_source=QNZpjiWMh-xtTiixb79gYw","6","Polish","3.5","43.97531","-90.50426","$","1210 Superior Ave"
"Z2f03udbp58_ODlblWSaDQ","Peking Chinese Restaurant","FALSE","https://www.yelp.com/biz/peking-chinese-restaurant-tomah?adjust_creative=QNZpjiWMh-xtTiixb79gYw&utm_campaign=yelp_api_v3&utm_medium=api_v3_business_search&utm_source=QNZpjiWMh-xtTiixb79gYw","35","Chinese | Seafood","4","43.9772682189941","-90.5051879882812","$$","1013 Superior Ave"
"JwrtgxdkEcFmEUoqbAdw7w","The Greenwood Cafe","FALSE","https://www.yelp.com/biz/the-greenwood-cafe-tomah?adjust_creative=QNZpjiWMh-xtTiixb79gYw&utm_campaign=yelp_api_v3&utm_medium=api_v3_business_search&utm_source=QNZpjiWMh-xtTiixb79gYw","22","Coffee & Tea | Burgers | Sandwiches","3.5","43.9783","-90.50448","$","906 Superior Ave"
"dC7VdiUuoLqH6IZZYPnMZA","Crow Bar","FALSE","https://www.yelp.com/biz/crow-bar-tomah?adjust_creative=QNZpjiWMh-xtTiixb79gYw&utm_campaign=yelp_api_v3&utm_medium=api_v3_business_search&utm_source=QNZpjiWMh-xtTiixb79gYw","2","Bars | Burgers","5","43.97549","-90.50426","$","1206 Superior Ave"
"nhruP_X_IuuNYDG1kSoVZQ","Natural Connection Alternative Health Store & Coffee House","FALSE","https://www.yelp.com/biz/natural-connection-alternative-health-store-and-coffee-house-tomah?adjust_creative=QNZpjiWMh-xtTiixb79gYw&utm_campaign=yelp_api_v3&utm_medium=api_v3_business_search&utm_source=QNZpjiWMh-xtTiixb79gYw","5","Cafes","4.5","43.9772453308105","-90.5047073364258","","1012 Gasoline Aly"
"_0s3eGSfnViYof1udzj31A","Uptown Pizza","FALSE","https://www.yelp.com/biz/uptown-pizza-tomah?adjust_creative=QNZpjiWMh-xtTiixb79gYw&utm_campaign=yelp_api_v3&utm_medium=api_v3_business_search&utm_source=QNZpjiWMh-xtTiixb79gYw","11","Pizza","3.5","43.985444","-90.5043141","$","104 E Washington St"
"IgYvZ--4A3hL0VT3YDaInQ","Pizones","FALSE","https://www.yelp.com/biz/pizones-tomah?adjust_creative=QNZpjiWMh-xtTiixb79gYw&utm_campaign=yelp_api_v3&utm_medium=api_v3_business_search&utm_source=QNZpjiWMh-xtTiixb79gYw","11","Pizza","2.5","43.98514","-90.50422","$","202 Superior Ave"
"J81FI_d0Nh-7EwNgcx37Kw","Carlton Restaurant & Lounge","FALSE","https://www.yelp.com/biz/carlton-restaurant-and-lounge-tomah?adjust_creative=QNZpjiWMh-xtTiixb79gYw&utm_campaign=yelp_api_v3&utm_medium=api_v3_business_search&utm_source=QNZpjiWMh-xtTiixb79gYw","3","Restaurants","3","43.9840584","-90.5048599","$$","309 Superior Ave"
"kjBjHL3yDxzTnjVwP7iEJQ","Quiznos","FALSE","https://www.yelp.com/biz/quiznos-tomah-2?adjust_creative=QNZpjiWMh-xtTiixb79gYw&utm_campaign=yelp_api_v3&utm_medium=api_v3_business_search&utm_source=QNZpjiWMh-xtTiixb79gYw","3","Fast Food | Sandwiches","3.5","43.972286","-90.492371","","1030 E CLifton St"
"yAbcjcQ2K6gBSyHitEGv0g","Kwik Trip South","FALSE","https://www.yelp.com/biz/kwik-trip-south-tomah-3?adjust_creative=QNZpjiWMh-xtTiixb79gYw&utm_campaign=yelp_api_v3&utm_medium=api_v3_business_search&utm_source=QNZpjiWMh-xtTiixb79gYw","1","Coffee & Tea | American (New) | Convenience Stores","1","43.9723777770996","-90.5043563842773","","1504 Superior Ave"
"Az0ERbV2nCxdezdRvrwMrw","Casey's General Store 1933","FALSE","https://www.yelp.com/biz/caseys-general-store-1933-tomah?adjust_creative=QNZpjiWMh-xtTiixb79gYw&utm_campaign=yelp_api_v3&utm_medium=api_v3_business_search&utm_source=QNZpjiWMh-xtTiixb79gYw","2","Convenience Stores | Pizza","1.5","43.9908","-90.50422","","313 N Superior Ave"
"7NHtfDKHEZU5pbBTVeTRgQ","Laughing Larry's Lunch Room","FALSE","https://www.yelp.com/biz/laughing-larrys-lunch-room-tomah?adjust_creative=QNZpjiWMh-xtTiixb79gYw&utm_campaign=yelp_api_v3&utm_medium=api_v3_business_search&utm_source=QNZpjiWMh-xtTiixb79gYw","47","American (Traditional) | Breakfast & Brunch","4.5","43.9641171","-90.3771861","$","111 W Woody Dr"
"wVWIWO4t4irXiU7hsr0fJg","Einstein's Bar","FALSE","https://www.yelp.com/biz/einsteins-bar-tomah?adjust_creative=QNZpjiWMh-xtTiixb79gYw&utm_campaign=yelp_api_v3&utm_medium=api_v3_business_search&utm_source=QNZpjiWMh-xtTiixb79gYw","1","Bars | American (Traditional)","5","43.959400177002","-90.3803253173828","","108 E Badger Dr"
"43WSOZ00q-wspR_oza0Ucw","Hardees","FALSE","https://www.yelp.com/biz/hardees-tomah?adjust_creative=QNZpjiWMh-xtTiixb79gYw&utm_campaign=yelp_api_v3&utm_medium=api_v3_business_search&utm_source=QNZpjiWMh-xtTiixb79gYw","5","Burgers","3","43.9611282","-90.3783264","$","220 N Oakwood St"
"KKXm5UxAVGakknP-seeZ5w","The Cotter Pin","FALSE","https://www.yelp.com/biz/the-cotter-pin-sparta?adjust_creative=QNZpjiWMh-xtTiixb79gYw&utm_campaign=yelp_api_v3&utm_medium=api_v3_business_search&utm_source=QNZpjiWMh-xtTiixb79gYw","1","Gift Shops | Bars | Pizza","5","43.875229","-90.8302459716797","$$","20671 State Hwy 27"
"QivdWvlP3IMHOB0Tj7bccg","Badger Crossing Pub & Eatery","FALSE","https://www.yelp.com/biz/badger-crossing-pub-and-eatery-cashton?adjust_creative=QNZpjiWMh-xtTiixb79gYw&utm_campaign=yelp_api_v3&utm_medium=api_v3_business_search&utm_source=QNZpjiWMh-xtTiixb79gYw","16","American (Traditional)","4.5","43.74404","-90.77821","$$","909 Front St"
"7A-H7fLo-Hk9wEE28q9kng","Bobby John's","FALSE","https://www.yelp.com/biz/bobby-johns-cashton?adjust_creative=QNZpjiWMh-xtTiixb79gYw&utm_campaign=yelp_api_v3&utm_medium=api_v3_business_search&utm_source=QNZpjiWMh-xtTiixb79gYw","2","Breakfast & Brunch | Pizza | Beer Bar","4","43.744238","-90.778199","$","913 Front St"
"zH9eggeZsiG4g279lvn6ww","Hitchin' Post Sports Bar & Grill","FALSE","https://www.yelp.com/biz/hitchin-post-sports-bar-and-grill-wilton?adjust_creative=QNZpjiWMh-xtTiixb79gYw&utm_campaign=yelp_api_v3&utm_medium=api_v3_business_search&utm_source=QNZpjiWMh-xtTiixb79gYw","5","Sports Bars | American (Traditional)","4","43.813366","-90.527733","","412 Main St"
"Km3hHgdJvJNYmQ0Zy56AKg","Long Shot Saloon","FALSE","https://www.yelp.com/biz/long-shot-saloon-norwalk?adjust_creative=QNZpjiWMh-xtTiixb79gYw&utm_campaign=yelp_api_v3&utm_medium=api_v3_business_search&utm_source=QNZpjiWMh-xtTiixb79gYw","2","Bars | American (Traditional)","5","43.8317","-90.62182","","201 Main St"
"Mfu2dU4nVUs7PWK5eF02UA","Lesa T's Creekside Cafe","FALSE","https://www.yelp.com/biz/lesa-ts-creekside-cafe-norwalk-2?adjust_creative=QNZpjiWMh-xtTiixb79gYw&utm_campaign=yelp_api_v3&utm_medium=api_v3_business_search&utm_source=QNZpjiWMh-xtTiixb79gYw","1","Cafes","3","43.832662","-90.6213006","","104 Railroad St"
"1ERNubMSdSAzxuOQYEaYyw","Riley's Bar & Grill","FALSE","https://www.yelp.com/biz/rileys-bar-and-grill-wilton?adjust_creative=QNZpjiWMh-xtTiixb79gYw&utm_campaign=yelp_api_v3&utm_medium=api_v3_business_search&utm_source=QNZpjiWMh-xtTiixb79gYw","1","American (New)","3","43.814238","-90.527779","","504 Main St"
"KbjUV8ehVd9xi8XmQEiD6Q","Rotten Brothers Pub & Grill","FALSE","https://www.yelp.com/biz/rotten-brothers-pub-and-grill-camp-douglas?adjust_creative=QNZpjiWMh-xtTiixb79gYw&utm_campaign=yelp_api_v3&utm_medium=api_v3_business_search&utm_source=QNZpjiWMh-xtTiixb79gYw","5","Pubs | American (Traditional)","4.5","43.878212","-90.356576","$$","20704 Cty Rd N"
"fS4uqVZu42DQZelqTD2UbA","Dorset Valley School Restaurant","FALSE","https://www.yelp.com/biz/dorset-valley-school-restaurant-wilton?adjust_creative=QNZpjiWMh-xtTiixb79gYw&utm_campaign=yelp_api_v3&utm_medium=api_v3_business_search&utm_source=QNZpjiWMh-xtTiixb79gYw","9","American (Traditional)","4.5","43.83149","-90.46842","","26147 WI-71"
"V90Rv6up8n0VIsa2jxXGWQ","Rivers End Bar & Grill","FALSE","https://www.yelp.com/biz/rivers-end-bar-and-grill-ontario?adjust_creative=QNZpjiWMh-xtTiixb79gYw&utm_campaign=yelp_api_v3&utm_medium=api_v3_business_search&utm_source=QNZpjiWMh-xtTiixb79gYw","4","Bars | American (Traditional)","3","43.723983","-90.590847","$","30 Water St S"
"TAcBCRKpyk0mSu-7NfCIcw","Wild Cat Mountain Bar & Grill","FALSE","https://www.yelp.com/biz/wild-cat-mountain-bar-and-grill-ontario?adjust_creative=QNZpjiWMh-xtTiixb79gYw&utm_campaign=yelp_api_v3&utm_medium=api_v3_business_search&utm_source=QNZpjiWMh-xtTiixb79gYw","1","Restaurants","5","43.72373","-90.58969","","202 Main St"
"YQUfh96rZGor7v6u9QoLWw","The Milk Jug Cafe","FALSE","https://www.yelp.com/biz/the-milk-jug-cafe-ontario?adjust_creative=QNZpjiWMh-xtTiixb79gYw&utm_campaign=yelp_api_v3&utm_medium=api_v3_business_search&utm_source=QNZpjiWMh-xtTiixb79gYw","2","Cafes | Breakfast & Brunch","2.5","43.722825","-90.591687","","103 South Garden St"
"rGr8Xf2gQQU5Pq-JGEB2hg","Kickapoo Paddle Inn","FALSE","https://www.yelp.com/biz/kickapoo-paddle-inn-ontario?adjust_creative=QNZpjiWMh-xtTiixb79gYw&utm_campaign=yelp_api_v3&utm_medium=api_v3_business_search&utm_source=QNZpjiWMh-xtTiixb79gYw","1","Restaurants","4","43.7219573601399","-90.5907702818513","","101 W S"
"Bh4t9bWRYpjfdoaCW8rbMw","Hillsboro Brewing","FALSE","https://www.yelp.com/biz/hillsboro-brewing-hillsboro-2?adjust_creative=QNZpjiWMh-xtTiixb79gYw&utm_campaign=yelp_api_v3&utm_medium=api_v3_business_search&utm_source=QNZpjiWMh-xtTiixb79gYw","15","Pizza | American (Traditional) | Beer Bar","4.5","43.6509743571755","-90.3398472190377","$$","815 Water Ave"
"zWiN9dcdopkiXfxBRFNwHQ","Barbie's Kitchen LLC","FALSE","https://www.yelp.com/biz/barbies-kitchen-llc-hillsboro?adjust_creative=QNZpjiWMh-xtTiixb79gYw&utm_campaign=yelp_api_v3&utm_medium=api_v3_business_search&utm_source=QNZpjiWMh-xtTiixb79gYw","1","American (Traditional) | Breakfast & Brunch","5","43.6507797241211","-90.3391952514648","$","824 Water Ave"
"PZiX_Wl2q999CvdWTcvaDg","Beezers Bar & Grill","FALSE","https://www.yelp.com/biz/beezers-bar-and-grill-hillsboro?adjust_creative=QNZpjiWMh-xtTiixb79gYw&utm_campaign=yelp_api_v3&utm_medium=api_v3_business_search&utm_source=QNZpjiWMh-xtTiixb79gYw","11","American (New) | Bars","3.5","43.655361","-90.336082","$$","1235 Water Ave"
"EO-bgzGkJlWd-w1zBGQy3g","Hillsboro Drive-In","FALSE","https://www.yelp.com/biz/hillsboro-drive-in-hillsboro?adjust_creative=QNZpjiWMh-xtTiixb79gYw&utm_campaign=yelp_api_v3&utm_medium=api_v3_business_search&utm_source=QNZpjiWMh-xtTiixb79gYw","2","Restaurants","5","43.6511734127998","-90.3476075828075","$","515 Vernon Ave"
