"ID","Name","Is_Closed","URL","Review_Count","Categories","Rating","Latitude","Longitude","Price","Address"
"ncq9J7fRNWa5JemToWq1VQ","Cafe 213","FALSE","https://www.yelp.com/biz/cafe-213-waterford?adjust_creative=QNZpjiWMh-xtTiixb79gYw&utm_campaign=yelp_api_v3&utm_medium=api_v3_business_search&utm_source=QNZpjiWMh-xtTiixb79gYw","45","Cafes","4.5","42.7628479152918","-88.2125397026539","$$","213 E Main St"
"iOcOBbCzPskOrQ0wJFuXmg","Doc's On The Fox","FALSE","https://www.yelp.com/biz/docs-on-the-fox-waterford-2?adjust_creative=QNZpjiWMh-xtTiixb79gYw&utm_campaign=yelp_api_v3&utm_medium=api_v3_business_search&utm_source=QNZpjiWMh-xtTiixb79gYw","53","Bars | American (New)","4","42.7673433","-88.208979","$$","232 N Milwaukee St"
"_WAkuzv1CwI8aT4j1U-RdQ","Crossover Cantina & Eatery","FALSE","https://www.yelp.com/biz/crossover-cantina-and-eatery-waterford?adjust_creative=QNZpjiWMh-xtTiixb79gYw&utm_campaign=yelp_api_v3&utm_medium=api_v3_business_search&utm_source=QNZpjiWMh-xtTiixb79gYw","23","Mexican","4","42.777574","-88.190461","$$","28023 Kramer Rd"
"3YUwI-wAedks1P8QjUN1AA","Sam's Diner","FALSE","https://www.yelp.com/biz/sams-diner-waterford-north?adjust_creative=QNZpjiWMh-xtTiixb79gYw&utm_campaign=yelp_api_v3&utm_medium=api_v3_business_search&utm_source=QNZpjiWMh-xtTiixb79gYw","36","Diners","4.5","42.8289649","-88.1991043","$","28432 N Lake Dr"
"y4VoU33ec4nIiHEKj1-h0g","Thai-Italina Restaurant","FALSE","https://www.yelp.com/biz/thai-italina-restaurant-waterford?adjust_creative=QNZpjiWMh-xtTiixb79gYw&utm_campaign=yelp_api_v3&utm_medium=api_v3_business_search&utm_source=QNZpjiWMh-xtTiixb79gYw","36","Thai | Italian","4.5","42.7630249","-88.2121171","$$","220 E Main St"
"-uDIBbiyLqpMtCyt-vpB9w","The Roadhouse at KBII","FALSE","https://www.yelp.com/biz/the-roadhouse-at-kbii-waterford-2?adjust_creative=QNZpjiWMh-xtTiixb79gYw&utm_campaign=yelp_api_v3&utm_medium=api_v3_business_search&utm_source=QNZpjiWMh-xtTiixb79gYw","8","Sports Bars | American (Traditional) | Breakfast & Brunch","3.5","42.825747","-88.1593369","$$","7805 S Loomis Rd"
"mCCo5nUn1QjbV4TuW2DCjA","Cotton Exchange","FALSE","https://www.yelp.com/biz/cotton-exchange-waterford?adjust_creative=QNZpjiWMh-xtTiixb79gYw&utm_campaign=yelp_api_v3&utm_medium=api_v3_business_search&utm_source=QNZpjiWMh-xtTiixb79gYw","38","American (Traditional) | Venues & Event Spaces","3.5","42.77133","-88.23535","$$","345 Hickory Hollow Rd"
"_Ovdp2AiRUqrlhedCUDnOA","The Cruise","FALSE","https://www.yelp.com/biz/the-cruise-waterford?adjust_creative=QNZpjiWMh-xtTiixb79gYw&utm_campaign=yelp_api_v3&utm_medium=api_v3_business_search&utm_source=QNZpjiWMh-xtTiixb79gYw","63","Pizza | Bars | American (New)","4.5","42.828527","-88.207641","$$","28747 N Lake Dr"
"VACq3qLhSKyxqBwyKZd-kA","Pops' Pizzeria","FALSE","https://www.yelp.com/biz/pops-pizzeria-waterford?adjust_creative=QNZpjiWMh-xtTiixb79gYw&utm_campaign=yelp_api_v3&utm_medium=api_v3_business_search&utm_source=QNZpjiWMh-xtTiixb79gYw","2","Pizza","3","42.7746082552971","-88.1977412528877","","790 Cornerstone Crossing"
"ekHoHmISoQzO7TMNmLk19A","Bass Bay Brewhouse","FALSE","https://www.yelp.com/biz/bass-bay-brewhouse-muskego?adjust_creative=QNZpjiWMh-xtTiixb79gYw&utm_campaign=yelp_api_v3&utm_medium=api_v3_business_search&utm_source=QNZpjiWMh-xtTiixb79gYw","106","Breakfast & Brunch | American (Traditional) | Beer Gardens","4","42.9004268874284","-88.1129380601816","$$","S79W15851 Aud Mar Dr"
"LiLfSKfGgWlHGEPKzFo7Gg","Chances","FALSE","https://www.yelp.com/biz/chances-rochester?adjust_creative=QNZpjiWMh-xtTiixb79gYw&utm_campaign=yelp_api_v3&utm_medium=api_v3_business_search&utm_source=QNZpjiWMh-xtTiixb79gYw","29","American (Traditional) | Bars","4","42.7408752441406","-88.2259902954102","$$","205 W Main St"
"4m5l3DkU3mqnssmdch79cw","Michael's On The Lake","FALSE","https://www.yelp.com/biz/michaels-on-the-lake-kansasville?adjust_creative=QNZpjiWMh-xtTiixb79gYw&utm_campaign=yelp_api_v3&utm_medium=api_v3_business_search&utm_source=QNZpjiWMh-xtTiixb79gYw","59","American (Traditional) | Seafood | Bars","3.5","42.69583","-88.12441","$$","3101 Eagle Rd"
"rDaUt8Iy0O-pGS-vr1YKZA","The Dover Inn","FALSE","https://www.yelp.com/biz/the-dover-inn-kansasville?adjust_creative=QNZpjiWMh-xtTiixb79gYw&utm_campaign=yelp_api_v3&utm_medium=api_v3_business_search&utm_source=QNZpjiWMh-xtTiixb79gYw","22","Burgers | Beer Bar | Sandwiches","3.5","42.74121","-88.1101","$$","1909 N Beaumont Ave"
"jhYGpS_-gOd7MdePkQYGtQ","Papa Stache","FALSE","https://www.yelp.com/biz/papa-stache-big-bend?adjust_creative=QNZpjiWMh-xtTiixb79gYw&utm_campaign=yelp_api_v3&utm_medium=api_v3_business_search&utm_source=QNZpjiWMh-xtTiixb79gYw","13","Pubs | American (Traditional)","4","42.876159","-88.204055","$$","W228S9300 Big Bend Dr"
"odMRQru1bS9d4OBWYrqFig","The Suburban Bourbon","FALSE","https://www.yelp.com/biz/the-suburban-bourbon-muskego?adjust_creative=QNZpjiWMh-xtTiixb79gYw&utm_campaign=yelp_api_v3&utm_medium=api_v3_business_search&utm_source=QNZpjiWMh-xtTiixb79gYw","43","American (New)","4","42.9062917","-88.1360257","$$","S76W17745 Janesville Rd"
"Je1BEOLdVQ-SDHsnccCA-w","El Mezcal","FALSE","https://www.yelp.com/biz/el-mezcal-waterford?adjust_creative=QNZpjiWMh-xtTiixb79gYw&utm_campaign=yelp_api_v3&utm_medium=api_v3_business_search&utm_source=QNZpjiWMh-xtTiixb79gYw","13","Mexican","3","42.7740020751953","-88.1980895996094","$$","790 Cornerstone Crossing"
"gKy1otQrJqKxygqN4ArPFw","Gary's Wind Lake Boathouse","FALSE","https://www.yelp.com/biz/garys-wind-lake-boathouse-wind-lake-2?adjust_creative=QNZpjiWMh-xtTiixb79gYw&utm_campaign=yelp_api_v3&utm_medium=api_v3_business_search&utm_source=QNZpjiWMh-xtTiixb79gYw","13","Pizza | Diners | Sports Bars","3","42.8300476074219","-88.1458587646484","$$","25716 W Loomis Rd"
"psnYe59dIilTEbDXdjBqOA","Bruno's Restaurant","FALSE","https://www.yelp.com/biz/brunos-restaurant-waterford?adjust_creative=QNZpjiWMh-xtTiixb79gYw&utm_campaign=yelp_api_v3&utm_medium=api_v3_business_search&utm_source=QNZpjiWMh-xtTiixb79gYw","13","Seafood | Burgers | Chicken Wings","3.5","42.77293","-88.19851","$$","730 Cornerstone Crossing"
"MKoYN9-az6D2Oy5c0qy-Cw","Sol De Mexico II","FALSE","https://www.yelp.com/biz/sol-de-mexico-ii-waterford?adjust_creative=QNZpjiWMh-xtTiixb79gYw&utm_campaign=yelp_api_v3&utm_medium=api_v3_business_search&utm_source=QNZpjiWMh-xtTiixb79gYw","12","Mexican","4","42.82865","-88.15517","$$","7957 W Wind Lake Rd"
"UZtZRFMDdyjF3hqrr4X3NA","Martys Restaurant and Fiesta Hall","FALSE","https://www.yelp.com/biz/martys-restaurant-and-fiesta-hall-waterford?adjust_creative=QNZpjiWMh-xtTiixb79gYw&utm_campaign=yelp_api_v3&utm_medium=api_v3_business_search&utm_source=QNZpjiWMh-xtTiixb79gYw","16","Breakfast & Brunch | Mexican","3.5","42.76302","-88.21451","$$","201 W Main St"
"RrEwCQpLGKgevON1EuEWwg","B-Lazy Diner","FALSE","https://www.yelp.com/biz/b-lazy-diner-waterford?adjust_creative=QNZpjiWMh-xtTiixb79gYw&utm_campaign=yelp_api_v3&utm_medium=api_v3_business_search&utm_source=QNZpjiWMh-xtTiixb79gYw","6","Diners","3","42.82781","-88.16002","$","7910 S Loomis Rd"
"8pP4-y2B0x4BX3HbSlsgfg","Chubby's Cafe","FALSE","https://www.yelp.com/biz/chubbys-cafe-big-bend?adjust_creative=QNZpjiWMh-xtTiixb79gYw&utm_campaign=yelp_api_v3&utm_medium=api_v3_business_search&utm_source=QNZpjiWMh-xtTiixb79gYw","1","Cafes","5","42.8799895445074","-88.2058495930568","","S91W22985 Milwaukee Ave"
"lKxew03SxfKr-FsO9foG9Q","Java Jo'z","FALSE","https://www.yelp.com/biz/java-joz-waterford?adjust_creative=QNZpjiWMh-xtTiixb79gYw&utm_campaign=yelp_api_v3&utm_medium=api_v3_business_search&utm_source=QNZpjiWMh-xtTiixb79gYw","12","Coffee & Tea | American (Traditional)","4","42.755811","-88.207893","$$","29134 Evergreen Dr"
"zWlCxhVHxT4UugV0QsvU1g","JJ's On The Hill Pub & Eatery","FALSE","https://www.yelp.com/biz/jjs-on-the-hill-pub-and-eatery-waterford?adjust_creative=QNZpjiWMh-xtTiixb79gYw&utm_campaign=yelp_api_v3&utm_medium=api_v3_business_search&utm_source=QNZpjiWMh-xtTiixb79gYw","1","Pubs | American (Traditional)","5","42.8117086715983","-88.2171051576734","","6812 N Tichigan Rd"
"GJDryBMaDywsi1r-dgB6_A","The Dirty Hoe Saloon","FALSE","https://www.yelp.com/biz/the-dirty-hoe-saloon-kansasville?adjust_creative=QNZpjiWMh-xtTiixb79gYw&utm_campaign=yelp_api_v3&utm_medium=api_v3_business_search&utm_source=QNZpjiWMh-xtTiixb79gYw","3","Burgers | Barbeque","4.5","42.6752899","-88.16944","$$","4614 Sheard Rd"
"sCr-LNBUXCN1qhCsBh-Mpw","Chopsticks","FALSE","https://www.yelp.com/biz/chopsticks-waterford?adjust_creative=QNZpjiWMh-xtTiixb79gYw&utm_campaign=yelp_api_v3&utm_medium=api_v3_business_search&utm_source=QNZpjiWMh-xtTiixb79gYw","10","Chinese","3","42.766841","-88.1982672","$","812 Fox Ln"
"OVe0dUY4qIDHlPND-NPm0w","Pack N Brew","FALSE","https://www.yelp.com/biz/pack-n-brew-muskego?adjust_creative=QNZpjiWMh-xtTiixb79gYw&utm_campaign=yelp_api_v3&utm_medium=api_v3_business_search&utm_source=QNZpjiWMh-xtTiixb79gYw","10","Bars | American (Traditional)","5","42.901878","-88.118902","$$","S78 W16355 Woods Rd"
"7pus60NFaptoLRHnIFWeng","Blue Heron","FALSE","https://www.yelp.com/biz/blue-heron-big-bend?adjust_creative=QNZpjiWMh-xtTiixb79gYw&utm_campaign=yelp_api_v3&utm_medium=api_v3_business_search&utm_source=QNZpjiWMh-xtTiixb79gYw","18","American (New)","3","42.8779451452445","-88.2170256137695","$$","W229S8300 Big Bend Dr"
"uY4l7B9qk6IrT0Qt5arj5Q","The Waterfront on Brown's Lake","FALSE","https://www.yelp.com/biz/the-waterfront-on-browns-lake-burlington?adjust_creative=QNZpjiWMh-xtTiixb79gYw&utm_campaign=yelp_api_v3&utm_medium=api_v3_business_search&utm_source=QNZpjiWMh-xtTiixb79gYw","36","Pizza | Sandwiches | American (Traditional)","3.5","42.6808052062988","-88.2486343383789","$$","31100 Weiler Rd"
"-eGQlzNSbrXYqffMRWqGSw","Dead Mann's Saloon","FALSE","https://www.yelp.com/biz/dead-manns-saloon-kansasville?adjust_creative=QNZpjiWMh-xtTiixb79gYw&utm_campaign=yelp_api_v3&utm_medium=api_v3_business_search&utm_source=QNZpjiWMh-xtTiixb79gYw","4","Bars | American (Traditional)","4","42.69151","-88.11121","$","3518 S Beaumont Ave"
"egkOgR8z9YTfzPRzzNoEYw","Marx's Pioneer Inn","FALSE","https://www.yelp.com/biz/marxs-pioneer-inn-muskego?adjust_creative=QNZpjiWMh-xtTiixb79gYw&utm_campaign=yelp_api_v3&utm_medium=api_v3_business_search&utm_source=QNZpjiWMh-xtTiixb79gYw","11","American (New)","4","42.903229","-88.139442","$$","W180S7808 Pioneer Dr"
"ybjj9cnpNX9NRbbveGkJGw","Mickey's Family Grill","FALSE","https://www.yelp.com/biz/mickeys-family-grill-muskego?adjust_creative=QNZpjiWMh-xtTiixb79gYw&utm_campaign=yelp_api_v3&utm_medium=api_v3_business_search&utm_source=QNZpjiWMh-xtTiixb79gYw","14","Diners","4","42.9073588255024","-88.1306556239931","$$$","S75 W17351 Janesville Rd"
"2a2IggIM_4zdQP1F0TSlbQ","Millgate General Store","FALSE","https://www.yelp.com/biz/millgate-general-store-burlington?adjust_creative=QNZpjiWMh-xtTiixb79gYw&utm_campaign=yelp_api_v3&utm_medium=api_v3_business_search&utm_source=QNZpjiWMh-xtTiixb79gYw","1","Convenience Stores | Delis","1","42.7406915022365","-88.2175701747147","","151 Millgate Dr"
"YRz99AMbdwE1PYk3A295Ug","Club Shamrock","FALSE","https://www.yelp.com/biz/club-shamrock-big-bend?adjust_creative=QNZpjiWMh-xtTiixb79gYw&utm_campaign=yelp_api_v3&utm_medium=api_v3_business_search&utm_source=QNZpjiWMh-xtTiixb79gYw","4","American (Traditional)","3.5","42.88553","-88.20919","","W230S8745 Clark St"
"vU-gq1rtslRAFr6LCHD6iw","Romas 2","FALSE","https://www.yelp.com/biz/romas-2-waterford?adjust_creative=QNZpjiWMh-xtTiixb79gYw&utm_campaign=yelp_api_v3&utm_medium=api_v3_business_search&utm_source=QNZpjiWMh-xtTiixb79gYw","4","Italian | Pizza | Sandwiches","2.5","42.7746487990055","-88.1979179754853","","790 Cornerstone Xing"
"vjiOp_2pt4CBay01ClhiGA","The Country Squire Supper Club","FALSE","https://www.yelp.com/biz/the-country-squire-supper-club-muskego?adjust_creative=QNZpjiWMh-xtTiixb79gYw&utm_campaign=yelp_api_v3&utm_medium=api_v3_business_search&utm_source=QNZpjiWMh-xtTiixb79gYw","15","Breakfast & Brunch | American (Traditional)","3.5","42.8899","-88.1277","$$","S72 W 16373 Janesville Rd"
"SL2mx1RtV4iUWZiwlnHgrA","TJ's Roundabout","FALSE","https://www.yelp.com/biz/tjs-roundabout-muskego?adjust_creative=QNZpjiWMh-xtTiixb79gYw&utm_campaign=yelp_api_v3&utm_medium=api_v3_business_search&utm_source=QNZpjiWMh-xtTiixb79gYw","1","Pubs | American (Traditional)","1","42.857902","-88.158569","$$","S102 W 19570 Kelsey Dr"
"74VGshs0MSpy7HAgTT-g9g","Chupster's Restaurant","FALSE","https://www.yelp.com/biz/chupsters-restaurant-waterford?adjust_creative=QNZpjiWMh-xtTiixb79gYw&utm_campaign=yelp_api_v3&utm_medium=api_v3_business_search&utm_source=QNZpjiWMh-xtTiixb79gYw","2","Restaurants","3.5","42.827803","-88.160015","$","7910 S Loomis Rd"
"M3oDm09j-D3Q8JGboFxhDA","Taco Bell","FALSE","https://www.yelp.com/biz/taco-bell-milwaukee-27?adjust_creative=QNZpjiWMh-xtTiixb79gYw&utm_campaign=yelp_api_v3&utm_medium=api_v3_business_search&utm_source=QNZpjiWMh-xtTiixb79gYw","1","Mexican | Fast Food","3","43.0607447773218","-87.983465641737","","5630 W N Ave"
"PFzuiKavd4SUKDT26rWOyw","Burger King","FALSE","https://www.yelp.com/biz/burger-king-waterford-2?adjust_creative=QNZpjiWMh-xtTiixb79gYw&utm_campaign=yelp_api_v3&utm_medium=api_v3_business_search&utm_source=QNZpjiWMh-xtTiixb79gYw","5","Burgers","2.5","42.75407","-88.20813","","2723 Beck Dr"
"U1ObypwdOASGThUaKvPKmg","1175 Sports Park & Eatery","FALSE","https://www.yelp.com/biz/1175-sports-park-and-eatery-kansasville?adjust_creative=QNZpjiWMh-xtTiixb79gYw&utm_campaign=yelp_api_v3&utm_medium=api_v3_business_search&utm_source=QNZpjiWMh-xtTiixb79gYw","7","Sports Bars | Burgers | Sandwiches","3.5","42.68918","-88.10862","","22840 Durand Ave"
"eRFnKGFoaRt_tnMP1k-iGw","Figaro's Pizza","FALSE","https://www.yelp.com/biz/figaros-pizza-waterford?adjust_creative=QNZpjiWMh-xtTiixb79gYw&utm_campaign=yelp_api_v3&utm_medium=api_v3_business_search&utm_source=QNZpjiWMh-xtTiixb79gYw","6","Pizza | Italian","3","42.7675","-88.20705","$$","315 N Milwaukee St"
"RjSYWVXpGqsm7DbTkGWlvg","Dover Inn","FALSE","https://www.yelp.com/biz/dover-inn-kansasville?adjust_creative=QNZpjiWMh-xtTiixb79gYw&utm_campaign=yelp_api_v3&utm_medium=api_v3_business_search&utm_source=QNZpjiWMh-xtTiixb79gYw","2","American (New)","1.5","42.68444","-88.11086","","4110 S Beaumont Ave"
"5dn0iniJxWISR-BPRssWFg","Niko's Cafe and Bar","FALSE","https://www.yelp.com/biz/nikos-cafe-and-bar-muskego-2?adjust_creative=QNZpjiWMh-xtTiixb79gYw&utm_campaign=yelp_api_v3&utm_medium=api_v3_business_search&utm_source=QNZpjiWMh-xtTiixb79gYw","22","Comfort Food","3.5","42.9081335229356","-88.1312068177495","$$","S75 W17358 Janesville Rd"
"aRhx_pBtlE6LlGmjZ8K4rg","Danny Haskell's Pub","FALSE","https://www.yelp.com/biz/danny-haskells-pub-muskego?adjust_creative=QNZpjiWMh-xtTiixb79gYw&utm_campaign=yelp_api_v3&utm_medium=api_v3_business_search&utm_source=QNZpjiWMh-xtTiixb79gYw","8","American (Traditional) | Pubs | Burgers","4.5","42.910738","-88.129678","$","W171S7260 Lannon Dr"
"T3iG4hherSWeOOHJQ8OLFg","McDonald's","FALSE","https://www.yelp.com/biz/mcdonalds-waterford-north?adjust_creative=QNZpjiWMh-xtTiixb79gYw&utm_campaign=yelp_api_v3&utm_medium=api_v3_business_search&utm_source=QNZpjiWMh-xtTiixb79gYw","11","Fast Food | Burgers | Coffee & Tea","2.5","42.76621","-88.19823","$","815A Fox Ln"
"NaVFiW3bQ8HKTCPSNTMhpw","Tres Locos","FALSE","https://www.yelp.com/biz/tres-locos-muskego-5?adjust_creative=QNZpjiWMh-xtTiixb79gYw&utm_campaign=yelp_api_v3&utm_medium=api_v3_business_search&utm_source=QNZpjiWMh-xtTiixb79gYw","49","Beer, Wine & Spirits | Gluten-Free | Mexican","3.5","42.90885","-88.12993","$$","W172S7505 Lannon Dr"
"VoZ_i-7f50j4bZ06jxFXKw","Alpine Lanes and Avalanche Grill","FALSE","https://www.yelp.com/biz/alpine-lanes-and-avalanche-grill-muskego?adjust_creative=QNZpjiWMh-xtTiixb79gYw&utm_campaign=yelp_api_v3&utm_medium=api_v3_business_search&utm_source=QNZpjiWMh-xtTiixb79gYw","28","Pizza | Bowling | Venues & Event Spaces","4.5","42.899265","-88.148254","$$","S80 W18700 Apollo Dr"
"1dDc8oH3SYtLciDy2ReUhQ","Crossroads Pizza & Sub Shoppe","FALSE","https://www.yelp.com/biz/crossroads-pizza-and-sub-shoppe-big-bend?adjust_creative=QNZpjiWMh-xtTiixb79gYw&utm_campaign=yelp_api_v3&utm_medium=api_v3_business_search&utm_source=QNZpjiWMh-xtTiixb79gYw","4","Pizza","4","42.8865735475729","-88.2087886298842","","W229S8680 Big Bend Dr"
"Pl5nHrWbPPClYcnEpKGyNQ","King's Wok","FALSE","https://www.yelp.com/biz/kings-wok-muskego?adjust_creative=QNZpjiWMh-xtTiixb79gYw&utm_campaign=yelp_api_v3&utm_medium=api_v3_business_search&utm_source=QNZpjiWMh-xtTiixb79gYw","8","Chinese","4","42.8898","-88.143368","$","W189S7831 Racine Ave"
"x8yBTFyC0iHssLjNo1z9cg","Cousins Subs","FALSE","https://www.yelp.com/biz/cousins-subs-waterford-2?adjust_creative=QNZpjiWMh-xtTiixb79gYw&utm_campaign=yelp_api_v3&utm_medium=api_v3_business_search&utm_source=QNZpjiWMh-xtTiixb79gYw","4","Sandwiches | Delis","2.5","42.7675205805817","-88.2072147595274","$","315 N Milwaukee St"
"vbxHMM3Dir7KHzkat6OizA","Iago's Burrito Heaven","FALSE","https://www.yelp.com/biz/iagos-burrito-heaven-waterford?adjust_creative=QNZpjiWMh-xtTiixb79gYw&utm_campaign=yelp_api_v3&utm_medium=api_v3_business_search&utm_source=QNZpjiWMh-xtTiixb79gYw","1","Mexican","1","42.7667726576328","-88.1982032954693","","816 Fox Ln"
"yOk3mEmcuWsUMceH1gSacQ","Cottonwood Trailer Pie","FALSE","https://www.yelp.com/biz/cottonwood-trailer-pie-milwaukee?adjust_creative=QNZpjiWMh-xtTiixb79gYw&utm_campaign=yelp_api_v3&utm_medium=api_v3_business_search&utm_source=QNZpjiWMh-xtTiixb79gYw","2","Pizza | Food Trucks","5","43.0675048828125","-87.8844299316406","",""
"xtJl0VEG79hwNocAwSu4MA","Country Rose Bakery & Cafe","FALSE","https://www.yelp.com/biz/country-rose-bakery-and-cafe-union-grove-4?adjust_creative=QNZpjiWMh-xtTiixb79gYw&utm_campaign=yelp_api_v3&utm_medium=api_v3_business_search&utm_source=QNZpjiWMh-xtTiixb79gYw","22","Bakeries | Custom Cakes | Cafes","4","42.741434","-88.052772","$","19319 Washington Ave"
"EjvtbfyoiPmlU1WLWEZcQQ","Aj's Bar & Grill","FALSE","https://www.yelp.com/biz/ajs-bar-and-grill-muskego?adjust_creative=QNZpjiWMh-xtTiixb79gYw&utm_campaign=yelp_api_v3&utm_medium=api_v3_business_search&utm_source=QNZpjiWMh-xtTiixb79gYw","3","Sports Bars | American (Traditional)","2.5","42.8824717525956","-88.08287","$","S90W13970 Boxhorn Dr"
"jTzp75snfJycfdtBrBz6Nw","Durham Pub & Grill","FALSE","https://www.yelp.com/biz/durham-pub-and-grill-muskego?adjust_creative=QNZpjiWMh-xtTiixb79gYw&utm_campaign=yelp_api_v3&utm_medium=api_v3_business_search&utm_source=QNZpjiWMh-xtTiixb79gYw","3","Pubs | American (Traditional) | Chicken Wings","2.5","42.86656","-88.07124","$","S98W12532 Loomis Ct"
"qT_skg6nst3twxoJtcM-BQ","Cousins Subs of Muskego - Racine Ave","FALSE","https://www.yelp.com/biz/cousins-subs-of-muskego-racine-ave-muskego?adjust_creative=QNZpjiWMh-xtTiixb79gYw&utm_campaign=yelp_api_v3&utm_medium=api_v3_business_search&utm_source=QNZpjiWMh-xtTiixb79gYw","5","Sandwiches | Delis","2.5","42.8906546149005","-88.1277","$","W189 S7827 Racine Ave"
"9Wuh9bm58ecTdKPiuV7hLw","Rugan's","FALSE","https://www.yelp.com/biz/rugans-burlington?adjust_creative=QNZpjiWMh-xtTiixb79gYw&utm_campaign=yelp_api_v3&utm_medium=api_v3_business_search&utm_source=QNZpjiWMh-xtTiixb79gYw","28","Wine Bars | Gastropubs | Tapas/Small Plates","4","42.68057","-88.27698","$$","597 N Pine St"
"UgvDd3lkJjbCFHY_KeMYEA","Lucky Star Pub & Eatery","FALSE","https://www.yelp.com/biz/lucky-star-pub-and-eatery-burlington?adjust_creative=QNZpjiWMh-xtTiixb79gYw&utm_campaign=yelp_api_v3&utm_medium=api_v3_business_search&utm_source=QNZpjiWMh-xtTiixb79gYw","97","American (New) | Mexican","4","42.6872520446777","-88.2699356079102","$$","864 Milwaukee Ave"
"klJStvFUgYOiwDMPyYn1rg","Kira's Asian Bistro","FALSE","https://www.yelp.com/biz/kiras-asian-bistro-burlington?adjust_creative=QNZpjiWMh-xtTiixb79gYw&utm_campaign=yelp_api_v3&utm_medium=api_v3_business_search&utm_source=QNZpjiWMh-xtTiixb79gYw","22","Asian Fusion","3.5","42.6759748","-88.2737838","$$","208 S Pine St"
"RnL5QzZVLnOHJuOX_F4IsQ","Fred's","FALSE","https://www.yelp.com/biz/freds-burlington?adjust_creative=QNZpjiWMh-xtTiixb79gYw&utm_campaign=yelp_api_v3&utm_medium=api_v3_business_search&utm_source=QNZpjiWMh-xtTiixb79gYw","144","Burgers","4","42.6809425354004","-88.2765197753906","$$","596 N Pine St"
"CRBHvbL2ityq4gylSOXmBQ","The Coffee House at Chestnut & Pine","FALSE","https://www.yelp.com/biz/the-coffee-house-at-chestnut-and-pine-burlington?adjust_creative=QNZpjiWMh-xtTiixb79gYw&utm_campaign=yelp_api_v3&utm_medium=api_v3_business_search&utm_source=QNZpjiWMh-xtTiixb79gYw","74","Cafes","4.5","42.6799874776674","-88.2760912763198","$","492 N Pine St"
"1P_d4M4Y8dyUa7YDfu4sDQ","Sheila Mae's Town Fryer","FALSE","https://www.yelp.com/biz/sheila-maes-town-fryer-burlington?adjust_creative=QNZpjiWMh-xtTiixb79gYw&utm_campaign=yelp_api_v3&utm_medium=api_v3_business_search&utm_source=QNZpjiWMh-xtTiixb79gYw","16","American (Traditional)","4","42.6791076660156","-88.2693862915039","$","116 N Main St"
"6hDOqikwfFeDvkD53NVBBw","Super Tacos Moy","FALSE","https://www.yelp.com/biz/super-tacos-moy-burlington?adjust_creative=QNZpjiWMh-xtTiixb79gYw&utm_campaign=yelp_api_v3&utm_medium=api_v3_business_search&utm_source=QNZpjiWMh-xtTiixb79gYw","26","Mexican","4.5","42.68067","-88.27796","$$","140 W Chestnut St"
"EbSFuTBM85Q9fjgbNvJS5A","Zumpano's Ristorante & Pizzeria","FALSE","https://www.yelp.com/biz/zumpanos-ristorante-and-pizzeria-burlington?adjust_creative=QNZpjiWMh-xtTiixb79gYw&utm_campaign=yelp_api_v3&utm_medium=api_v3_business_search&utm_source=QNZpjiWMh-xtTiixb79gYw","32","Pizza | Italian | Gluten-Free","4","42.68019","-88.27669","$$","180 E Chestnut St"
"4qfIFCDVImm7RQDFkVq9sQ","Gabby's Palace","FALSE","https://www.yelp.com/biz/gabbys-palace-burlington?adjust_creative=QNZpjiWMh-xtTiixb79gYw&utm_campaign=yelp_api_v3&utm_medium=api_v3_business_search&utm_source=QNZpjiWMh-xtTiixb79gYw","7","Diners","3","42.6790466308594","-88.2754287719727","$","356 N Pine St"
"3-pGtnz4vpJrmFCoZ6_PZA","Charcoal Grill","FALSE","https://www.yelp.com/biz/charcoal-grill-burlington-2?adjust_creative=QNZpjiWMh-xtTiixb79gYw&utm_campaign=yelp_api_v3&utm_medium=api_v3_business_search&utm_source=QNZpjiWMh-xtTiixb79gYw","40","American (New) | Desserts | Pizza","3","42.6810264587402","-88.2752685546875","$$","580 Milwaukee Ave"
"of7DegeKTQQzJJURWDJZkw","Pine Street Cafe","FALSE","https://www.yelp.com/biz/pine-street-cafe-burlington?adjust_creative=QNZpjiWMh-xtTiixb79gYw&utm_campaign=yelp_api_v3&utm_medium=api_v3_business_search&utm_source=QNZpjiWMh-xtTiixb79gYw","10","American (Traditional)","3","42.677242","-88.275032","$","141 N Pine St"
"L6Z1ZExDmYro3OGdkzgeBw","Napoli Restaurant and Pizzeria","FALSE","https://www.yelp.com/biz/napoli-restaurant-and-pizzeria-burlington?adjust_creative=QNZpjiWMh-xtTiixb79gYw&utm_campaign=yelp_api_v3&utm_medium=api_v3_business_search&utm_source=QNZpjiWMh-xtTiixb79gYw","55","Pizza | Italian","4","42.6773910522461","-88.2743072509766","$$","132 N Pine St"
"It3YHcczgpJijJB-sTXvAw","John's Main Event","FALSE","https://www.yelp.com/biz/johns-main-event-burlington?adjust_creative=QNZpjiWMh-xtTiixb79gYw&utm_campaign=yelp_api_v3&utm_medium=api_v3_business_search&utm_source=QNZpjiWMh-xtTiixb79gYw","12","Bars | American (Traditional)","3.5","42.680617","-88.276532","$","556 N Pine St"
"T_LFfP4SgKPGjzxqIXA06g","Silver Cloud Vape Cafe & Gallery","FALSE","https://www.yelp.com/biz/silver-cloud-vape-cafe-and-gallery-burlington?adjust_creative=QNZpjiWMh-xtTiixb79gYw&utm_campaign=yelp_api_v3&utm_medium=api_v3_business_search&utm_source=QNZpjiWMh-xtTiixb79gYw","5","Vape Shops | Cafes","5","42.6807428151369","-88.2768020778894","$$","588 N Pine St"
"PaNNEIdaYpnMoLeTYWyB2A","Bubba's Brickyard","FALSE","https://www.yelp.com/biz/bubbas-brickyard-burlington-2?adjust_creative=QNZpjiWMh-xtTiixb79gYw&utm_campaign=yelp_api_v3&utm_medium=api_v3_business_search&utm_source=QNZpjiWMh-xtTiixb79gYw","2","Pubs | American (Traditional)","3.5","42.67781","-88.27539","","217 N Pine St"
"1LhZlkgBmird1rSt1Vd51g","Chris's USA","FALSE","https://www.yelp.com/biz/chriss-usa-burlington?adjust_creative=QNZpjiWMh-xtTiixb79gYw&utm_campaign=yelp_api_v3&utm_medium=api_v3_business_search&utm_source=QNZpjiWMh-xtTiixb79gYw","9","American (Traditional)","3.5","42.6858139038086","-88.2722702026367","","724 Milwaukee Ave"
"FYyT5HB8wk7Q0wCQlyRQhQ","Beijing Garden Chinese Restaurant","FALSE","https://www.yelp.com/biz/beijing-garden-chinese-restaurant-burlington?adjust_creative=QNZpjiWMh-xtTiixb79gYw&utm_campaign=yelp_api_v3&utm_medium=api_v3_business_search&utm_source=QNZpjiWMh-xtTiixb79gYw","16","Chinese","4","42.6799011230469","-88.2759475708008","$","464 N Pine St"
"mPEvH53YA82rp1W5rP5gyQ","Los Compadres","FALSE","https://www.yelp.com/biz/los-compadres-burlington?adjust_creative=QNZpjiWMh-xtTiixb79gYw&utm_campaign=yelp_api_v3&utm_medium=api_v3_business_search&utm_source=QNZpjiWMh-xtTiixb79gYw","27","Mexican","3.5","42.68633","-88.27301","$$","725 Milwaukee Ave"
"PGvmezfSnK5dOqnSbBForg","El Burrito Jarocho","FALSE","https://www.yelp.com/biz/el-burrito-jarocho-burlington-2?adjust_creative=QNZpjiWMh-xtTiixb79gYw&utm_campaign=yelp_api_v3&utm_medium=api_v3_business_search&utm_source=QNZpjiWMh-xtTiixb79gYw","13","Mexican","3.5","42.68083","-88.27723","$$","557 Milwaukee Ave"
"Tcq9e5zO8sQuIPpA926h9w","Flippy's Fast Food","FALSE","https://www.yelp.com/biz/flippys-fast-food-burlington?adjust_creative=QNZpjiWMh-xtTiixb79gYw&utm_campaign=yelp_api_v3&utm_medium=api_v3_business_search&utm_source=QNZpjiWMh-xtTiixb79gYw","19","Fast Food","3","42.6793174743652","-88.2761917114258","$$","401 N Pine St"
"5xGdF4-FLz-SyL6UNVN2fg","Venture Inn Bar & Grill","FALSE","https://www.yelp.com/biz/venture-inn-bar-and-grill-burlington?adjust_creative=QNZpjiWMh-xtTiixb79gYw&utm_campaign=yelp_api_v3&utm_medium=api_v3_business_search&utm_source=QNZpjiWMh-xtTiixb79gYw","1","Bars | American (Traditional)","1","42.684","-88.18894","","28006 Durand Ave"
"7R6vvhTQBfVU7RFvcmytrg","Cousins Subs","FALSE","https://www.yelp.com/biz/cousins-subs-burlington?adjust_creative=QNZpjiWMh-xtTiixb79gYw&utm_campaign=yelp_api_v3&utm_medium=api_v3_business_search&utm_source=QNZpjiWMh-xtTiixb79gYw","6","Sandwiches | Delis","3.5","42.6743136","-88.272152","","206 S Pine St"
"cdJHt6_hrcbnlvtZUac-uQ","McDonald's","FALSE","https://www.yelp.com/biz/mcdonalds-burlington-32?adjust_creative=QNZpjiWMh-xtTiixb79gYw&utm_campaign=yelp_api_v3&utm_medium=api_v3_business_search&utm_source=QNZpjiWMh-xtTiixb79gYw","9","Burgers | Fast Food","2.5","42.6793339005703","-88.2739886311083","$","240 E Jefferson St"
"3lmp1rZY7-Z7CabgX9Hfqg","Bruiser's Pizza Subs Salads","FALSE","https://www.yelp.com/biz/bruisers-pizza-subs-salads-burlington?adjust_creative=QNZpjiWMh-xtTiixb79gYw&utm_campaign=yelp_api_v3&utm_medium=api_v3_business_search&utm_source=QNZpjiWMh-xtTiixb79gYw","5","Pizza","3","42.6852264404297","-88.2736968994141","$","689 Milwaukee Ave"
"T5gIbCaJ-aa95ULo7-Vx4A","Culver's","FALSE","https://www.yelp.com/biz/culvers-burlington?adjust_creative=QNZpjiWMh-xtTiixb79gYw&utm_campaign=yelp_api_v3&utm_medium=api_v3_business_search&utm_source=QNZpjiWMh-xtTiixb79gYw","10","Burgers | Fast Food | Ice Cream & Frozen Yogurt","3","42.6922799","-88.2664","$$","1073 Milwaukee Ave"
"vhlcsrmQrZLU5XHeTK3CnQ","Taco Bell","FALSE","https://www.yelp.com/biz/taco-bell-burlington-7?adjust_creative=QNZpjiWMh-xtTiixb79gYw&utm_campaign=yelp_api_v3&utm_medium=api_v3_business_search&utm_source=QNZpjiWMh-xtTiixb79gYw","10","Fast Food | Mexican | Tex-Mex","3","42.696866","-88.260625","","2056 Milwaukee Ave."
"IPBjBlLITacOBwXCCliPcg","Wendy's","FALSE","https://www.yelp.com/biz/wendys-burlington?adjust_creative=QNZpjiWMh-xtTiixb79gYw&utm_campaign=yelp_api_v3&utm_medium=api_v3_business_search&utm_source=QNZpjiWMh-xtTiixb79gYw","5","Fast Food | Burgers","3","42.7043652967641","-88.2503628730774","","2049 Milwaukee Ave"
"TxkItEbLoRp3992ygPL_cg","Domino's Pizza","FALSE","https://www.yelp.com/biz/dominos-pizza-burlington-7?adjust_creative=QNZpjiWMh-xtTiixb79gYw&utm_campaign=yelp_api_v3&utm_medium=api_v3_business_search&utm_source=QNZpjiWMh-xtTiixb79gYw","1","Pizza | Chicken Wings | Sandwiches","4","42.7058143615723","-88.2430877685547","","2088 Milwaukee Ave"
"Gt0P09elu3gRx48Qg9gnuw","Subway","FALSE","https://www.yelp.com/biz/subway-burlington-9?adjust_creative=QNZpjiWMh-xtTiixb79gYw&utm_campaign=yelp_api_v3&utm_medium=api_v3_business_search&utm_source=QNZpjiWMh-xtTiixb79gYw","1","Sandwiches | Fast Food","3","42.7034721374512","-88.2527313232422","$","1901 Milwaukee Ave"
"_1y9sSMLa1Z5dIVHj9ddDw","Mulberry's Pancakes & Cafe","FALSE","https://www.yelp.com/biz/mulberrys-pancakes-and-cafe-union-grove?adjust_creative=QNZpjiWMh-xtTiixb79gYw&utm_campaign=yelp_api_v3&utm_medium=api_v3_business_search&utm_source=QNZpjiWMh-xtTiixb79gYw","25","Breakfast & Brunch | Cafes | Soup","3.5","42.68659","-88.05216","$","1036 Main St"
"B6ePjQOUXtY1xFlf5z_bYQ","Ironwood Chophouse & Saloon","FALSE","https://www.yelp.com/biz/ironwood-chophouse-and-saloon-union-grove?adjust_creative=QNZpjiWMh-xtTiixb79gYw&utm_campaign=yelp_api_v3&utm_medium=api_v3_business_search&utm_source=QNZpjiWMh-xtTiixb79gYw","9","American (New)","2.5","42.680771","-88.068904","$$","20715 Durand Ave"
"EE6Ves7TIn53P4CUkCzJvg","The Greek Sweet Spot","FALSE","https://www.yelp.com/biz/the-greek-sweet-spot-union-grove?adjust_creative=QNZpjiWMh-xtTiixb79gYw&utm_campaign=yelp_api_v3&utm_medium=api_v3_business_search&utm_source=QNZpjiWMh-xtTiixb79gYw","3","Coffee & Tea | Bakeries | Greek","2","42.687328","-88.051506","","1013 Main St"
"ecHPLMKcF1PqtfIBgM3L3Q","Parkside Cafe","FALSE","https://www.yelp.com/biz/parkside-cafe-union-grove?adjust_creative=QNZpjiWMh-xtTiixb79gYw&utm_campaign=yelp_api_v3&utm_medium=api_v3_business_search&utm_source=QNZpjiWMh-xtTiixb79gYw","6","American (Traditional) | Breakfast & Brunch | Caterers","3.5","42.681564","-88.057235","$$","1400 Hwy 11"
"sK8lw9iljFvuZ0UxZdDNyQ","R & R Club","FALSE","https://www.yelp.com/biz/r-and-r-club-union-grove?adjust_creative=QNZpjiWMh-xtTiixb79gYw&utm_campaign=yelp_api_v3&utm_medium=api_v3_business_search&utm_source=QNZpjiWMh-xtTiixb79gYw","9","Pubs | Pizza | Burgers","3.5","42.68719","-88.0515099","$","1017 Main St"
"FBVtCy811ExiWbKZMRZCHQ","Cantonese House Chinese Restaurant","FALSE","https://www.yelp.com/biz/cantonese-house-chinese-restaurant-union-grove?adjust_creative=QNZpjiWMh-xtTiixb79gYw&utm_campaign=yelp_api_v3&utm_medium=api_v3_business_search&utm_source=QNZpjiWMh-xtTiixb79gYw","3","Chinese","3.5","42.6814","-88.05585","","1300 15th Ave"
"0M8Hi_vtK6H_GPjuwc4Zog","Napoli Pizza and Pasta","FALSE","https://www.yelp.com/biz/napoli-pizza-and-pasta-union-grove?adjust_creative=QNZpjiWMh-xtTiixb79gYw&utm_campaign=yelp_api_v3&utm_medium=api_v3_business_search&utm_source=QNZpjiWMh-xtTiixb79gYw","4","Pizza","3","42.6858902","-88.0522308","$$","1114 Main St"
"pLnPfRCMNtBWQB0uUc93bw","Burger King","FALSE","https://www.yelp.com/biz/burger-king-union-grove?adjust_creative=QNZpjiWMh-xtTiixb79gYw&utm_campaign=yelp_api_v3&utm_medium=api_v3_business_search&utm_source=QNZpjiWMh-xtTiixb79gYw","2","Burgers","5","42.6807098","-88.0538101","","1141 15th Ave"
"A2wZ6loen_zToTa5X43S_Q","McDonald's","FALSE","https://www.yelp.com/biz/mcdonalds-union-grove?adjust_creative=QNZpjiWMh-xtTiixb79gYw&utm_campaign=yelp_api_v3&utm_medium=api_v3_business_search&utm_source=QNZpjiWMh-xtTiixb79gYw","5","Burgers | Fast Food | Coffee & Tea","3","42.6805276681498","-88.0505491874646","$","835 15th Ave"
"2a6R0wHCJ3UlQXBN6eDx3g","Old Settlers Bowling Center","FALSE","https://www.yelp.com/biz/old-settlers-bowling-center-union-grove?adjust_creative=QNZpjiWMh-xtTiixb79gYw&utm_campaign=yelp_api_v3&utm_medium=api_v3_business_search&utm_source=QNZpjiWMh-xtTiixb79gYw","5","Pizza | Bowling | Chicken Wings","4","42.6818","-88.0592","$$","1500 15th Ave"
"aSxllwTXM7d6cEUlVz9DtQ","Subway","FALSE","https://www.yelp.com/biz/subway-union-grove?adjust_creative=QNZpjiWMh-xtTiixb79gYw&utm_campaign=yelp_api_v3&utm_medium=api_v3_business_search&utm_source=QNZpjiWMh-xtTiixb79gYw","3","Sandwiches | Fast Food","2.5","42.681191","-88.05684","$$$$","1380 15th Ave"
"kPT6dVWbeBgvjDb2gJxlUg","Dairy Queen","FALSE","https://www.yelp.com/biz/dairy-queen-union-grove?adjust_creative=QNZpjiWMh-xtTiixb79gYw&utm_campaign=yelp_api_v3&utm_medium=api_v3_business_search&utm_source=QNZpjiWMh-xtTiixb79gYw","3","Restaurants","3.5","42.6819","-88.0622101","$","1600 15th Ave"
"bHKsUpeOhGTY2u33_PMGUw","Blue Moon Cafe","FALSE","https://www.yelp.com/biz/blue-moon-cafe-kansasville?adjust_creative=QNZpjiWMh-xtTiixb79gYw&utm_campaign=yelp_api_v3&utm_medium=api_v3_business_search&utm_source=QNZpjiWMh-xtTiixb79gYw","1","Restaurants","1","42.6888389587402","-88.1100463867188","","3731 S Beaumont Ave"
"gT99VCgXGQibQcU5S_485w","Cabbage Heads Tavern & Grill","FALSE","https://www.yelp.com/biz/cabbage-heads-tavern-and-grill-franksville?adjust_creative=QNZpjiWMh-xtTiixb79gYw&utm_campaign=yelp_api_v3&utm_medium=api_v3_business_search&utm_source=QNZpjiWMh-xtTiixb79gYw","42","American (Traditional) | Bars","4.5","42.76124","-87.91428","$$","3311 County Rd H"
"MroEE20RRDCcHk0VSOXHAQ","Oh Dennis! Saloon and Charcoal House","FALSE","https://www.yelp.com/biz/oh-dennis-saloon-and-charcoal-house-racine?adjust_creative=QNZpjiWMh-xtTiixb79gYw&utm_campaign=yelp_api_v3&utm_medium=api_v3_business_search&utm_source=QNZpjiWMh-xtTiixb79gYw","80","Barbeque","4.5","42.7743899","-87.80387","$$","4301 Douglas Ave"
"l5h6pX_7ppSWNyLxVca3-Q","Depot","FALSE","https://www.yelp.com/biz/depot-caledonia?adjust_creative=QNZpjiWMh-xtTiixb79gYw&utm_campaign=yelp_api_v3&utm_medium=api_v3_business_search&utm_source=QNZpjiWMh-xtTiixb79gYw","5","Bars | American (Traditional) | Pizza","4.5","42.80783","-87.92447","$$","11402 County Rd G"
"pmfw90dnUoluwEvpEggwDA","Route 20","FALSE","https://www.yelp.com/biz/route-20-sturtevant?adjust_creative=QNZpjiWMh-xtTiixb79gYw&utm_campaign=yelp_api_v3&utm_medium=api_v3_business_search&utm_source=QNZpjiWMh-xtTiixb79gYw","70","Music Venues | American (New) | Bars","3.5","42.72608","-87.9575799","$$","14001 Washington Ave"
"2NAwiGeLOSQ4Qac2oEtPfw","Soup Shanty","FALSE","https://www.yelp.com/biz/soup-shanty-racine?adjust_creative=QNZpjiWMh-xtTiixb79gYw&utm_campaign=yelp_api_v3&utm_medium=api_v3_business_search&utm_source=QNZpjiWMh-xtTiixb79gYw","27","Soup | Sandwiches","4.5","42.79952","-87.82374","$$","6022 Douglas Ave"
"r9KhI_Qt_mOuuBYQGRDZpg","Mimosa","FALSE","https://www.yelp.com/biz/mimosa-franklin-3?adjust_creative=QNZpjiWMh-xtTiixb79gYw&utm_campaign=yelp_api_v3&utm_medium=api_v3_business_search&utm_source=QNZpjiWMh-xtTiixb79gYw","119","Breakfast & Brunch","4.5","42.8743","-87.95219","$$","9405 S 27th St"
"XJOjtSplabi6b-6PYAaRYw","Sebastian's Fine Food & Spirits","FALSE","https://www.yelp.com/biz/sebastians-fine-food-and-spirits-racine?adjust_creative=QNZpjiWMh-xtTiixb79gYw&utm_campaign=yelp_api_v3&utm_medium=api_v3_business_search&utm_source=QNZpjiWMh-xtTiixb79gYw","45","Seafood | Steakhouses","4","42.7998085021973","-87.8222503662109","$$$","6025 Douglas Ave"
"ja9LOvxfaZH3pGfgNBZrqQ","Blue Bear","FALSE","https://www.yelp.com/biz/blue-bear-racine-3?adjust_creative=QNZpjiWMh-xtTiixb79gYw&utm_campaign=yelp_api_v3&utm_medium=api_v3_business_search&utm_source=QNZpjiWMh-xtTiixb79gYw","148","Breakfast & Brunch | Burgers | Sandwiches","4","42.69704","-87.81807","$$","2920 Taylor Ave"
"pC_G4LZtlgO5MHkQLACR8Q","Ervs Mug","FALSE","https://www.yelp.com/biz/ervs-mug-oak-creek?adjust_creative=QNZpjiWMh-xtTiixb79gYw&utm_campaign=yelp_api_v3&utm_medium=api_v3_business_search&utm_source=QNZpjiWMh-xtTiixb79gYw","97","American (Traditional)","4","42.8726921081543","-87.9141311645508","$$","130 W Ryan Rd"
"O8IZw6UmO7wBMbWTKZi3BQ","Meli Cafe Pancake House & Restaurant","FALSE","https://www.yelp.com/biz/meli-cafe-pancake-house-and-restaurant-racine-2?adjust_creative=QNZpjiWMh-xtTiixb79gYw&utm_campaign=yelp_api_v3&utm_medium=api_v3_business_search&utm_source=QNZpjiWMh-xtTiixb79gYw","92","Breakfast & Brunch | Sandwiches | Greek","4","42.71998","-87.8673","$$","1158 Prairie Dr"
"4tz4evmccvaLlgsWf0yAdg","Egg Plant Cafe","FALSE","https://www.yelp.com/biz/egg-plant-cafe-racine?adjust_creative=QNZpjiWMh-xtTiixb79gYw&utm_campaign=yelp_api_v3&utm_medium=api_v3_business_search&utm_source=QNZpjiWMh-xtTiixb79gYw","7","Breakfast & Brunch | Coffee & Tea","4.5","42.7675026294198","-87.8022125421843","$$","3751 Douglas Ave"
"PGMzIdOEcTCNvKV8yV0Hsw","Buca's Bar & Grill","FALSE","https://www.yelp.com/biz/bucas-bar-and-grill-racine-2?adjust_creative=QNZpjiWMh-xtTiixb79gYw&utm_campaign=yelp_api_v3&utm_medium=api_v3_business_search&utm_source=QNZpjiWMh-xtTiixb79gYw","6","Bars | American (Traditional)","4.5","42.773512","-87.804418","$","4234 Douglas Ave"
"d35B85BL2HJknN4nXNix5g","Jose's Blue Sombrero Restaurant & Cantina","FALSE","https://www.yelp.com/biz/joses-blue-sombrero-restaurant-and-cantina-racine?adjust_creative=QNZpjiWMh-xtTiixb79gYw&utm_campaign=yelp_api_v3&utm_medium=api_v3_business_search&utm_source=QNZpjiWMh-xtTiixb79gYw","117","Mexican","4","42.719549","-87.859691","$$","6430 Washington Ave"
"UlJHtqEN9qChal49fANbAA","Georgie Porgie's Treefort Restaurant","FALSE","https://www.yelp.com/biz/georgie-porgies-treefort-restaurant-oak-creek?adjust_creative=QNZpjiWMh-xtTiixb79gYw&utm_campaign=yelp_api_v3&utm_medium=api_v3_business_search&utm_source=QNZpjiWMh-xtTiixb79gYw","95","Burgers | Sandwiches","4","42.87071","-87.91425","$$","9555 S Howell Ave"
"n-68unPmYRcKbQZS2esAlg","Southbound Saloon & Eatery","FALSE","https://www.yelp.com/biz/southbound-saloon-and-eatery-oak-creek?adjust_creative=QNZpjiWMh-xtTiixb79gYw&utm_campaign=yelp_api_v3&utm_medium=api_v3_business_search&utm_source=QNZpjiWMh-xtTiixb79gYw","14","Bars | American (Traditional)","4.5","42.8712893","-87.8585815","$$","9504 S Chicago Rd"
"f5VA-YPYbM_3qA4LDoLw4A","Boss Burgers-N-Beef","FALSE","https://www.yelp.com/biz/boss-burgers-n-beef-racine?adjust_creative=QNZpjiWMh-xtTiixb79gYw&utm_campaign=yelp_api_v3&utm_medium=api_v3_business_search&utm_source=QNZpjiWMh-xtTiixb79gYw","38","Burgers | Hot Dogs | Sandwiches","4.5","42.72026","-87.8650235","$","6840 Washington Ave"
"54KI8ItRkHrf9sb8ut_PgA","Pineapple Cafe & Mexican Grill","FALSE","https://www.yelp.com/biz/pineapple-cafe-and-mexican-grill-oak-creek-2?adjust_creative=QNZpjiWMh-xtTiixb79gYw&utm_campaign=yelp_api_v3&utm_medium=api_v3_business_search&utm_source=QNZpjiWMh-xtTiixb79gYw","140","Breakfast & Brunch | Mexican","3.5","42.9016643598856","-87.9108498618007","$$","7864 S Howell Ave"
"6NRLhFkz7L-t9araseg5iQ","Angry Brothers Pub & Grill","FALSE","https://www.yelp.com/biz/angry-brothers-pub-and-grill-mount-pleasant?adjust_creative=QNZpjiWMh-xtTiixb79gYw&utm_campaign=yelp_api_v3&utm_medium=api_v3_business_search&utm_source=QNZpjiWMh-xtTiixb79gYw","7","American (Traditional) | Pubs | Karaoke","3.5","42.7179313315267","-87.8601209074259","$","6501 Washington Ave"
"kJOl9zFt2LdoZG5Wvlaz-Q","Sausage Kitchen","FALSE","https://www.yelp.com/biz/sausage-kitchen-racine?adjust_creative=QNZpjiWMh-xtTiixb79gYw&utm_campaign=yelp_api_v3&utm_medium=api_v3_business_search&utm_source=QNZpjiWMh-xtTiixb79gYw","15","Delis | Sandwiches | Breakfast & Brunch","5","42.7454545","-87.8019658","$","1706 Rapids Dr"
"sO-LyQTNxbK7myK31dAGYA","Georgie Porgie's Treefort Restaurant","FALSE","https://www.yelp.com/biz/georgie-porgies-treefort-restaurant-mount-pleasant-2?adjust_creative=QNZpjiWMh-xtTiixb79gYw&utm_campaign=yelp_api_v3&utm_medium=api_v3_business_search&utm_source=QNZpjiWMh-xtTiixb79gYw","47","Burgers | Desserts | Sandwiches","4","42.7191081","-87.8464127","$","5502 Washington Ave"
"dkVRVLY-uHrjeMsKc0s7AQ","Douglas Avenue Diner","FALSE","https://www.yelp.com/biz/douglas-avenue-diner-racine?adjust_creative=QNZpjiWMh-xtTiixb79gYw&utm_campaign=yelp_api_v3&utm_medium=api_v3_business_search&utm_source=QNZpjiWMh-xtTiixb79gYw","35","Diners | American (Traditional)","3.5","42.7880844","-87.810661","$","5121 Douglas Ave"
"u-_OFK2LIwd3uENpPDqx1w","Javier's Cuisine","FALSE","https://www.yelp.com/biz/javiers-cuisine-racine?adjust_creative=QNZpjiWMh-xtTiixb79gYw&utm_campaign=yelp_api_v3&utm_medium=api_v3_business_search&utm_source=QNZpjiWMh-xtTiixb79gYw","56","Mexican | Seafood","4.5","42.705719","-87.825682","$$","2011 Lathrop Ave"
"s41trn6xG0MotTqClmcZQg","Meadows Family Restaurant","FALSE","https://www.yelp.com/biz/meadows-family-restaurant-franksville?adjust_creative=QNZpjiWMh-xtTiixb79gYw&utm_campaign=yelp_api_v3&utm_medium=api_v3_business_search&utm_source=QNZpjiWMh-xtTiixb79gYw","4","Diners | American (Traditional)","3","42.75969","-87.91552","$","10615 Northwestern Ave"
"aCulpfLPRp1gcaGR2EjRgA","Honey B's II","FALSE","https://www.yelp.com/biz/honey-bs-ii-racine?adjust_creative=QNZpjiWMh-xtTiixb79gYw&utm_campaign=yelp_api_v3&utm_medium=api_v3_business_search&utm_source=QNZpjiWMh-xtTiixb79gYw","33","Diners | American (Traditional) | Breakfast & Brunch","2.5","42.7806","-87.80671","$","4713 Douglas Ave"
"JyGXb8UpIuu8fe65i9WdZg","Meadowbrook Country Club","FALSE","https://www.yelp.com/biz/meadowbrook-country-club-racine-2?adjust_creative=QNZpjiWMh-xtTiixb79gYw&utm_campaign=yelp_api_v3&utm_medium=api_v3_business_search&utm_source=QNZpjiWMh-xtTiixb79gYw","11","Italian | Venues & Event Spaces","4","42.746062800758","-87.829955296652","$$","2149 N Green Bay Rd"
"nmiwVpcQLqQT2rOSnzpB1w","Don's Market & Deli","FALSE","https://www.yelp.com/biz/dons-market-and-deli-franksville?adjust_creative=QNZpjiWMh-xtTiixb79gYw&utm_campaign=yelp_api_v3&utm_medium=api_v3_business_search&utm_source=QNZpjiWMh-xtTiixb79gYw","6","Delis","4","42.7582995593548","-87.9136953502893","$","3120 Roberts St"
"3C1jVOaOIs4O55EtgxTYAA","Annetta's Cafe","FALSE","https://www.yelp.com/biz/annettas-cafe-sturtevant-2?adjust_creative=QNZpjiWMh-xtTiixb79gYw&utm_campaign=yelp_api_v3&utm_medium=api_v3_business_search&utm_source=QNZpjiWMh-xtTiixb79gYw","16","Breakfast & Brunch","4","42.6979511493511","-87.882154583931","$","8020 Durand Ave"
"s5ABI37VGf9RW60PXrd-GQ","Gyros Express","FALSE","https://www.yelp.com/biz/gyros-express-racine-2?adjust_creative=QNZpjiWMh-xtTiixb79gYw&utm_campaign=yelp_api_v3&utm_medium=api_v3_business_search&utm_source=QNZpjiWMh-xtTiixb79gYw","52","Mediterranean | Sandwiches","4.5","42.7022523042904","-87.8543004073215","$","6116 Regency W Dr"
"pOiarW8pqOFqgBJE7V9nsw","Kings Wok","FALSE","https://www.yelp.com/biz/kings-wok-racine?adjust_creative=QNZpjiWMh-xtTiixb79gYw&utm_campaign=yelp_api_v3&utm_medium=api_v3_business_search&utm_source=QNZpjiWMh-xtTiixb79gYw","12","Chinese","4.5","42.7881760150194","-87.8108996897936","$","5131 Douglas Ave"
"3xQYpbgoCfEj-2gKj2xQCw","Iron Skillet Restaurant","FALSE","https://www.yelp.com/biz/iron-skillet-restaurant-sturtevant?adjust_creative=QNZpjiWMh-xtTiixb79gYw&utm_campaign=yelp_api_v3&utm_medium=api_v3_business_search&utm_source=QNZpjiWMh-xtTiixb79gYw","35","American (Traditional) | Salad | Breakfast & Brunch","2.5","42.7259642","-87.9562308","$","717 S Sylvania Ave"
"jsCtuwbwiS1mvpYypXG3HA","Summit Restaurant","FALSE","https://www.yelp.com/biz/summit-restaurant-racine?adjust_creative=QNZpjiWMh-xtTiixb79gYw&utm_campaign=yelp_api_v3&utm_medium=api_v3_business_search&utm_source=QNZpjiWMh-xtTiixb79gYw","47","Steakhouses","3","42.7186394","-87.8650894","$$$","6825 Washington Ave"
"XF2xb5Spuswvv2xckwsyew","Water Street Brewery","FALSE","https://www.yelp.com/biz/water-street-brewery-oak-creek?adjust_creative=QNZpjiWMh-xtTiixb79gYw&utm_campaign=yelp_api_v3&utm_medium=api_v3_business_search&utm_source=QNZpjiWMh-xtTiixb79gYw","146","American (Traditional) | Breweries","2.5","42.900909","-87.912216","$$","140 W Town Sq Way"
"nIrpiJk_pWXpac96kJ7W0g","Charcoal Grill & Rotisserie","FALSE","https://www.yelp.com/biz/charcoal-grill-and-rotisserie-oak-creek?adjust_creative=QNZpjiWMh-xtTiixb79gYw&utm_campaign=yelp_api_v3&utm_medium=api_v3_business_search&utm_source=QNZpjiWMh-xtTiixb79gYw","41","American (Traditional) | Burgers","3","42.8714904785156","-87.9141540527344","$$","111 W Ryan Rd"
"Xi6vUScgkH3eo9P7DgggPA","20 and Oakes Bar & Grill","FALSE","https://www.yelp.com/biz/20-and-oakes-bar-and-grill-racine?adjust_creative=QNZpjiWMh-xtTiixb79gYw&utm_campaign=yelp_api_v3&utm_medium=api_v3_business_search&utm_source=QNZpjiWMh-xtTiixb79gYw","33","Bars | American (New)","3","42.71822","-87.86922","$$","7111 Washington Ave"
"i5IErPeKY-LGjKqkusoeuw","Island Jam","FALSE","https://www.yelp.com/biz/island-jam-south-milwaukee?adjust_creative=QNZpjiWMh-xtTiixb79gYw&utm_campaign=yelp_api_v3&utm_medium=api_v3_business_search&utm_source=QNZpjiWMh-xtTiixb79gYw","17","Caribbean","4.5","42.90422","-87.86509","$$","2703 S Chicago Ave"
"mPoRQaFNspIIcxIzNJZELg","DeRango The Pizza King & Steakhouse","FALSE","https://www.yelp.com/biz/derango-the-pizza-king-and-steakhouse-racine?adjust_creative=QNZpjiWMh-xtTiixb79gYw&utm_campaign=yelp_api_v3&utm_medium=api_v3_business_search&utm_source=QNZpjiWMh-xtTiixb79gYw","31","Italian | Pizza | Steakhouses","3","42.813001484699","-87.834901276723","$$","4621 6 Mile Rd"
"rE6ffvi25fjLWiXlhNzVHw","Market Place Cafe","FALSE","https://www.yelp.com/biz/market-place-cafe-oak-creek?adjust_creative=QNZpjiWMh-xtTiixb79gYw&utm_campaign=yelp_api_v3&utm_medium=api_v3_business_search&utm_source=QNZpjiWMh-xtTiixb79gYw","25","Breakfast & Brunch | Cafes | Sandwiches","4","42.886501","-87.863479","$","3570 E Puetz Rd"
"u-WPlmooon2zypa2E2jTaA","Yuni's Avenue Cafe","FALSE","https://www.yelp.com/biz/yunis-avenue-cafe-racine?adjust_creative=QNZpjiWMh-xtTiixb79gYw&utm_campaign=yelp_api_v3&utm_medium=api_v3_business_search&utm_source=QNZpjiWMh-xtTiixb79gYw","31","Sandwiches | Breakfast & Brunch | American (Traditional)","4","42.7188869","-87.840885","$","5104 Washington Ave"
"3l4MNfjyQaLLur6RDYVkMQ","A&W Restaurant","FALSE","https://www.yelp.com/biz/a-and-w-restaurant-caledonia-2?adjust_creative=QNZpjiWMh-xtTiixb79gYw&utm_campaign=yelp_api_v3&utm_medium=api_v3_business_search&utm_source=QNZpjiWMh-xtTiixb79gYw","37","Burgers | Fast Food","3.5","42.778662","-87.949592","$","13520 Northwestern Ave"
"ALqwPccXYfvRbiRgiOZo3w","The Dish","FALSE","https://www.yelp.com/biz/the-dish-racine?adjust_creative=QNZpjiWMh-xtTiixb79gYw&utm_campaign=yelp_api_v3&utm_medium=api_v3_business_search&utm_source=QNZpjiWMh-xtTiixb79gYw","18","Pizza | Sandwiches | Salad","3.5","42.7357606","-87.836635","$","1220 N Ohio St"
"1SKWVJMq53MIXdBiBSHdAA","BelAir Cantina","FALSE","https://www.yelp.com/biz/belair-cantina-oak-creek?adjust_creative=QNZpjiWMh-xtTiixb79gYw&utm_campaign=yelp_api_v3&utm_medium=api_v3_business_search&utm_source=QNZpjiWMh-xtTiixb79gYw","103","New Mexican Cuisine | Cocktail Bars | Gluten-Free","3","42.8998189125318","-87.9185082390905","$$","410 West Town Square Way"
"MtKQSmSiMy0fg9bi0-DDTA","Charcoal Grill & Rotisserie","FALSE","https://www.yelp.com/biz/charcoal-grill-and-rotisserie-racine-2?adjust_creative=QNZpjiWMh-xtTiixb79gYw&utm_campaign=yelp_api_v3&utm_medium=api_v3_business_search&utm_source=QNZpjiWMh-xtTiixb79gYw","40","Burgers | Sandwiches | Pizza","3.5","42.72034","-87.88564","$$","8300 Washington Ave"
"C9y0eEznW29Vp_sxBTf8qw","Castlewood Restaurant","FALSE","https://www.yelp.com/biz/castlewood-restaurant-sturtevant?adjust_creative=QNZpjiWMh-xtTiixb79gYw&utm_campaign=yelp_api_v3&utm_medium=api_v3_business_search&utm_source=QNZpjiWMh-xtTiixb79gYw","16","Mediterranean | Breakfast & Brunch","2.5","42.7014274597168","-87.9042434692383","$","2811 Wisconsin St"
"oANnQ2WF-wsvRywNEWe8sQ","Apple Holler","FALSE","https://www.yelp.com/biz/apple-holler-sturtevant-2?adjust_creative=QNZpjiWMh-xtTiixb79gYw&utm_campaign=yelp_api_v3&utm_medium=api_v3_business_search&utm_source=QNZpjiWMh-xtTiixb79gYw","318","American (Traditional) | Pick Your Own Farms | Delis","3","42.6747833","-87.954821","$$","5006 S Sylvania Ave"
"csj80e7r3Ew89F0ZM6GFQQ","Montoya's Mexican American Carryout","FALSE","https://www.yelp.com/biz/montoyas-mexican-american-carryout-racine?adjust_creative=QNZpjiWMh-xtTiixb79gYw&utm_campaign=yelp_api_v3&utm_medium=api_v3_business_search&utm_source=QNZpjiWMh-xtTiixb79gYw","1","American (Traditional) | Mexican","5","42.73612","-87.80622","","1949 State St"
"suNB9D6A35j1ChFDi7NUcQ","Mike & Angelo's","FALSE","https://www.yelp.com/biz/mike-and-angelos-racine?adjust_creative=QNZpjiWMh-xtTiixb79gYw&utm_campaign=yelp_api_v3&utm_medium=api_v3_business_search&utm_source=QNZpjiWMh-xtTiixb79gYw","39","Pizza | Italian","3.5","42.720109","-87.856424","$$","6214 Washington Ave"
"dJZBj9xjjSoBn4N5MlOPhQ","Valentine Coffee Oak Creek","FALSE","https://www.yelp.com/biz/valentine-coffee-oak-creek-oak-creek?adjust_creative=QNZpjiWMh-xtTiixb79gYw&utm_campaign=yelp_api_v3&utm_medium=api_v3_business_search&utm_source=QNZpjiWMh-xtTiixb79gYw","36","Coffee & Tea | Coffee Roasteries | Sandwiches","4.5","42.89973","-87.9184","$","7981 S 6th St"
"RDGS-kN7UVvopv5UDtQ4zg","Cubanitas Oak Creek","FALSE","https://www.yelp.com/biz/cubanitas-oak-creek-oak-creek?adjust_creative=QNZpjiWMh-xtTiixb79gYw&utm_campaign=yelp_api_v3&utm_medium=api_v3_business_search&utm_source=QNZpjiWMh-xtTiixb79gYw","22","Cuban","3.5","42.8994458376099","-87.9178795963526","","7973 S Main St"
"gj5Oi_OLFk4gpnPTi5wBIg","Hiawatha Bar & Grill","FALSE","https://www.yelp.com/biz/hiawatha-bar-and-grill-sturtevant?adjust_creative=QNZpjiWMh-xtTiixb79gYw&utm_campaign=yelp_api_v3&utm_medium=api_v3_business_search&utm_source=QNZpjiWMh-xtTiixb79gYw","8","Venues & Event Spaces | American (Traditional) | Beer Bar","3","42.69746","-87.90507","","9809 Durand Ave"
"r6_GBrGK17tfBO6ioNaDig","Culver's","FALSE","https://www.yelp.com/biz/culvers-racine?adjust_creative=QNZpjiWMh-xtTiixb79gYw&utm_campaign=yelp_api_v3&utm_medium=api_v3_business_search&utm_source=QNZpjiWMh-xtTiixb79gYw","17","Burgers | Fast Food | Ice Cream & Frozen Yogurt","4","42.7259251","-87.9570019","$","722 S Sylvania Ave"
"yDVCJZjOgAFFxlhflM23YA","The Hideaway Pub & Eatery","FALSE","https://www.yelp.com/biz/the-hideaway-pub-and-eatery-franklin?adjust_creative=QNZpjiWMh-xtTiixb79gYw&utm_campaign=yelp_api_v3&utm_medium=api_v3_business_search&utm_source=QNZpjiWMh-xtTiixb79gYw","50","American (Traditional) | Pubs | Pizza","4","42.86977","-88.01146","$$","9643 S 76th St"
"up3_Q0Myy5dTj0NNdg7JqQ","The Dish","FALSE","https://www.yelp.com/biz/the-dish-oak-creek?adjust_creative=QNZpjiWMh-xtTiixb79gYw&utm_campaign=yelp_api_v3&utm_medium=api_v3_business_search&utm_source=QNZpjiWMh-xtTiixb79gYw","38","Cafes | Pizza | Sandwiches","3.5","42.8716160443497","-87.9506796598434","$","9540 S 27th St"
"_eAPlNn5PDtCoYl_kPv0qA","Mulligans Irish Pub & Grill","FALSE","https://www.yelp.com/biz/mulligans-irish-pub-and-grill-franklin-2?adjust_creative=QNZpjiWMh-xtTiixb79gYw&utm_campaign=yelp_api_v3&utm_medium=api_v3_business_search&utm_source=QNZpjiWMh-xtTiixb79gYw","92","Pubs | Irish | Burgers","3.5","42.88283","-87.952","$$","8933 S 27th St"
"8oAq9B7AfIvGUklZVMFHyg","Yen Hwa Chinese Restaurant","FALSE","https://www.yelp.com/biz/yen-hwa-chinese-restaurant-oak-creek?adjust_creative=QNZpjiWMh-xtTiixb79gYw&utm_campaign=yelp_api_v3&utm_medium=api_v3_business_search&utm_source=QNZpjiWMh-xtTiixb79gYw","26","Chinese","3","42.87196","-87.94763","$","2345 W Ryan Rd"
"f2tPa8AFh_f0md7Cg87ADg","The Cellar Pub & Grill","FALSE","https://www.yelp.com/biz/the-cellar-pub-and-grill-oak-creek?adjust_creative=QNZpjiWMh-xtTiixb79gYw&utm_campaign=yelp_api_v3&utm_medium=api_v3_business_search&utm_source=QNZpjiWMh-xtTiixb79gYw","20","Pizza | American (Traditional) | Pubs","3.5","42.8578832","-87.9265048","$$","812 W Oakwood Rd"
"LZ1uO9wZdGj2oadsDqF3EA","Perkins Restaurant & Bakery","FALSE","https://www.yelp.com/biz/perkins-restaurant-and-bakery-oak-creek?adjust_creative=QNZpjiWMh-xtTiixb79gYw&utm_campaign=yelp_api_v3&utm_medium=api_v3_business_search&utm_source=QNZpjiWMh-xtTiixb79gYw","7","Bakeries | Breakfast & Brunch | American (Traditional)","2.5","42.8731099","-87.94264","$","2010 W Ryan Rd"
"wjQOGNyXM785Hr2G-2pOxw","Panda Gourmet","FALSE","https://www.yelp.com/biz/panda-gourmet-oak-creek?adjust_creative=QNZpjiWMh-xtTiixb79gYw&utm_campaign=yelp_api_v3&utm_medium=api_v3_business_search&utm_source=QNZpjiWMh-xtTiixb79gYw","42","Chinese","4","42.883621","-87.911376","$$","8880 S Howell Ave"
"l5C-yvVz7QoXdsmiMtpuJA","Trattoria di Carlo","FALSE","https://www.yelp.com/biz/trattoria-di-carlo-oak-creek?adjust_creative=QNZpjiWMh-xtTiixb79gYw&utm_campaign=yelp_api_v3&utm_medium=api_v3_business_search&utm_source=QNZpjiWMh-xtTiixb79gYw","121","Pizza | Italian","3.5","42.891181","-87.913542","$$","8469 S Howell Ave"
"zBHZjIpWbPJ8jU3Y_ofDYQ","Arby's","FALSE","https://www.yelp.com/biz/arbys-franksville?adjust_creative=QNZpjiWMh-xtTiixb79gYw&utm_campaign=yelp_api_v3&utm_medium=api_v3_business_search&utm_source=QNZpjiWMh-xtTiixb79gYw","4","Fast Food | Sandwiches","2.5","42.7795601","-87.9517212","","13712 Northwestern Ave"
"olDw-7mw5Re5qpscFLVjSA","Denny's","FALSE","https://www.yelp.com/biz/dennys-oak-creek?adjust_creative=QNZpjiWMh-xtTiixb79gYw&utm_campaign=yelp_api_v3&utm_medium=api_v3_business_search&utm_source=QNZpjiWMh-xtTiixb79gYw","12","Breakfast & Brunch | Diners | American (Traditional)","2.5","42.8711776833472","-87.9408493638039","$$","9650 S 20th St"
"9WqUe5zUuZq4LISXqBiDXg","Bowery Bar and Grill","FALSE","https://www.yelp.com/biz/bowery-bar-and-grill-franklin?adjust_creative=QNZpjiWMh-xtTiixb79gYw&utm_campaign=yelp_api_v3&utm_medium=api_v3_business_search&utm_source=QNZpjiWMh-xtTiixb79gYw","10","American (Traditional) | Pizza | Sports Bars","3.5","42.87195","-87.95573","$","3023 W Ryan Rd"
"VxxlZlgmPAgv40UK3irYwg","Cousins Subs","FALSE","https://www.yelp.com/biz/cousins-subs-oak-creek?adjust_creative=QNZpjiWMh-xtTiixb79gYw&utm_campaign=yelp_api_v3&utm_medium=api_v3_business_search&utm_source=QNZpjiWMh-xtTiixb79gYw","8","Sandwiches | Delis","4","42.87213","-87.94682","$","2327 W Ryan Rd"
"pl66i_ByKY-UoxNPG6jzoA","Panera Bread","FALSE","https://www.yelp.com/biz/panera-bread-oak-creek?adjust_creative=QNZpjiWMh-xtTiixb79gYw&utm_campaign=yelp_api_v3&utm_medium=api_v3_business_search&utm_source=QNZpjiWMh-xtTiixb79gYw","25","Sandwiches | Salad | Soup","3.5","42.88256","-87.913129","$$","8907 S Howell Ave"
"dG-_xHZpibs7XKzaesBrTA","Jim Dandy's Pub & Grill","FALSE","https://www.yelp.com/biz/jim-dandys-pub-and-grill-oak-creek?adjust_creative=QNZpjiWMh-xtTiixb79gYw&utm_campaign=yelp_api_v3&utm_medium=api_v3_business_search&utm_source=QNZpjiWMh-xtTiixb79gYw","20","Pizza | Bars | American (Traditional)","3","42.8835","-87.95037","$$","8900 S 27th St"
"M7FuGhdHuc6IYAmSRSEv0Q","Lotus","FALSE","https://www.yelp.com/biz/lotus-oak-creek?adjust_creative=QNZpjiWMh-xtTiixb79gYw&utm_campaign=yelp_api_v3&utm_medium=api_v3_business_search&utm_source=QNZpjiWMh-xtTiixb79gYw","67","Chinese | Japanese | Sushi Bars","3","42.88073","-87.9131","$$","9011 S Howell St"
"vRuTIQ0JdtGfQ-D3w3Cp8g","Noodles & Company","FALSE","https://www.yelp.com/biz/noodles-and-company-oak-creek?adjust_creative=QNZpjiWMh-xtTiixb79gYw&utm_campaign=yelp_api_v3&utm_medium=api_v3_business_search&utm_source=QNZpjiWMh-xtTiixb79gYw","21","Noodles","3","42.8886378","-87.9124031","$","8609 S Howell Ave"
"RIfRfxQpsi98E5G-9hgxaw","Jersey Mike's Subs - Oak Creek","FALSE","https://www.yelp.com/biz/jersey-mikes-subs-oak-creek-oak-creek?adjust_creative=QNZpjiWMh-xtTiixb79gYw&utm_campaign=yelp_api_v3&utm_medium=api_v3_business_search&utm_source=QNZpjiWMh-xtTiixb79gYw","22","Delis | Fast Food | Sandwiches","3","42.8836212158203","-87.911376953125","$","8880 S Howell Ave"
"FfsquAAwbEwbdaEi6YEVsA","Joey's West","FALSE","https://www.yelp.com/biz/joeys-west-caledonia?adjust_creative=QNZpjiWMh-xtTiixb79gYw&utm_campaign=yelp_api_v3&utm_medium=api_v3_business_search&utm_source=QNZpjiWMh-xtTiixb79gYw","3","American (Traditional) | Pubs | Mexican","4.5","42.756341","-87.905849","","9825 Kraut Rd"
"P0sA_6L7K2LEamri0Dl51A","Culver's","FALSE","https://www.yelp.com/biz/culvers-franklin?adjust_creative=QNZpjiWMh-xtTiixb79gYw&utm_campaign=yelp_api_v3&utm_medium=api_v3_business_search&utm_source=QNZpjiWMh-xtTiixb79gYw","9","Burgers | Fast Food | Ice Cream & Frozen Yogurt","3","42.8720703","-87.9703979","$","4220 W Oakwood Park Ct"
"f1IqImforGlK4NnRtSQF1g","Papa Murphy's","FALSE","https://www.yelp.com/biz/papa-murphys-oak-creek?adjust_creative=QNZpjiWMh-xtTiixb79gYw&utm_campaign=yelp_api_v3&utm_medium=api_v3_business_search&utm_source=QNZpjiWMh-xtTiixb79gYw","8","Pizza","4.5","42.883315004546","-87.9118090867996","$","8880 S Howell Ave"
"H-2CGPXcgq7liIMTOwmKQA","Jimmy John's","FALSE","https://www.yelp.com/biz/jimmy-johns-oak-creek?adjust_creative=QNZpjiWMh-xtTiixb79gYw&utm_campaign=yelp_api_v3&utm_medium=api_v3_business_search&utm_source=QNZpjiWMh-xtTiixb79gYw","9","Sandwiches | Delis | Fast Food","4","42.882328","-87.913169","$","8907 S Howell Ave"
"X_F9DVrsSq_jCSLjQNUMTw","QDOBA Mexican Eats","FALSE","https://www.yelp.com/biz/qdoba-mexican-eats-oak-creek?adjust_creative=QNZpjiWMh-xtTiixb79gYw&utm_campaign=yelp_api_v3&utm_medium=api_v3_business_search&utm_source=QNZpjiWMh-xtTiixb79gYw","10","Mexican | Fast Food","3","42.8858085","-87.9116616","$","8750 S Howell Ave"
"OTUHssZ4GaABT1-lePs02Q","McDonald's","FALSE","https://www.yelp.com/biz/mcdonalds-oak-creek?adjust_creative=QNZpjiWMh-xtTiixb79gYw&utm_campaign=yelp_api_v3&utm_medium=api_v3_business_search&utm_source=QNZpjiWMh-xtTiixb79gYw","9","Fast Food | Burgers | Coffee & Tea","3","42.8729247515539","-87.933034747839","$","9471 S 13th St"
"HvRp6jMTdLwIL4oMjbqDNA","Arby's","FALSE","https://www.yelp.com/biz/arbys-oak-creek?adjust_creative=QNZpjiWMh-xtTiixb79gYw&utm_campaign=yelp_api_v3&utm_medium=api_v3_business_search&utm_source=QNZpjiWMh-xtTiixb79gYw","2","Fast Food | Sandwiches","2.5","42.8731194","-87.9418564","","1920 W Ryan Rd"
"L4BZJZ1T34qCohG7o6N5OQ","Subway","FALSE","https://www.yelp.com/biz/subway-franklin-33?adjust_creative=QNZpjiWMh-xtTiixb79gYw&utm_campaign=yelp_api_v3&utm_medium=api_v3_business_search&utm_source=QNZpjiWMh-xtTiixb79gYw","2","Sandwiches | Fast Food","3","42.8729031","-87.9813277","","5116 W Ryan Rd"
"BTYwkY6k9AbAIRY2nkbceQ","Wendy's","FALSE","https://www.yelp.com/biz/wendys-oak-creek-2?adjust_creative=QNZpjiWMh-xtTiixb79gYw&utm_campaign=yelp_api_v3&utm_medium=api_v3_business_search&utm_source=QNZpjiWMh-xtTiixb79gYw","7","Fast Food | Burgers","2","42.8719177246094","-87.9331893920898","$","9503 S 13th St"
"oZATVL9MGjAgy0vWEu4crw","Subway","FALSE","https://www.yelp.com/biz/subway-franksville?adjust_creative=QNZpjiWMh-xtTiixb79gYw&utm_campaign=yelp_api_v3&utm_medium=api_v3_business_search&utm_source=QNZpjiWMh-xtTiixb79gYw","2","Sandwiches | Fast Food","2.5","42.756763","-87.90802","","10009 Northwestern Ave"
"IT3UQP-5DYh1g744-FNvVw","Papa John's Pizza","FALSE","https://www.yelp.com/biz/papa-johns-pizza-oak-creek?adjust_creative=QNZpjiWMh-xtTiixb79gYw&utm_campaign=yelp_api_v3&utm_medium=api_v3_business_search&utm_source=QNZpjiWMh-xtTiixb79gYw","14","Pizza","2.5","42.8875923156738","-87.9126663208008","$$$","8645 S Howell Ave"
"O79OdQb3kJx8xCyOwfAc5w","Dairy Queen Brazier","FALSE","https://www.yelp.com/biz/dairy-queen-brazier-oak-creek?adjust_creative=QNZpjiWMh-xtTiixb79gYw&utm_campaign=yelp_api_v3&utm_medium=api_v3_business_search&utm_source=QNZpjiWMh-xtTiixb79gYw","6","Fast Food | Ice Cream & Frozen Yogurt","4","42.8852081","-87.9101868","$","8770 S Howell Ave"
"qWPYPxAhHfQJw__vkRs1Iw","McDonald's","FALSE","https://www.yelp.com/biz/mcdonalds-oak-creek-3?adjust_creative=QNZpjiWMh-xtTiixb79gYw&utm_campaign=yelp_api_v3&utm_medium=api_v3_business_search&utm_source=QNZpjiWMh-xtTiixb79gYw","7","Fast Food | Burgers | Coffee & Tea","2","42.88451","-87.91159","$","8800 S Howell Ave"
"vbQkNS-C6ikWDTh5c8D2zQ","Subway","FALSE","https://www.yelp.com/biz/subway-oak-creek-3?adjust_creative=QNZpjiWMh-xtTiixb79gYw&utm_campaign=yelp_api_v3&utm_medium=api_v3_business_search&utm_source=QNZpjiWMh-xtTiixb79gYw","1","Sandwiches | Fast Food","2","42.871881","-87.944076","","2031 W Ryan Rd"
"XwQ6aWcI6swwxbvjdmHQRg","Cliff's Boathouse Cafe","FALSE","https://www.yelp.com/biz/cliffs-boathouse-cafe-racine?adjust_creative=QNZpjiWMh-xtTiixb79gYw&utm_campaign=yelp_api_v3&utm_medium=api_v3_business_search&utm_source=QNZpjiWMh-xtTiixb79gYw","72","Breakfast & Brunch","4.5","42.7353401","-87.7842026","$","301 Hamilton St"
"elkJthaaYCkDCKk9epNHdQ","Pico's Tacos & Cerveza","FALSE","https://www.yelp.com/biz/picos-tacos-and-cerveza-racine?adjust_creative=QNZpjiWMh-xtTiixb79gYw&utm_campaign=yelp_api_v3&utm_medium=api_v3_business_search&utm_source=QNZpjiWMh-xtTiixb79gYw","42","Mexican","4.5","42.7700593854359","-87.7870265582821","$","550 3rd Mile Rd"
"tzRlhrpuKuvLfYtY-N_oLQ","Buddy's Sports Grill","FALSE","https://www.yelp.com/biz/buddys-sports-grill-racine?adjust_creative=QNZpjiWMh-xtTiixb79gYw&utm_campaign=yelp_api_v3&utm_medium=api_v3_business_search&utm_source=QNZpjiWMh-xtTiixb79gYw","7","Burgers | Sports Bars | Chicken Wings","3.5","42.808822","-87.828278","","6633 Douglas Ave"
"mpCEBocYztHh51dztDL27w","Nonna Wells Pizzeria","FALSE","https://www.yelp.com/biz/nonna-wells-pizzeria-racine?adjust_creative=QNZpjiWMh-xtTiixb79gYw&utm_campaign=yelp_api_v3&utm_medium=api_v3_business_search&utm_source=QNZpjiWMh-xtTiixb79gYw","10","Pizza | Italian | Sandwiches","3","42.7842187","-87.7959526","","1317 4 Mile Rd"
"aDESwW5CMhPZagBR48EMsw","Boosters Buoy","FALSE","https://www.yelp.com/biz/boosters-buoy-racine?adjust_creative=QNZpjiWMh-xtTiixb79gYw&utm_campaign=yelp_api_v3&utm_medium=api_v3_business_search&utm_source=QNZpjiWMh-xtTiixb79gYw","18","Bars | Burgers | Chicken Wings","4","42.73404","-87.78245","$$","209 Dodge St"
"3obkCAo_eDc2sdOCEaE7Pw","Charcoal Grill & Rotisserie","FALSE","https://www.yelp.com/biz/charcoal-grill-and-rotisserie-racine?adjust_creative=QNZpjiWMh-xtTiixb79gYw&utm_campaign=yelp_api_v3&utm_medium=api_v3_business_search&utm_source=QNZpjiWMh-xtTiixb79gYw","17","Steakhouses | American (Traditional) | Barbeque","3","42.7685509","-87.8024445","$$","3839 Douglas Ave"
"PMc-N5W5_OkGvRbJsVhIzw","Mi Tierra","FALSE","https://www.yelp.com/biz/mi-tierra-racine-2?adjust_creative=QNZpjiWMh-xtTiixb79gYw&utm_campaign=yelp_api_v3&utm_medium=api_v3_business_search&utm_source=QNZpjiWMh-xtTiixb79gYw","16","Mexican","4","42.7612669","-87.802199","$$","3408 Douglas Ave"
"HuW3fxwhszic50g0VDJusA","Gus's Gyros","FALSE","https://www.yelp.com/biz/guss-gyros-racine?adjust_creative=QNZpjiWMh-xtTiixb79gYw&utm_campaign=yelp_api_v3&utm_medium=api_v3_business_search&utm_source=QNZpjiWMh-xtTiixb79gYw","23","Burgers | Greek","3.5","42.74805","-87.79901","$","2100 Douglas Ave"
"sxH3xXCIp0MNZo15sC5dGg","Rooster's Restaurant","FALSE","https://www.yelp.com/biz/roosters-restaurant-racine-2?adjust_creative=QNZpjiWMh-xtTiixb79gYw&utm_campaign=yelp_api_v3&utm_medium=api_v3_business_search&utm_source=QNZpjiWMh-xtTiixb79gYw","11","American (Traditional) | Breakfast & Brunch","3.5","42.74539","-87.79988","$","1521 Yout St"
"IvwsxTZ13BD4fu1N3dULWA","Captain John's Sammys & Such","FALSE","https://www.yelp.com/biz/captain-johns-sammys-and-such-racine?adjust_creative=QNZpjiWMh-xtTiixb79gYw&utm_campaign=yelp_api_v3&utm_medium=api_v3_business_search&utm_source=QNZpjiWMh-xtTiixb79gYw","6","Delis | Sandwiches | American (Traditional)","5","42.7367134094238","-87.7850646972656","$","1240 N Main St"
"DMlIRb9m6_cCxBFFPZgU-Q","Infusino's Pizzeria","FALSE","https://www.yelp.com/biz/infusinos-pizzeria-racine-3?adjust_creative=QNZpjiWMh-xtTiixb79gYw&utm_campaign=yelp_api_v3&utm_medium=api_v3_business_search&utm_source=QNZpjiWMh-xtTiixb79gYw","66","Italian | Pizza","3","42.7512626647949","-87.8191452026367","$$","3225 Rapids Dr"
"HWnCGEd3nuCCxj9UzieNlQ","Park Inn","FALSE","https://www.yelp.com/biz/park-inn-racine?adjust_creative=QNZpjiWMh-xtTiixb79gYw&utm_campaign=yelp_api_v3&utm_medium=api_v3_business_search&utm_source=QNZpjiWMh-xtTiixb79gYw","11","Diners | Breakfast & Brunch | Burgers","3.5","42.7498664855957","-87.7986755371094","$","2312 Douglas Ave"
"ZI1rBTJ1ITu6hTfN_cEV5Q","Beachside Oasis","FALSE","https://www.yelp.com/biz/beachside-oasis-racine?adjust_creative=QNZpjiWMh-xtTiixb79gYw&utm_campaign=yelp_api_v3&utm_medium=api_v3_business_search&utm_source=QNZpjiWMh-xtTiixb79gYw","1","Food Stands","5","42.7510459903818","-87.7812016010284","$","2911 Michigan Blvd"
"p8HNGNnFFSI4iInnnqiKmA","Cari & Rons Cham Tap North","FALSE","https://www.yelp.com/biz/cari-and-rons-cham-tap-north-racine?adjust_creative=QNZpjiWMh-xtTiixb79gYw&utm_campaign=yelp_api_v3&utm_medium=api_v3_business_search&utm_source=QNZpjiWMh-xtTiixb79gYw","1","Tapas Bars | Pubs","5","42.7802523518477","-87.8066350957073","","4653 Douglas Ave"
"QL4weh1wyLMY6z_m4JHDjA","Taqueria Arandas Restaurant","FALSE","https://www.yelp.com/biz/taqueria-arandas-restaurant-racine?adjust_creative=QNZpjiWMh-xtTiixb79gYw&utm_campaign=yelp_api_v3&utm_medium=api_v3_business_search&utm_source=QNZpjiWMh-xtTiixb79gYw","15","Mexican","4.5","42.7337684631348","-87.7987518310547","$$","1501 Prospect St"
"7Lx-aVjLORgI-0veAeRs0Q","Cousins Subs","FALSE","https://www.yelp.com/biz/cousins-subs-caledonia-2?adjust_creative=QNZpjiWMh-xtTiixb79gYw&utm_campaign=yelp_api_v3&utm_medium=api_v3_business_search&utm_source=QNZpjiWMh-xtTiixb79gYw","1","Sandwiches | Delis","4","42.7867904487469","-87.8074224936201","","5131 Douglas Ave"
"qB_nUyT7uKby7tUqMiJcTg","Chubbies Pizzeria","FALSE","https://www.yelp.com/biz/chubbies-pizzeria-racine?adjust_creative=QNZpjiWMh-xtTiixb79gYw&utm_campaign=yelp_api_v3&utm_medium=api_v3_business_search&utm_source=QNZpjiWMh-xtTiixb79gYw","19","Pizza | Burgers | Salad","4","42.7421722412109","-87.7878875732422","$","619 High St"
"Rzuzj4-4_KRPcZ81xdRFKw","Derango's Pizza Palace and Restaurant","FALSE","https://www.yelp.com/biz/derangos-pizza-palace-and-restaurant-racine?adjust_creative=QNZpjiWMh-xtTiixb79gYw&utm_campaign=yelp_api_v3&utm_medium=api_v3_business_search&utm_source=QNZpjiWMh-xtTiixb79gYw","26","Pizza","3","42.768605","-87.802965","$","3840 Douglas Ave"
"3fifabo4Ph5jPdGrpJfp1g","Main Hub","FALSE","https://www.yelp.com/biz/main-hub-racine?adjust_creative=QNZpjiWMh-xtTiixb79gYw&utm_campaign=yelp_api_v3&utm_medium=api_v3_business_search&utm_source=QNZpjiWMh-xtTiixb79gYw","1","Sports Bars | American (New)","4","42.73697","-87.78516","$$","1300 N Main St"
"JVjxfvZp-7DUq7VeZE0fEw","John's Dock","FALSE","https://www.yelp.com/biz/johns-dock-racine-2?adjust_creative=QNZpjiWMh-xtTiixb79gYw&utm_campaign=yelp_api_v3&utm_medium=api_v3_business_search&utm_source=QNZpjiWMh-xtTiixb79gYw","35","Burgers | American (Traditional) | Bars","2.5","42.7342","-87.78384","$","303 Dodge St"
"CuN7oe5CZcxTY3KioxUuig","Stone Corral Mexican American Restaurant","FALSE","https://www.yelp.com/biz/stone-corral-mexican-american-restaurant-racine?adjust_creative=QNZpjiWMh-xtTiixb79gYw&utm_campaign=yelp_api_v3&utm_medium=api_v3_business_search&utm_source=QNZpjiWMh-xtTiixb79gYw","7","Mexican","4.5","42.7504259347916","-87.8155291825533","$$","3012 Rapids Dr"
"SRbXC7zRHL7TInIHD-suGg","Santa Fe Liquors & Grocery","FALSE","https://www.yelp.com/biz/santa-fe-liquors-and-grocery-racine?adjust_creative=QNZpjiWMh-xtTiixb79gYw&utm_campaign=yelp_api_v3&utm_medium=api_v3_business_search&utm_source=QNZpjiWMh-xtTiixb79gYw","10","Mexican | Beer, Wine & Spirits | Grocery","5","42.7424185313847","-87.7865309989944","$","516 High St"
"DKqHL9-CC7TH2wbO6Cs-1A","Rudy's","FALSE","https://www.yelp.com/biz/rudys-racine?adjust_creative=QNZpjiWMh-xtTiixb79gYw&utm_campaign=yelp_api_v3&utm_medium=api_v3_business_search&utm_source=QNZpjiWMh-xtTiixb79gYw","1","Steakhouses | Chicken Wings","4","42.7518043518066","-87.7977752685547","$","2515 Douglas Ave"
"vjC5jbWxb_6m3RuSQ6-obg","Mi Jacalito Restaurant","FALSE","https://www.yelp.com/biz/mi-jacalito-restaurant-racine-2?adjust_creative=QNZpjiWMh-xtTiixb79gYw&utm_campaign=yelp_api_v3&utm_medium=api_v3_business_search&utm_source=QNZpjiWMh-xtTiixb79gYw","6","Mexican","4.5","42.7372665405273","-87.7902603149414","","1318 Douglas Ave"
"uO2-F8XA5e5rJg8MIeVZqw","Webb George Restaurant","FALSE","https://www.yelp.com/biz/webb-george-restaurant-racine?adjust_creative=QNZpjiWMh-xtTiixb79gYw&utm_campaign=yelp_api_v3&utm_medium=api_v3_business_search&utm_source=QNZpjiWMh-xtTiixb79gYw","5","Restaurants","4","42.778553","-87.805954","$","4555 Douglas Ave"
"ShkhEzoB4IVJjMe8Vm5INQ","River Run Restaurant","FALSE","https://www.yelp.com/biz/river-run-restaurant-racine?adjust_creative=QNZpjiWMh-xtTiixb79gYw&utm_campaign=yelp_api_v3&utm_medium=api_v3_business_search&utm_source=QNZpjiWMh-xtTiixb79gYw","10","Restaurants","3.5","42.7516212","-87.8226776","$","3616 Northwestern Ave"
"Z1QZF9vp609TpzfLbooIAw","Main Moon","FALSE","https://www.yelp.com/biz/main-moon-racine?adjust_creative=QNZpjiWMh-xtTiixb79gYw&utm_campaign=yelp_api_v3&utm_medium=api_v3_business_search&utm_source=QNZpjiWMh-xtTiixb79gYw","18","Chinese","3","42.7690200805664","-87.7879867553711","$","3900 Erie St"
"ObUdG0KpO3v-Oc9saOKyLg","George's Tavern","FALSE","https://www.yelp.com/biz/georges-tavern-racine?adjust_creative=QNZpjiWMh-xtTiixb79gYw&utm_campaign=yelp_api_v3&utm_medium=api_v3_business_search&utm_source=QNZpjiWMh-xtTiixb79gYw","12","Pubs | American (Traditional) | Music Venues","3.5","42.7357177734375","-87.7844314575195","$$","1201 N Main St"
"B1tyxX5tmOftlHVbPwE3gg","2 Sheets To The Wind Pub & Grill","FALSE","https://www.yelp.com/biz/2-sheets-to-the-wind-pub-and-grill-racine-2?adjust_creative=QNZpjiWMh-xtTiixb79gYw&utm_campaign=yelp_api_v3&utm_medium=api_v3_business_search&utm_source=QNZpjiWMh-xtTiixb79gYw","2","Sports Bars | Sandwiches | Beer Gardens","2","42.759542","-87.801824","$","3316 Douglas Ave"
"I0yGFS_Fk9hv1rigtgqG0g","Derango's ""The Pizza King""","FALSE","https://www.yelp.com/biz/derangos-the-pizza-king-racine?adjust_creative=QNZpjiWMh-xtTiixb79gYw&utm_campaign=yelp_api_v3&utm_medium=api_v3_business_search&utm_source=QNZpjiWMh-xtTiixb79gYw","3","Pizza | Italian | Seafood","5","42.7392274245112","-87.7845523506403","","1439 N Main St"
"uqUqqBLcTDTAmZmopgyZ9Q","Curmudgeons Bar & Grill","FALSE","https://www.yelp.com/biz/curmudgeons-bar-and-grill-racine?adjust_creative=QNZpjiWMh-xtTiixb79gYw&utm_campaign=yelp_api_v3&utm_medium=api_v3_business_search&utm_source=QNZpjiWMh-xtTiixb79gYw","1","Bars | American (Traditional)","3","42.7523308","-87.8199921","","3458 Rapids Dr"
"CkWFzDxv8EDWqUZq6X022g","Taqueria Gran Morelos","FALSE","https://www.yelp.com/biz/taqueria-gran-morelos-racine?adjust_creative=QNZpjiWMh-xtTiixb79gYw&utm_campaign=yelp_api_v3&utm_medium=api_v3_business_search&utm_source=QNZpjiWMh-xtTiixb79gYw","9","Mexican","4","42.7353324890137","-87.7997894287109","$","1141 N Memorial Dr"
"VSvlREig4RHmQdYUJFrF9g","Papa Murphy's","FALSE","https://www.yelp.com/biz/papa-murphys-racine-2?adjust_creative=QNZpjiWMh-xtTiixb79gYw&utm_campaign=yelp_api_v3&utm_medium=api_v3_business_search&utm_source=QNZpjiWMh-xtTiixb79gYw","1","Pizza","4","42.7880844","-87.810661","$","5121 Douglas Avenue"
"iljyVNVAKnhD9hqjZ70YnQ","Subway","FALSE","https://www.yelp.com/biz/subway-oak-creek-4?adjust_creative=QNZpjiWMh-xtTiixb79gYw&utm_campaign=yelp_api_v3&utm_medium=api_v3_business_search&utm_source=QNZpjiWMh-xtTiixb79gYw","2","Sandwiches | Fast Food","4.5","42.849796","-87.853126","$","10670 S Chicago Rd"
"qq9Amy2i9pQfAbHYVC8sqA","Arby's","FALSE","https://www.yelp.com/biz/arbys-racine?adjust_creative=QNZpjiWMh-xtTiixb79gYw&utm_campaign=yelp_api_v3&utm_medium=api_v3_business_search&utm_source=QNZpjiWMh-xtTiixb79gYw","3","Fast Food | Sandwiches","4.5","42.7569008","-87.8007965","","3048 Douglas Ave"
"MmnRbOB_GuBUQfYuK6Qfrg","McDonald's","FALSE","https://www.yelp.com/biz/mcdonalds-caledonia-2?adjust_creative=QNZpjiWMh-xtTiixb79gYw&utm_campaign=yelp_api_v3&utm_medium=api_v3_business_search&utm_source=QNZpjiWMh-xtTiixb79gYw","13","Fast Food | Burgers | Coffee & Tea","1.5","42.7870365","-87.809712","$","5125 Douglas Ave"
"Tg9vP99hcn3pSvxqi1kjjw","Burger King","FALSE","https://www.yelp.com/biz/burger-king-racine?adjust_creative=QNZpjiWMh-xtTiixb79gYw&utm_campaign=yelp_api_v3&utm_medium=api_v3_business_search&utm_source=QNZpjiWMh-xtTiixb79gYw","4","Burgers | Fast Food","3","42.7625885","-87.8024521","$","3456 Douglas Ave"
"EJbYRuJ_lN-QQas_kaGliQ","Domino's Pizza","FALSE","https://www.yelp.com/biz/dominos-pizza-racine?adjust_creative=QNZpjiWMh-xtTiixb79gYw&utm_campaign=yelp_api_v3&utm_medium=api_v3_business_search&utm_source=QNZpjiWMh-xtTiixb79gYw","5","Pizza | Chicken Wings | Sandwiches","3","42.7668953","-87.8022156","$","3743 Douglas Ave"
"mFs5MS9IH1AaghfrhZut7A","George Webb Restaurants","FALSE","https://www.yelp.com/biz/george-webb-restaurants-caledonia?adjust_creative=QNZpjiWMh-xtTiixb79gYw&utm_campaign=yelp_api_v3&utm_medium=api_v3_business_search&utm_source=QNZpjiWMh-xtTiixb79gYw","4","Restaurants","3","42.778553","-87.805954","","4555 Douglas Ave"
"BtxVRJs1YGciZfIkjzVYog","Taco Bell","FALSE","https://www.yelp.com/biz/taco-bell-racine?adjust_creative=QNZpjiWMh-xtTiixb79gYw&utm_campaign=yelp_api_v3&utm_medium=api_v3_business_search&utm_source=QNZpjiWMh-xtTiixb79gYw","3","Mexican | Tex-Mex | Fast Food","1.5","42.760145","-87.801649","$$","3358 Douglas Avenue"
"smJ4e7bg5WvqR1-GgLUYsQ","J Q Foxes","FALSE","https://www.yelp.com/biz/j-q-foxes-sturtevant?adjust_creative=QNZpjiWMh-xtTiixb79gYw&utm_campaign=yelp_api_v3&utm_medium=api_v3_business_search&utm_source=QNZpjiWMh-xtTiixb79gYw","4","Pizza | Chicken Wings","4","42.70032","-87.9044","$","2835 Wisconsin St"
"KfM3xR2DH3u18TMRu6ygJg","Burger King","FALSE","https://www.yelp.com/biz/burger-king-sturtevant?adjust_creative=QNZpjiWMh-xtTiixb79gYw&utm_campaign=yelp_api_v3&utm_medium=api_v3_business_search&utm_source=QNZpjiWMh-xtTiixb79gYw","11","Burgers","1.5","42.72562","-87.95108","$","13348 Washington Ave"
"ckoIp7CWlu7NiV8f0qscBw","Subway","FALSE","https://www.yelp.com/biz/subway-sturtevant-2?adjust_creative=QNZpjiWMh-xtTiixb79gYw&utm_campaign=yelp_api_v3&utm_medium=api_v3_business_search&utm_source=QNZpjiWMh-xtTiixb79gYw","8","Sandwiches | Fast Food","3.5","42.72524","-87.95745","$","734 S Sylvania Ave"
"guf32z8Ts7NHBx1Uw7C3tg","McDonald's","FALSE","https://www.yelp.com/biz/mcdonalds-mt-pleasant-6?adjust_creative=QNZpjiWMh-xtTiixb79gYw&utm_campaign=yelp_api_v3&utm_medium=api_v3_business_search&utm_source=QNZpjiWMh-xtTiixb79gYw","7","Burgers | Fast Food | Coffee & Tea","1.5","42.7239042553111","-87.9506206512451","$","13343 Washington Ave"
"kc5QlhRapZGbIK53bMenxQ","Wendy's","FALSE","https://www.yelp.com/biz/wendys-sturtevant?adjust_creative=QNZpjiWMh-xtTiixb79gYw&utm_campaign=yelp_api_v3&utm_medium=api_v3_business_search&utm_source=QNZpjiWMh-xtTiixb79gYw","7","Burgers | Fast Food","1.5","42.7298583984375","-87.9549942016602","","611 S Sylvania Ave"
"jsepDAkE5vZFOX-HJe28zA","Butcher & Barrel Gastropub","FALSE","https://www.yelp.com/biz/butcher-and-barrel-gastropub-racine?adjust_creative=QNZpjiWMh-xtTiixb79gYw&utm_campaign=yelp_api_v3&utm_medium=api_v3_business_search&utm_source=QNZpjiWMh-xtTiixb79gYw","24","Steakhouses | Gastropubs | Seafood","4.5","42.7268733050482","-87.7841007288361","$$$","300 6th St"
"QuunLP9r-0U6QAxZKsgEiw","Olde Madrid","FALSE","https://www.yelp.com/biz/olde-madrid-racine?adjust_creative=QNZpjiWMh-xtTiixb79gYw&utm_campaign=yelp_api_v3&utm_medium=api_v3_business_search&utm_source=QNZpjiWMh-xtTiixb79gYw","120","Spanish | Basque | Tapas/Small Plates","4.5","42.7265536","-87.7857899","$$","418 6th St"
"fumh0_N9Z7cjjp_poNKFDw","Reefpoint Brew House","FALSE","https://www.yelp.com/biz/reefpoint-brew-house-racine?adjust_creative=QNZpjiWMh-xtTiixb79gYw&utm_campaign=yelp_api_v3&utm_medium=api_v3_business_search&utm_source=QNZpjiWMh-xtTiixb79gYw","118","American (New) | Beer Bar | Barbeque","3.5","42.7303802461312","-87.7756527811289","$$","2 Christopher Columbus Causeway"
"M_jMyHhe-eoRspILe4ykHg","Toad Hall","FALSE","https://www.yelp.com/biz/toad-hall-racine?adjust_creative=QNZpjiWMh-xtTiixb79gYw&utm_campaign=yelp_api_v3&utm_medium=api_v3_business_search&utm_source=QNZpjiWMh-xtTiixb79gYw","41","Bars | British","4","42.726421","-87.783607","$$","611 Wisconsin Ave"
"NB4h5aarOH6GPZs7qctjNA","Asiana Asian Cuisine Restaurant","FALSE","https://www.yelp.com/biz/asiana-asian-cuisine-restaurant-racine?adjust_creative=QNZpjiWMh-xtTiixb79gYw&utm_campaign=yelp_api_v3&utm_medium=api_v3_business_search&utm_source=QNZpjiWMh-xtTiixb79gYw","69","Korean | Asian Fusion","4.5","42.72629","-87.78587","$$","423 6th St"
"_eKrzKTqP0442lDfMHK9Zg","Wells Brothers Restaurant","FALSE","https://www.yelp.com/biz/wells-brothers-restaurant-racine?adjust_creative=QNZpjiWMh-xtTiixb79gYw&utm_campaign=yelp_api_v3&utm_medium=api_v3_business_search&utm_source=QNZpjiWMh-xtTiixb79gYw","182","Pizza | Italian","4.5","42.702693939209","-87.7928237915039","$$","2148 Mead St"
"MgBf4beoI5o791u3Yhfuww","Red Onion Cafe","FALSE","https://www.yelp.com/biz/red-onion-cafe-racine?adjust_creative=QNZpjiWMh-xtTiixb79gYw&utm_campaign=yelp_api_v3&utm_medium=api_v3_business_search&utm_source=QNZpjiWMh-xtTiixb79gYw","22","Breakfast & Brunch | Sandwiches","4","42.72765","-87.78231","$","555 Main St"
"-LpLpNj503F7UAitzwUBpQ","Mrs. Betty's Kitchen","FALSE","https://www.yelp.com/biz/mrs-bettys-kitchen-racine?adjust_creative=QNZpjiWMh-xtTiixb79gYw&utm_campaign=yelp_api_v3&utm_medium=api_v3_business_search&utm_source=QNZpjiWMh-xtTiixb79gYw","5","Soul Food | Breakfast & Brunch","4","42.72986","-87.78301","$","327 Main St"
"rEFJ9s6X5YnH7F_fwhou9w","Kabab And Grill","FALSE","https://www.yelp.com/biz/kabab-and-grill-racine?adjust_creative=QNZpjiWMh-xtTiixb79gYw&utm_campaign=yelp_api_v3&utm_medium=api_v3_business_search&utm_source=QNZpjiWMh-xtTiixb79gYw","21","Pakistani","5","42.71623","-87.79589","$$","1327 Washington Ave"
"UsNbnSPCAIDxVvGyP96fVQ","Nino's 911 Tacos","FALSE","https://www.yelp.com/biz/ninos-911-tacos-racine-2?adjust_creative=QNZpjiWMh-xtTiixb79gYw&utm_campaign=yelp_api_v3&utm_medium=api_v3_business_search&utm_source=QNZpjiWMh-xtTiixb79gYw","27","Mexican | Tex-Mex","4.5","42.72384","-87.78219","$","817 Main St"
"XhF1Ep3B-fcot5rs7DXlig","Out of the Pan","FALSE","https://www.yelp.com/biz/out-of-the-pan-racine?adjust_creative=QNZpjiWMh-xtTiixb79gYw&utm_campaign=yelp_api_v3&utm_medium=api_v3_business_search&utm_source=QNZpjiWMh-xtTiixb79gYw","47","Sandwiches | Desserts | Soup","3.5","42.7317649","-87.7864533","$$","550 State St"
"FLf8xF_vP4FzSyz7nlLy3w","Sticky Rice","FALSE","https://www.yelp.com/biz/sticky-rice-racine-2?adjust_creative=QNZpjiWMh-xtTiixb79gYw&utm_campaign=yelp_api_v3&utm_medium=api_v3_business_search&utm_source=QNZpjiWMh-xtTiixb79gYw","21","Thai","4.5","42.7266616821289","-87.7831192016602","$$","203 6th St"
"jMe2c7hD_ISKPmfpZp042Q","Robert's Roost","FALSE","https://www.yelp.com/biz/roberts-roost-racine?adjust_creative=QNZpjiWMh-xtTiixb79gYw&utm_campaign=yelp_api_v3&utm_medium=api_v3_business_search&utm_source=QNZpjiWMh-xtTiixb79gYw","63","Breakfast & Brunch | American (Traditional)","3.5","42.7265319824219","-87.7873458862305","$$","600 Sixth St"
"KcQ0tPGgIDCHAHIOIP7dlg","The Nash","FALSE","https://www.yelp.com/biz/the-nash-racine?adjust_creative=QNZpjiWMh-xtTiixb79gYw&utm_campaign=yelp_api_v3&utm_medium=api_v3_business_search&utm_source=QNZpjiWMh-xtTiixb79gYw","20","American (Traditional) | Bars","3.5","42.72663","-87.78636","$$","522 6th St"
"0VsDyR-VkycBmSRkMrnCzQ","A Little R&R Cafe","FALSE","https://www.yelp.com/biz/a-little-r-and-r-cafe-racine?adjust_creative=QNZpjiWMh-xtTiixb79gYw&utm_campaign=yelp_api_v3&utm_medium=api_v3_business_search&utm_source=QNZpjiWMh-xtTiixb79gYw","10","Cafes | Breakfast & Brunch","4.5","42.7262793","-87.7836436","$","619 Wisconsin Ave"
"fqhj95PSPAlXOtCkr0HzqQ","Yardarm Bar & Grill","FALSE","https://www.yelp.com/biz/yardarm-bar-and-grill-racine?adjust_creative=QNZpjiWMh-xtTiixb79gYw&utm_campaign=yelp_api_v3&utm_medium=api_v3_business_search&utm_source=QNZpjiWMh-xtTiixb79gYw","78","Bars | Seafood","3.5","42.7326126098633","-87.7874298095703","$$","920 Erie St"
"lqdE04-mXSuZ49UgIuUqSQ","Vero International Cuisine","FALSE","https://www.yelp.com/biz/vero-international-cuisine-racine?adjust_creative=QNZpjiWMh-xtTiixb79gYw&utm_campaign=yelp_api_v3&utm_medium=api_v3_business_search&utm_source=QNZpjiWMh-xtTiixb79gYw","31","African | Caribbean | Seafood","3.5","42.72658","-87.78329","$$","211 6th St"
"vl_JEbSH-Ly2tQhcVf6YAQ","Salute","FALSE","https://www.yelp.com/biz/salute-racine?adjust_creative=QNZpjiWMh-xtTiixb79gYw&utm_campaign=yelp_api_v3&utm_medium=api_v3_business_search&utm_source=QNZpjiWMh-xtTiixb79gYw","69","Italian","3.5","42.7300404","-87.7835983","$$","314 Main St"
"JM1dU04g7Uq7DE3F-o-4Og","Third Coast Woodfire Pizza and Pub","FALSE","https://www.yelp.com/biz/third-coast-woodfire-pizza-and-pub-racine?adjust_creative=QNZpjiWMh-xtTiixb79gYw&utm_campaign=yelp_api_v3&utm_medium=api_v3_business_search&utm_source=QNZpjiWMh-xtTiixb79gYw","50","Pizza | Pubs | Breakfast & Brunch","2.5","42.73186","-87.77995","$$","207 Gaslight Cir"
"rj1bJ48x0feD_1MAD9XWDQ","Krung Thai Restaurant","FALSE","https://www.yelp.com/biz/krung-thai-restaurant-racine?adjust_creative=QNZpjiWMh-xtTiixb79gYw&utm_campaign=yelp_api_v3&utm_medium=api_v3_business_search&utm_source=QNZpjiWMh-xtTiixb79gYw","28","Thai","4","42.7262001037598","-87.7867431640625","$$","515 Sixth St"
"prhNOGqTwBQ9ZsIXnnsjLg","Brass Monkey","FALSE","https://www.yelp.com/biz/brass-monkey-racine?adjust_creative=QNZpjiWMh-xtTiixb79gYw&utm_campaign=yelp_api_v3&utm_medium=api_v3_business_search&utm_source=QNZpjiWMh-xtTiixb79gYw","7","Pubs | Dance Clubs | American (New)","4.5","42.71439","-87.79685","$","1436 Junction Ave"
"kmu97jod9liAbACzQkGtYg","Ivanhoe Pub & Eatery","FALSE","https://www.yelp.com/biz/ivanhoe-pub-and-eatery-racine?adjust_creative=QNZpjiWMh-xtTiixb79gYw&utm_campaign=yelp_api_v3&utm_medium=api_v3_business_search&utm_source=QNZpjiWMh-xtTiixb79gYw","61","Pubs | American (Traditional)","3.5","42.7312088012695","-87.7832870483398","$$","231 Main St"
"BPdmYCWltILac2n1hr4vvA","La Tapatia","FALSE","https://www.yelp.com/biz/la-tapatia-racine?adjust_creative=QNZpjiWMh-xtTiixb79gYw&utm_campaign=yelp_api_v3&utm_medium=api_v3_business_search&utm_source=QNZpjiWMh-xtTiixb79gYw","40","Mexican","4.5","42.70615","-87.79221","$","1951 Mead St"
"SHwy1-dDUwp10-s8b7SbZw","Divino Gelato Cafe","FALSE","https://www.yelp.com/biz/divino-gelato-cafe-racine?adjust_creative=QNZpjiWMh-xtTiixb79gYw&utm_campaign=yelp_api_v3&utm_medium=api_v3_business_search&utm_source=QNZpjiWMh-xtTiixb79gYw","24","Gelato | Cafes","4","42.730894","-87.783222","$","245 Main St"
"v20aSeai8t1UBzkzi92N6g","Pizza Chef","FALSE","https://www.yelp.com/biz/pizza-chef-racine?adjust_creative=QNZpjiWMh-xtTiixb79gYw&utm_campaign=yelp_api_v3&utm_medium=api_v3_business_search&utm_source=QNZpjiWMh-xtTiixb79gYw","8","Pizza","4","42.7310989783126","-87.7835635090838","$$","235 Main St"
"eWQAZKZ5oJaIfeHXYInfQA","McDonald's","FALSE","https://www.yelp.com/biz/mcdonalds-racine-10?adjust_creative=QNZpjiWMh-xtTiixb79gYw&utm_campaign=yelp_api_v3&utm_medium=api_v3_business_search&utm_source=QNZpjiWMh-xtTiixb79gYw","5","Burgers | Fast Food | Coffee & Tea","1.5","42.7565979685909","-87.7994003891945","$$$$","3037 N Douglas Ave"
"oaeLeP1Lwb00lqz1CIMqnQ","KFC","FALSE","https://www.yelp.com/biz/kfc-racine?adjust_creative=QNZpjiWMh-xtTiixb79gYw&utm_campaign=yelp_api_v3&utm_medium=api_v3_business_search&utm_source=QNZpjiWMh-xtTiixb79gYw","7","Fast Food | Chicken Wings | Chicken Shop","2","42.7583","-87.8009","","3212 Douglas Ave"
"-We2K6zOCxXJFmVSZbLyRQ","Yellow Ginger Chinese Restaurant","FALSE","https://www.yelp.com/biz/yellow-ginger-chinese-restaurant-racine?adjust_creative=QNZpjiWMh-xtTiixb79gYw&utm_campaign=yelp_api_v3&utm_medium=api_v3_business_search&utm_source=QNZpjiWMh-xtTiixb79gYw","3","Chinese","2.5","42.748539","-87.8100662","$","2400 Rapids Dr"
"lr9hu7_cEFk8NltJbFvqeg","Pizza Hut","FALSE","https://www.yelp.com/biz/pizza-hut-racine?adjust_creative=QNZpjiWMh-xtTiixb79gYw&utm_campaign=yelp_api_v3&utm_medium=api_v3_business_search&utm_source=QNZpjiWMh-xtTiixb79gYw","8","Pizza | Italian | Chicken Wings","1","42.7505913","-87.7978973","$$","2401 Douglas Ave"
"Dnsxt7N2gzFxVfMCPOTm5Q","DeRango's Pizza Delivery","FALSE","https://www.yelp.com/biz/derangos-pizza-delivery-racine?adjust_creative=QNZpjiWMh-xtTiixb79gYw&utm_campaign=yelp_api_v3&utm_medium=api_v3_business_search&utm_source=QNZpjiWMh-xtTiixb79gYw","21","Italian | Pizza","4","42.7198333740234","-87.8548736572266","$$","6100 Washington Ave"
"quBS1AIzGCtLg0r9RyYOKQ","Noodles & Company","FALSE","https://www.yelp.com/biz/noodles-and-company-mt-pleasant-2?adjust_creative=QNZpjiWMh-xtTiixb79gYw&utm_campaign=yelp_api_v3&utm_medium=api_v3_business_search&utm_source=QNZpjiWMh-xtTiixb79gYw","14","Noodles","2.5","42.71954","-87.8489","$$","5720 Washington Ave"
"I3NE_Vx4DXkgLxZCJDotJg","Blaze Fast-Fire'd Pizza","FALSE","https://www.yelp.com/biz/blaze-fast-fired-pizza-mt-pleasant?adjust_creative=QNZpjiWMh-xtTiixb79gYw&utm_campaign=yelp_api_v3&utm_medium=api_v3_business_search&utm_source=QNZpjiWMh-xtTiixb79gYw","28","Salad | Fast Food | Pizza","4","42.718461817672","-87.8457819891755","$","Green Bay Rd and Washington Ave"
"C8QcKcC-W0uHK0qTiyey_A","Panera Bread","FALSE","https://www.yelp.com/biz/panera-bread-racine?adjust_creative=QNZpjiWMh-xtTiixb79gYw&utm_campaign=yelp_api_v3&utm_medium=api_v3_business_search&utm_source=QNZpjiWMh-xtTiixb79gYw","17","Sandwiches | Salad | Soup","3.5","42.7215037537927","-87.8487230964288","$$","5630 Washington Ave"
"Nr8v5Luo5I7EDwcsczvdkQ","Scores Sports Bar & Grill","FALSE","https://www.yelp.com/biz/scores-sports-bar-and-grill-racine?adjust_creative=QNZpjiWMh-xtTiixb79gYw&utm_campaign=yelp_api_v3&utm_medium=api_v3_business_search&utm_source=QNZpjiWMh-xtTiixb79gYw","29","Sports Bars | American (Traditional)","3","42.7184251","-87.83883","$","4915 Washington Ave"
"3Nbu607CASau9Qa1iLxnBg","Chick-fil-A","FALSE","https://www.yelp.com/biz/chick-fil-a-mount-pleasant-3?adjust_creative=QNZpjiWMh-xtTiixb79gYw&utm_campaign=yelp_api_v3&utm_medium=api_v3_business_search&utm_source=QNZpjiWMh-xtTiixb79gYw","17","Fast Food","4.5","42.718417","-87.843475","$","5315 Washington Ave"
"HtOBcDSbySky-DbqNKwq-w","Potbelly Sandwich Shop","FALSE","https://www.yelp.com/biz/potbelly-sandwich-shop-mount-pleasant?adjust_creative=QNZpjiWMh-xtTiixb79gYw&utm_campaign=yelp_api_v3&utm_medium=api_v3_business_search&utm_source=QNZpjiWMh-xtTiixb79gYw","3","Sandwiches","3.5","42.7195962411486","-87.8526020050049","$","5930 Washington Ave"
"Nuymf7MOT36_sQWpBEFc1Q","Firehouse Subs","FALSE","https://www.yelp.com/biz/firehouse-subs-mt-pleasant-3?adjust_creative=QNZpjiWMh-xtTiixb79gYw&utm_campaign=yelp_api_v3&utm_medium=api_v3_business_search&utm_source=QNZpjiWMh-xtTiixb79gYw","11","Fast Food | Delis | Sandwiches","3.5","42.719852","-87.853454","$$","6012 Washington Ave"
"Q22f2EvU5Bh9x9lTnbLXrg","Denny's","FALSE","https://www.yelp.com/biz/dennys-racine?adjust_creative=QNZpjiWMh-xtTiixb79gYw&utm_campaign=yelp_api_v3&utm_medium=api_v3_business_search&utm_source=QNZpjiWMh-xtTiixb79gYw","24","Diners | American (Traditional) | Breakfast & Brunch","2.5","42.7184713297329","-87.8470243513584","$","5501 Washington Ave"
"SMFT0Z45MOAhE8CVtA2sPg","Los Mariachis Mexican Restaurant","FALSE","https://www.yelp.com/biz/los-mariachis-mexican-restaurant-racine?adjust_creative=QNZpjiWMh-xtTiixb79gYw&utm_campaign=yelp_api_v3&utm_medium=api_v3_business_search&utm_source=QNZpjiWMh-xtTiixb79gYw","20","Mexican","3","42.7183837890625","-87.8509674072266","$$","5821 Washington Ave"
"HuZD9_pSrNqehjKmqhghTA","Tony Chen's","FALSE","https://www.yelp.com/biz/tony-chens-racine?adjust_creative=QNZpjiWMh-xtTiixb79gYw&utm_campaign=yelp_api_v3&utm_medium=api_v3_business_search&utm_source=QNZpjiWMh-xtTiixb79gYw","17","Chinese","3","42.71899","-87.83646","$","4700 Washington Ave"
"BLKwJWhm0Aoj4uF8KKt3IA","AA Supreme Buffet","FALSE","https://www.yelp.com/biz/aa-supreme-buffet-racine?adjust_creative=QNZpjiWMh-xtTiixb79gYw&utm_campaign=yelp_api_v3&utm_medium=api_v3_business_search&utm_source=QNZpjiWMh-xtTiixb79gYw","7","Buffets | Chinese | Bubble Tea","3.5","42.7172539254199","-87.8371843323112","","4901 Washington Ave"
"RauCECAFwYVAsew_nfyqtQ","Applebee's Grill + Bar","FALSE","https://www.yelp.com/biz/applebees-grill-bar-racine?adjust_creative=QNZpjiWMh-xtTiixb79gYw&utm_campaign=yelp_api_v3&utm_medium=api_v3_business_search&utm_source=QNZpjiWMh-xtTiixb79gYw","31","American (Traditional) | Sports Bars | Burgers","1.5","42.700995","-87.85267","$$","2521 S Green Bay Rd"
"_BkSvuzRMSh3jNOmuaDcUA","Wingstop","FALSE","https://www.yelp.com/biz/wingstop-racine?adjust_creative=QNZpjiWMh-xtTiixb79gYw&utm_campaign=yelp_api_v3&utm_medium=api_v3_business_search&utm_source=QNZpjiWMh-xtTiixb79gYw","12","Chicken Wings","3","42.718940153718","-87.8447384387255","$$","5400 Washington Ave"
"GjyQ3wb1Sm94WZX9b6-gbw","Rocky Rococo","FALSE","https://www.yelp.com/biz/rocky-rococo-racine?adjust_creative=QNZpjiWMh-xtTiixb79gYw&utm_campaign=yelp_api_v3&utm_medium=api_v3_business_search&utm_source=QNZpjiWMh-xtTiixb79gYw","13","Pizza","3","42.7183647155762","-87.8626861572266","$","6631 Washington Ave"
"62wdrYOom7fzdcUQ_CitOg","Main Moon 2","FALSE","https://www.yelp.com/biz/main-moon-2-racine?adjust_creative=QNZpjiWMh-xtTiixb79gYw&utm_campaign=yelp_api_v3&utm_medium=api_v3_business_search&utm_source=QNZpjiWMh-xtTiixb79gYw","16","Chinese","3","42.717963","-87.838829","$$","4915 Washington Ave"
"RV3CYb8ZAim6_DVVttZrhA","Cousins Subs","FALSE","https://www.yelp.com/biz/cousins-subs-racine-3?adjust_creative=QNZpjiWMh-xtTiixb79gYw&utm_campaign=yelp_api_v3&utm_medium=api_v3_business_search&utm_source=QNZpjiWMh-xtTiixb79gYw","5","Sandwiches | Delis","2.5","42.7022074","-87.8543638","$","6100 Regency W Dr"
"PSUPyqHcH-LOAVXnde565g","Culver's","FALSE","https://www.yelp.com/biz/culvers-racine-2?adjust_creative=QNZpjiWMh-xtTiixb79gYw&utm_campaign=yelp_api_v3&utm_medium=api_v3_business_search&utm_source=QNZpjiWMh-xtTiixb79gYw","17","Burgers | Fast Food | Ice Cream & Frozen Yogurt","3.5","42.704533","-87.849966","$","5801 21st St"
"FmfEcsoBpdXv9uVf8iPbzA","Jimmy John's","FALSE","https://www.yelp.com/biz/jimmy-johns-mount-pleasant-6?adjust_creative=QNZpjiWMh-xtTiixb79gYw&utm_campaign=yelp_api_v3&utm_medium=api_v3_business_search&utm_source=QNZpjiWMh-xtTiixb79gYw","6","Delis | Sandwiches | Fast Food","1.5","42.719524","-87.846281","","5502 Washington Ave"
"kN5TJZPEw7jvFbFdfJS6sg","Toppers Pizza","FALSE","https://www.yelp.com/biz/toppers-pizza-racine-4?adjust_creative=QNZpjiWMh-xtTiixb79gYw&utm_campaign=yelp_api_v3&utm_medium=api_v3_business_search&utm_source=QNZpjiWMh-xtTiixb79gYw","5","Pizza","3","42.719784","-87.846176","","5502 Washington Ave"
"Trjq6izXuWkW9AN1QT8CaQ","McDonald's","FALSE","https://www.yelp.com/biz/mcdonalds-racine-2?adjust_creative=QNZpjiWMh-xtTiixb79gYw&utm_campaign=yelp_api_v3&utm_medium=api_v3_business_search&utm_source=QNZpjiWMh-xtTiixb79gYw","6","Fast Food | Burgers | Coffee & Tea","3","42.720402","-87.862451","$","6630 Washington Ave"
"nwryuzs0kZcmwe8lx4i1yw","Papa Murphy's","FALSE","https://www.yelp.com/biz/papa-murphys-racine-3?adjust_creative=QNZpjiWMh-xtTiixb79gYw&utm_campaign=yelp_api_v3&utm_medium=api_v3_business_search&utm_source=QNZpjiWMh-xtTiixb79gYw","3","Pizza","3.5","42.71899","-87.83646","","4700 Washington Avenue"
"LCbh7pcGfScbZKBwffahuQ","Chipotle Mexican Grill","FALSE","https://www.yelp.com/biz/chipotle-mexican-grill-mt-pleasant?adjust_creative=QNZpjiWMh-xtTiixb79gYw&utm_campaign=yelp_api_v3&utm_medium=api_v3_business_search&utm_source=QNZpjiWMh-xtTiixb79gYw","17","Mexican | Fast Food","2.5","42.71954","-87.8489","$","5720 Washington Ave"
"_JFuK1XpUcHNu2uBw0hSAw","Burger King","FALSE","https://www.yelp.com/biz/burger-king-racine-3?adjust_creative=QNZpjiWMh-xtTiixb79gYw&utm_campaign=yelp_api_v3&utm_medium=api_v3_business_search&utm_source=QNZpjiWMh-xtTiixb79gYw","2","Burgers","1","42.720169","-87.865067","$","6840 Washington Ave"
"YS9z8__6a1QbA43F0xu5LQ","Wendy's","FALSE","https://www.yelp.com/biz/wendys-racine?adjust_creative=QNZpjiWMh-xtTiixb79gYw&utm_campaign=yelp_api_v3&utm_medium=api_v3_business_search&utm_source=QNZpjiWMh-xtTiixb79gYw","4","Burgers | Fast Food","3","42.7190971374512","-87.8383865356445","$$","4910 Washington Ave"
"Kxtw0kdxWvRPw_79uAEbFg","Panda Express","FALSE","https://www.yelp.com/biz/panda-express-racine?adjust_creative=QNZpjiWMh-xtTiixb79gYw&utm_campaign=yelp_api_v3&utm_medium=api_v3_business_search&utm_source=QNZpjiWMh-xtTiixb79gYw","12","Chinese | Fast Food","1.5","42.7183486100078","-87.8451035544276","$","5417 Washington Ave"
"iu9PnYDNTuC00yfvn9-sEg","Hardee's","FALSE","https://www.yelp.com/biz/hardees-racine?adjust_creative=QNZpjiWMh-xtTiixb79gYw&utm_campaign=yelp_api_v3&utm_medium=api_v3_business_search&utm_source=QNZpjiWMh-xtTiixb79gYw","3","Fast Food","2.5","42.7179946899414","-87.8460159301758","$","1235 S Green Bay Rd"
"WKw_w1KDftJrpQnc6_n1Jw","New Buffet","FALSE","https://www.yelp.com/biz/new-buffet-racine?adjust_creative=QNZpjiWMh-xtTiixb79gYw&utm_campaign=yelp_api_v3&utm_medium=api_v3_business_search&utm_source=QNZpjiWMh-xtTiixb79gYw","3","Chinese","2.5","42.7025261","-87.852356","$$","2409 S Greenbay Rd"
"7ElH3hrb8LBmsxqm9J3PKA","Taco Bell","FALSE","https://www.yelp.com/biz/taco-bell-racine-4?adjust_creative=QNZpjiWMh-xtTiixb79gYw&utm_campaign=yelp_api_v3&utm_medium=api_v3_business_search&utm_source=QNZpjiWMh-xtTiixb79gYw","6","Mexican | Tex-Mex | Fast Food","1.5","42.718841","-87.847951","$","5620 Washington Ave"
"ezZlZawrv4_z9CXunl3R_A","Domino's Pizza","FALSE","https://www.yelp.com/biz/dominos-pizza-racine-2?adjust_creative=QNZpjiWMh-xtTiixb79gYw&utm_campaign=yelp_api_v3&utm_medium=api_v3_business_search&utm_source=QNZpjiWMh-xtTiixb79gYw","3","Pizza | Chicken Wings | Sandwiches","3.5","42.719059","-87.84095","$","5100 Washington Ave"
"TpTQqoNoF5eRYMIE1U6T4w","Pizza Hut","FALSE","https://www.yelp.com/biz/pizza-hut-racine-2?adjust_creative=QNZpjiWMh-xtTiixb79gYw&utm_campaign=yelp_api_v3&utm_medium=api_v3_business_search&utm_source=QNZpjiWMh-xtTiixb79gYw","10","Pizza | Italian | Chicken Wings","1.5","42.7191314697266","-87.839729309082","$","5000 Washington Ave"
"EVbuX9ru95MqDMErMwWAuw","Dairy Queen","FALSE","https://www.yelp.com/biz/dairy-queen-racine-2?adjust_creative=QNZpjiWMh-xtTiixb79gYw&utm_campaign=yelp_api_v3&utm_medium=api_v3_business_search&utm_source=QNZpjiWMh-xtTiixb79gYw","7","Fast Food","1.5","42.7208976745605","-87.8688888549805","$","7106 Washington Ave"
"ubwwWkoihW2F2H7gHZNXOw","GFS Marketplace","FALSE","https://www.yelp.com/biz/gfs-marketplace-racine?adjust_creative=QNZpjiWMh-xtTiixb79gYw&utm_campaign=yelp_api_v3&utm_medium=api_v3_business_search&utm_source=QNZpjiWMh-xtTiixb79gYw","1","Grocery | Restaurants","3","42.72045","-87.84442","","1025 S Green Bay Rd"
"Tm2FE4IVV6aWUhLun3RQEQ","KFC","FALSE","https://www.yelp.com/biz/kfc-racine-2?adjust_creative=QNZpjiWMh-xtTiixb79gYw&utm_campaign=yelp_api_v3&utm_medium=api_v3_business_search&utm_source=QNZpjiWMh-xtTiixb79gYw","3","Fast Food | Chicken Wings | Chicken Shop","2","42.7069","-87.8511","","2090 S Green Bay Rd"
"RL7Ogh081s9zCYamlQ0N0Q","McDonald's","FALSE","https://www.yelp.com/biz/mcdonalds-racine?adjust_creative=QNZpjiWMh-xtTiixb79gYw&utm_campaign=yelp_api_v3&utm_medium=api_v3_business_search&utm_source=QNZpjiWMh-xtTiixb79gYw","9","Fast Food | Burgers | Coffee & Tea","1.5","42.7020058979471","-87.8534643352032","$","2610 S Green Bay Rd"
"MN4-PdX-IEhtT6bEvHZPGQ","Subway","FALSE","https://www.yelp.com/biz/subway-mount-pleasant-23?adjust_creative=QNZpjiWMh-xtTiixb79gYw&utm_campaign=yelp_api_v3&utm_medium=api_v3_business_search&utm_source=QNZpjiWMh-xtTiixb79gYw","3","Sandwiches | Fast Food","3.5","42.7193527","-87.8541718","$","6050 Washington Ave"
"LONuOL7K7shvM3qhsT0kyg","Kewpee Lunch","FALSE","https://www.yelp.com/biz/kewpee-lunch-racine-2?adjust_creative=QNZpjiWMh-xtTiixb79gYw&utm_campaign=yelp_api_v3&utm_medium=api_v3_business_search&utm_source=QNZpjiWMh-xtTiixb79gYw","86","Fast Food | Burgers | Sandwiches","4","42.72714","-87.78431","$","520 Wisconsin Ave"
"207hKhs0l9b15WO7BVMRyw","Dewey's Restaurant and Sports Bar","FALSE","https://www.yelp.com/biz/deweys-restaurant-and-sports-bar-racine?adjust_creative=QNZpjiWMh-xtTiixb79gYw&utm_campaign=yelp_api_v3&utm_medium=api_v3_business_search&utm_source=QNZpjiWMh-xtTiixb79gYw","37","Sports Bars | American (New) | Sandwiches","3.5","42.7267390546306","-87.7827922982527","$","600 Main St"
"P7HHSNog4FUgdcjFitXCEw","Pepi's Pub and Grill","FALSE","https://www.yelp.com/biz/pepis-pub-and-grill-racine?adjust_creative=QNZpjiWMh-xtTiixb79gYw&utm_campaign=yelp_api_v3&utm_medium=api_v3_business_search&utm_source=QNZpjiWMh-xtTiixb79gYw","18","Pubs | American (Traditional)","4","42.72657","-87.78806","$","618 6th St"
"Al4_plG-DPTrUJDZ7yOX-g","Shogun","FALSE","https://www.yelp.com/biz/shogun-racine?adjust_creative=QNZpjiWMh-xtTiixb79gYw&utm_campaign=yelp_api_v3&utm_medium=api_v3_business_search&utm_source=QNZpjiWMh-xtTiixb79gYw","21","Japanese | Sushi Bars | Steakhouses","3.5","42.7270899","-87.78543","$$","518 College Ave"
"9Kqo73Fsy806pqmMVXdhUw","Corner House","FALSE","https://www.yelp.com/biz/corner-house-racine?adjust_creative=QNZpjiWMh-xtTiixb79gYw&utm_campaign=yelp_api_v3&utm_medium=api_v3_business_search&utm_source=QNZpjiWMh-xtTiixb79gYw","48","Steakhouses","3","42.7147979736328","-87.798454284668","$$","1521 Washington Ave"
"_dbj7KpY--MC4vXzSMSn4Q","tony's bar and grill","FALSE","https://www.yelp.com/biz/tonys-bar-and-grill-racine?adjust_creative=QNZpjiWMh-xtTiixb79gYw&utm_campaign=yelp_api_v3&utm_medium=api_v3_business_search&utm_source=QNZpjiWMh-xtTiixb79gYw","1","Bars | Mexican","5","42.7331876872132","-87.8027127602624","$$","1675 State St"
"K_QMSc_JOVmongIVgc45dA","De Rose Bar","FALSE","https://www.yelp.com/biz/de-rose-bar-racine?adjust_creative=QNZpjiWMh-xtTiixb79gYw&utm_campaign=yelp_api_v3&utm_medium=api_v3_business_search&utm_source=QNZpjiWMh-xtTiixb79gYw","1","Restaurants","5","42.7391396","-87.8021088","","1444 Blake Ave"
"rxd5cE3_WB6Hiw9hTksIsQ","DeMarks Bar & Restaurant","FALSE","https://www.yelp.com/biz/demarks-bar-and-restaurant-racine?adjust_creative=QNZpjiWMh-xtTiixb79gYw&utm_campaign=yelp_api_v3&utm_medium=api_v3_business_search&utm_source=QNZpjiWMh-xtTiixb79gYw","1","Burgers | Pizza | Sandwiches","5","42.7378713462191","-87.8003971651196","","1600 Albert St"
"4MFzeKjwG-_hZ_nVjIrr2A","Deli Station","FALSE","https://www.yelp.com/biz/deli-station-racine?adjust_creative=QNZpjiWMh-xtTiixb79gYw&utm_campaign=yelp_api_v3&utm_medium=api_v3_business_search&utm_source=QNZpjiWMh-xtTiixb79gYw","1","Delis","3","42.7316256612539","-87.7990141510963","$","1516 State St"
"0JvfbGElZMZnFWxnJL7YXg","McDonald's","FALSE","https://www.yelp.com/biz/mcdonalds-racine-11?adjust_creative=QNZpjiWMh-xtTiixb79gYw&utm_campaign=yelp_api_v3&utm_medium=api_v3_business_search&utm_source=QNZpjiWMh-xtTiixb79gYw","4","Burgers | Fast Food | Coffee & Tea","2.5","42.732152","-87.799489","$","1520 State St"
"pG4zihvbnsXTmqH2pbXSFA","Subway","FALSE","https://www.yelp.com/biz/subway-mount-pleasant-18?adjust_creative=QNZpjiWMh-xtTiixb79gYw&utm_campaign=yelp_api_v3&utm_medium=api_v3_business_search&utm_source=QNZpjiWMh-xtTiixb79gYw","1","Sandwiches | Fast Food","5","42.73121","-87.82064","","3437 Spring St"
"gajdG-t3kY0C6eK7ImRXeA","Whey Chai Chinese Restaurant","FALSE","https://www.yelp.com/biz/whey-chai-chinese-restaurant-racine?adjust_creative=QNZpjiWMh-xtTiixb79gYw&utm_campaign=yelp_api_v3&utm_medium=api_v3_business_search&utm_source=QNZpjiWMh-xtTiixb79gYw","23","Chinese","2.5","42.729190826416","-87.7835922241211","$","400 Main St"
"2pGETgStTMBBxzuBzIY93g","My Soul","FALSE","https://www.yelp.com/biz/my-soul%C3%A9-racine?adjust_creative=QNZpjiWMh-xtTiixb79gYw&utm_campaign=yelp_api_v3&utm_medium=api_v3_business_search&utm_source=QNZpjiWMh-xtTiixb79gYw","2","American (Traditional)","2","42.729856901634","-87.7836839854717","","324 Main St"
